{
    "departement": {
        "code": "37",
        "nom": "Indre-et-Loire",
        "slug": "indre-et-loire"
    },
    "region": {
        "id": 5,
        "code": "04",
        "nom": "Centre-Val de Loire",
        "slug": "centre-val-de-loire"
    },
    "voisins": [
        {
            "dep_code": "18",
            "dep_nom": "Cher",
            "dep_slug": "cher"
        },
        {
            "dep_code": "28",
            "dep_nom": "Eure-et-Loir",
            "dep_slug": "eure-et-loir"
        },
        {
            "dep_code": "36",
            "dep_nom": "Indre",
            "dep_slug": "indre"
        },
        {
            "dep_code": "41",
            "dep_nom": "Loir-et-Cher",
            "dep_slug": "loir-et-cher"
        }
    ],
    "villes_count": 116,
    "villes": [
        {
            "id": 3458,
            "code_insee": "37001",
            "nom_standard": "Abilly",
            "slug_ville": "abilly",
            "code_postal": "37160",
            "population": 1133,
            "superficie_km2": "31.00",
            "latitude_centre": "46.9410019",
            "longitude_centre": "0.7350000"
        },
        {
            "id": 3459,
            "code_insee": "37002",
            "nom_standard": "Ambillou",
            "slug_ville": "ambillou",
            "code_postal": "37340",
            "population": 1751,
            "superficie_km2": "50.00",
            "latitude_centre": "47.4519997",
            "longitude_centre": "0.4470000"
        },
        {
            "id": 3460,
            "code_insee": "37003",
            "nom_standard": "Amboise",
            "slug_ville": "amboise",
            "code_postal": "37400",
            "population": 12938,
            "superficie_km2": "41.00",
            "latitude_centre": "47.3919983",
            "longitude_centre": "1.0000000"
        },
        {
            "id": 3461,
            "code_insee": "37006",
            "nom_standard": "Artannes-sur-Indre",
            "slug_ville": "artannes-sur-indre",
            "code_postal": "37260",
            "population": 2734,
            "superficie_km2": "21.00",
            "latitude_centre": "47.2760010",
            "longitude_centre": "0.5950000"
        },
        {
            "id": 3462,
            "code_insee": "37008",
            "nom_standard": "Athée-sur-Cher",
            "slug_ville": "athee-sur-cher",
            "code_postal": "37270",
            "population": 2804,
            "superficie_km2": "34.00",
            "latitude_centre": "47.3149986",
            "longitude_centre": "0.9020000"
        },
        {
            "id": 3463,
            "code_insee": "37010",
            "nom_standard": "Auzouer-en-Touraine",
            "slug_ville": "auzouer-en-touraine",
            "code_postal": "37110",
            "population": 2190,
            "superficie_km2": "34.00",
            "latitude_centre": "47.5540009",
            "longitude_centre": "0.9370000"
        },
        {
            "id": 3464,
            "code_insee": "37011",
            "nom_standard": "Avoine",
            "slug_ville": "avoine",
            "code_postal": "37420",
            "population": 1938,
            "superficie_km2": "12.00",
            "latitude_centre": "47.2239990",
            "longitude_centre": "0.1880000"
        },
        {
            "id": 3465,
            "code_insee": "37014",
            "nom_standard": "Azay-le-Rideau",
            "slug_ville": "azay-le-rideau",
            "code_postal": "37190",
            "population": 3442,
            "superficie_km2": "27.00",
            "latitude_centre": "47.2729988",
            "longitude_centre": "0.4700000"
        },
        {
            "id": 3466,
            "code_insee": "37015",
            "nom_standard": "Azay-sur-Cher",
            "slug_ville": "azay-sur-cher",
            "code_postal": "37270",
            "population": 3080,
            "superficie_km2": "23.00",
            "latitude_centre": "47.3339996",
            "longitude_centre": "0.8450000"
        },
        {
            "id": 3467,
            "code_insee": "37018",
            "nom_standard": "Ballan-Miré",
            "slug_ville": "ballan-mire",
            "code_postal": "37510",
            "population": 8217,
            "superficie_km2": "26.00",
            "latitude_centre": "47.3370018",
            "longitude_centre": "0.6010000"
        },
        {
            "id": 3468,
            "code_insee": "37020",
            "nom_standard": "Beaulieu-lès-Loches",
            "slug_ville": "beaulieu-les-loches",
            "code_postal": "37600",
            "population": 1759,
            "superficie_km2": "4.00",
            "latitude_centre": "47.1279984",
            "longitude_centre": "1.0230000"
        },
        {
            "id": 3469,
            "code_insee": "37021",
            "nom_standard": "Beaumont-Louestault",
            "slug_ville": "beaumont-louestault",
            "code_postal": "37370",
            "population": 1765,
            "superficie_km2": "39.00",
            "latitude_centre": "47.5690002",
            "longitude_centre": "0.6730000"
        },
        {
            "id": 3470,
            "code_insee": "37022",
            "nom_standard": "Beaumont-en-Véron",
            "slug_ville": "beaumont-en-veron",
            "code_postal": "37420",
            "population": 2688,
            "superficie_km2": "19.00",
            "latitude_centre": "47.1940002",
            "longitude_centre": "0.1860000"
        },
        {
            "id": 3471,
            "code_insee": "37027",
            "nom_standard": "Bléré",
            "slug_ville": "blere",
            "code_postal": "37150",
            "population": 5280,
            "superficie_km2": "31.00",
            "latitude_centre": "47.3079987",
            "longitude_centre": "0.9870000"
        },
        {
            "id": 3472,
            "code_insee": "37031",
            "nom_standard": "Bourgueil",
            "slug_ville": "bourgueil",
            "code_postal": "37140",
            "population": 3728,
            "superficie_km2": "33.00",
            "latitude_centre": "47.3100014",
            "longitude_centre": "0.1740000"
        },
        {
            "id": 3473,
            "code_insee": "37043",
            "nom_standard": "Cangey",
            "slug_ville": "cangey",
            "code_postal": "37530",
            "population": 1030,
            "superficie_km2": "23.00",
            "latitude_centre": "47.4889984",
            "longitude_centre": "1.0599999"
        },
        {
            "id": 3474,
            "code_insee": "37045",
            "nom_standard": "La Celle-Saint-Avant",
            "slug_ville": "la-celle-saint-avant",
            "code_postal": "37160",
            "population": 1051,
            "superficie_km2": "18.00",
            "latitude_centre": "47.0209999",
            "longitude_centre": "0.6160000"
        },
        {
            "id": 3475,
            "code_insee": "37047",
            "nom_standard": "Cerelles",
            "slug_ville": "cerelles",
            "code_postal": "37390",
            "population": 1242,
            "superficie_km2": "12.00",
            "latitude_centre": "47.5029984",
            "longitude_centre": "0.6850000"
        },
        {
            "id": 3476,
            "code_insee": "37049",
            "nom_standard": "Chambourg-sur-Indre",
            "slug_ville": "chambourg-sur-indre",
            "code_postal": "37310",
            "population": 1236,
            "superficie_km2": "28.00",
            "latitude_centre": "47.1720009",
            "longitude_centre": "0.9690000"
        },
        {
            "id": 3477,
            "code_insee": "37050",
            "nom_standard": "Chambray-lès-Tours",
            "slug_ville": "chambray-les-tours",
            "code_postal": "37170",
            "population": 11589,
            "superficie_km2": "19.00",
            "latitude_centre": "47.3310013",
            "longitude_centre": "0.7170000"
        },
        {
            "id": 3478,
            "code_insee": "37052",
            "nom_standard": "Chançay",
            "slug_ville": "chancay",
            "code_postal": "37210",
            "population": 1127,
            "superficie_km2": "15.00",
            "latitude_centre": "47.4500008",
            "longitude_centre": "0.8810000"
        },
        {
            "id": 3479,
            "code_insee": "37054",
            "nom_standard": "Chanceaux-sur-Choisille",
            "slug_ville": "chanceaux-sur-choisille",
            "code_postal": "37390",
            "population": 3519,
            "superficie_km2": "18.00",
            "latitude_centre": "47.4780006",
            "longitude_centre": "0.7030000"
        },
        {
            "id": 3480,
            "code_insee": "37058",
            "nom_standard": "La Chapelle-sur-Loire",
            "slug_ville": "la-chapelle-sur-loire",
            "code_postal": "37140",
            "population": 1453,
            "superficie_km2": "19.00",
            "latitude_centre": "47.2509995",
            "longitude_centre": "0.2150000"
        },
        {
            "id": 3481,
            "code_insee": "37059",
            "nom_standard": "Charentilly",
            "slug_ville": "charentilly",
            "code_postal": "37390",
            "population": 1336,
            "superficie_km2": "14.00",
            "latitude_centre": "47.4690018",
            "longitude_centre": "0.5950000"
        },
        {
            "id": 3482,
            "code_insee": "37060",
            "nom_standard": "Chargé",
            "slug_ville": "charge",
            "code_postal": "37530",
            "population": 1336,
            "superficie_km2": "9.00",
            "latitude_centre": "47.4319992",
            "longitude_centre": "1.0410000"
        },
        {
            "id": 3483,
            "code_insee": "37062",
            "nom_standard": "Château-la-Vallière",
            "slug_ville": "chateau-la-valliere",
            "code_postal": "37330",
            "population": 1719,
            "superficie_km2": "22.00",
            "latitude_centre": "47.5270004",
            "longitude_centre": "0.3300000"
        },
        {
            "id": 3484,
            "code_insee": "37063",
            "nom_standard": "Château-Renault",
            "slug_ville": "chateau-renault",
            "code_postal": "37110",
            "population": 4727,
            "superficie_km2": "4.00",
            "latitude_centre": "47.5919991",
            "longitude_centre": "0.9100000"
        },
        {
            "id": 3485,
            "code_insee": "37067",
            "nom_standard": "Cheillé",
            "slug_ville": "cheille",
            "code_postal": "37190",
            "population": 1822,
            "superficie_km2": "47.00",
            "latitude_centre": "47.2400017",
            "longitude_centre": "0.4230000"
        },
        {
            "id": 3486,
            "code_insee": "37072",
            "nom_standard": "Chinon",
            "slug_ville": "chinon",
            "code_postal": "37500",
            "population": 8052,
            "superficie_km2": "39.00",
            "latitude_centre": "47.1720009",
            "longitude_centre": "0.2450000"
        },
        {
            "id": 3487,
            "code_insee": "37074",
            "nom_standard": "Chouzé-sur-Loire",
            "slug_ville": "chouze-sur-loire",
            "code_postal": "37140",
            "population": 2089,
            "superficie_km2": "28.00",
            "latitude_centre": "47.2459984",
            "longitude_centre": "0.1090000"
        },
        {
            "id": 3488,
            "code_insee": "37077",
            "nom_standard": "Cinq-Mars-la-Pile",
            "slug_ville": "cinq-mars-la-pile",
            "code_postal": "37130",
            "population": 3842,
            "superficie_km2": "20.00",
            "latitude_centre": "47.3540001",
            "longitude_centre": "0.4530000"
        },
        {
            "id": 3489,
            "code_insee": "37079",
            "nom_standard": "Civray-de-Touraine",
            "slug_ville": "civray-de-touraine",
            "code_postal": "37150",
            "population": 1776,
            "superficie_km2": "23.00",
            "latitude_centre": "47.3400002",
            "longitude_centre": "1.0410000"
        },
        {
            "id": 3490,
            "code_insee": "37081",
            "nom_standard": "Cléré-les-Pins",
            "slug_ville": "clere-les-pins",
            "code_postal": "37340",
            "population": 1401,
            "superficie_km2": "36.00",
            "latitude_centre": "47.4459992",
            "longitude_centre": "0.3790000"
        },
        {
            "id": 3491,
            "code_insee": "37083",
            "nom_standard": "Cormery",
            "slug_ville": "cormery",
            "code_postal": "37320",
            "population": 1818,
            "superficie_km2": "6.00",
            "latitude_centre": "47.2589989",
            "longitude_centre": "0.8460000"
        },
        {
            "id": 3492,
            "code_insee": "37091",
            "nom_standard": "La Croix-en-Touraine",
            "slug_ville": "la-croix-en-touraine",
            "code_postal": "37150",
            "population": 2439,
            "superficie_km2": "15.00",
            "latitude_centre": "47.3489990",
            "longitude_centre": "0.9920000"
        },
        {
            "id": 3493,
            "code_insee": "37104",
            "nom_standard": "Esvres",
            "slug_ville": "esvres",
            "code_postal": "37320",
            "population": 6208,
            "superficie_km2": "36.00",
            "latitude_centre": "47.2929993",
            "longitude_centre": "0.7910000"
        },
        {
            "id": 3494,
            "code_insee": "37109",
            "nom_standard": "Fondettes",
            "slug_ville": "fondettes",
            "code_postal": "37230",
            "population": 10741,
            "superficie_km2": "32.00",
            "latitude_centre": "47.4109993",
            "longitude_centre": "0.6030000"
        },
        {
            "id": 3495,
            "code_insee": "37110",
            "nom_standard": "Francueil",
            "slug_ville": "francueil",
            "code_postal": "37150",
            "population": 1386,
            "superficie_km2": "13.00",
            "latitude_centre": "47.3100014",
            "longitude_centre": "1.0779999"
        },
        {
            "id": 3496,
            "code_insee": "37111",
            "nom_standard": "Genillé",
            "slug_ville": "genille",
            "code_postal": "37460",
            "population": 1492,
            "superficie_km2": "63.00",
            "latitude_centre": "47.1850014",
            "longitude_centre": "1.1090000"
        },
        {
            "id": 3497,
            "code_insee": "37115",
            "nom_standard": "Descartes",
            "slug_ville": "descartes",
            "code_postal": "37160",
            "population": 3294,
            "superficie_km2": "38.00",
            "latitude_centre": "46.9939995",
            "longitude_centre": "0.6970000"
        },
        {
            "id": 3498,
            "code_insee": "37118",
            "nom_standard": "Huismes",
            "slug_ville": "huismes",
            "code_postal": "37420",
            "population": 1403,
            "superficie_km2": "24.00",
            "latitude_centre": "47.2270012",
            "longitude_centre": "0.2550000"
        },
        {
            "id": 3499,
            "code_insee": "37119",
            "nom_standard": "L'Île-Bouchard",
            "slug_ville": "l-ile-bouchard",
            "code_postal": "37220",
            "population": 1573,
            "superficie_km2": "4.00",
            "latitude_centre": "47.1230011",
            "longitude_centre": "0.4230000"
        },
        {
            "id": 3500,
            "code_insee": "37122",
            "nom_standard": "Joué-lès-Tours",
            "slug_ville": "joue-les-tours",
            "code_postal": "37300",
            "population": 38183,
            "superficie_km2": "32.00",
            "latitude_centre": "47.3339996",
            "longitude_centre": "0.6540000"
        },
        {
            "id": 3501,
            "code_insee": "37123",
            "nom_standard": "Langeais",
            "slug_ville": "langeais",
            "code_postal": "37130",
            "population": 4335,
            "superficie_km2": "60.00",
            "latitude_centre": "47.3499985",
            "longitude_centre": "0.3680000"
        },
        {
            "id": 3502,
            "code_insee": "37124",
            "nom_standard": "Larçay",
            "slug_ville": "larcay",
            "code_postal": "37270",
            "population": 2497,
            "superficie_km2": "11.00",
            "latitude_centre": "47.3530006",
            "longitude_centre": "0.7760000"
        },
        {
            "id": 3503,
            "code_insee": "37128",
            "nom_standard": "Lignières-de-Touraine",
            "slug_ville": "lignieres-de-touraine",
            "code_postal": "37130",
            "population": 1307,
            "superficie_km2": "10.00",
            "latitude_centre": "47.2949982",
            "longitude_centre": "0.4170000"
        },
        {
            "id": 3504,
            "code_insee": "37129",
            "nom_standard": "Ligré",
            "slug_ville": "ligre",
            "code_postal": "37500",
            "population": 1072,
            "superficie_km2": "28.00",
            "latitude_centre": "47.1090012",
            "longitude_centre": "0.2720000"
        },
        {
            "id": 3505,
            "code_insee": "37130",
            "nom_standard": "Ligueil",
            "slug_ville": "ligueil",
            "code_postal": "37240",
            "population": 2103,
            "superficie_km2": "30.00",
            "latitude_centre": "47.0419998",
            "longitude_centre": "0.8170000"
        },
        {
            "id": 3506,
            "code_insee": "37131",
            "nom_standard": "Limeray",
            "slug_ville": "limeray",
            "code_postal": "37530",
            "population": 1248,
            "superficie_km2": "14.00",
            "latitude_centre": "47.4550018",
            "longitude_centre": "1.0310000"
        },
        {
            "id": 3507,
            "code_insee": "37132",
            "nom_standard": "Loches",
            "slug_ville": "loches",
            "code_postal": "37600",
            "population": 6180,
            "superficie_km2": "27.00",
            "latitude_centre": "47.1199989",
            "longitude_centre": "0.9740000"
        },
        {
            "id": 3508,
            "code_insee": "37139",
            "nom_standard": "Luynes",
            "slug_ville": "luynes",
            "code_postal": "37230",
            "population": 5075,
            "superficie_km2": "34.00",
            "latitude_centre": "47.4119988",
            "longitude_centre": "0.5420000"
        },
        {
            "id": 3509,
            "code_insee": "37143",
            "nom_standard": "Manthelan",
            "slug_ville": "manthelan",
            "code_postal": "37240",
            "population": 1367,
            "superficie_km2": "39.00",
            "latitude_centre": "47.1360016",
            "longitude_centre": "0.8220000"
        },
        {
            "id": 3510,
            "code_insee": "37150",
            "nom_standard": "Mazières-de-Touraine",
            "slug_ville": "mazieres-de-touraine",
            "code_postal": "37130",
            "population": 1424,
            "superficie_km2": "34.00",
            "latitude_centre": "47.3909988",
            "longitude_centre": "0.4300000"
        },
        {
            "id": 3511,
            "code_insee": "37151",
            "nom_standard": "La Membrolle-sur-Choisille",
            "slug_ville": "la-membrolle-sur-choisille",
            "code_postal": "37390",
            "population": 3291,
            "superficie_km2": "7.00",
            "latitude_centre": "47.4449997",
            "longitude_centre": "0.6240000"
        },
        {
            "id": 3512,
            "code_insee": "37152",
            "nom_standard": "Mettray",
            "slug_ville": "mettray",
            "code_postal": "37390",
            "population": 2062,
            "superficie_km2": "10.00",
            "latitude_centre": "47.4539986",
            "longitude_centre": "0.6600000"
        },
        {
            "id": 3513,
            "code_insee": "37153",
            "nom_standard": "Monnaie",
            "slug_ville": "monnaie",
            "code_postal": "37380",
            "population": 4737,
            "superficie_km2": "39.00",
            "latitude_centre": "47.4980011",
            "longitude_centre": "0.7860000"
        },
        {
            "id": 3514,
            "code_insee": "37154",
            "nom_standard": "Montbazon",
            "slug_ville": "montbazon",
            "code_postal": "37250",
            "population": 4717,
            "superficie_km2": "7.00",
            "latitude_centre": "47.2840004",
            "longitude_centre": "0.7070000"
        },
        {
            "id": 3515,
            "code_insee": "37156",
            "nom_standard": "Montlouis-sur-Loire",
            "slug_ville": "montlouis-sur-loire",
            "code_postal": "37270",
            "population": 11048,
            "superficie_km2": "25.00",
            "latitude_centre": "47.3820000",
            "longitude_centre": "0.8410000"
        },
        {
            "id": 3516,
            "code_insee": "37159",
            "nom_standard": "Monts",
            "slug_ville": "monts",
            "code_postal": "37260",
            "population": 7914,
            "superficie_km2": "28.00",
            "latitude_centre": "47.2779999",
            "longitude_centre": "0.6460000"
        },
        {
            "id": 3517,
            "code_insee": "37163",
            "nom_standard": "Nazelles-Négron",
            "slug_ville": "nazelles-negron",
            "code_postal": "37530",
            "population": 3512,
            "superficie_km2": "22.00",
            "latitude_centre": "47.4319992",
            "longitude_centre": "0.9470000"
        },
        {
            "id": 3518,
            "code_insee": "37167",
            "nom_standard": "Neuillé-Pont-Pierre",
            "slug_ville": "neuille-pont-pierre",
            "code_postal": "37360",
            "population": 2183,
            "superficie_km2": "39.00",
            "latitude_centre": "47.5499992",
            "longitude_centre": "0.5500000"
        },
        {
            "id": 3519,
            "code_insee": "37170",
            "nom_standard": "Neuvy-le-Roi",
            "slug_ville": "neuvy-le-roi",
            "code_postal": "37370",
            "population": 1065,
            "superficie_km2": "48.00",
            "latitude_centre": "47.6040001",
            "longitude_centre": "0.5900000"
        },
        {
            "id": 3520,
            "code_insee": "37171",
            "nom_standard": "Noizay",
            "slug_ville": "noizay",
            "code_postal": "37210",
            "population": 1125,
            "superficie_km2": "18.00",
            "latitude_centre": "47.4169998",
            "longitude_centre": "0.8970000"
        },
        {
            "id": 3521,
            "code_insee": "37172",
            "nom_standard": "Notre-Dame-d'Oé",
            "slug_ville": "notre-dame-d-oe",
            "code_postal": "37390",
            "population": 4191,
            "superficie_km2": "8.00",
            "latitude_centre": "47.4539986",
            "longitude_centre": "0.7090000"
        },
        {
            "id": 3522,
            "code_insee": "37175",
            "nom_standard": "Nouzilly",
            "slug_ville": "nouzilly",
            "code_postal": "37380",
            "population": 1237,
            "superficie_km2": "40.00",
            "latitude_centre": "47.5369988",
            "longitude_centre": "0.7400000"
        },
        {
            "id": 3523,
            "code_insee": "37176",
            "nom_standard": "Noyant-de-Touraine",
            "slug_ville": "noyant-de-touraine",
            "code_postal": "37800",
            "population": 1170,
            "superficie_km2": "14.00",
            "latitude_centre": "47.1020012",
            "longitude_centre": "0.5680000"
        },
        {
            "id": 3524,
            "code_insee": "37179",
            "nom_standard": "Parçay-Meslay",
            "slug_ville": "parcay-meslay",
            "code_postal": "37210",
            "population": 2555,
            "superficie_km2": "14.00",
            "latitude_centre": "47.4519997",
            "longitude_centre": "0.7430000"
        },
        {
            "id": 3525,
            "code_insee": "37182",
            "nom_standard": "Pernay",
            "slug_ville": "pernay",
            "code_postal": "37230",
            "population": 1504,
            "superficie_km2": "18.00",
            "latitude_centre": "47.4539986",
            "longitude_centre": "0.5180000"
        },
        {
            "id": 3526,
            "code_insee": "37183",
            "nom_standard": "Perrusson",
            "slug_ville": "perrusson",
            "code_postal": "37600",
            "population": 1436,
            "superficie_km2": "29.00",
            "latitude_centre": "47.0929985",
            "longitude_centre": "1.0080000"
        },
        {
            "id": 3527,
            "code_insee": "37185",
            "nom_standard": "Pocé-sur-Cisse",
            "slug_ville": "poce-sur-cisse",
            "code_postal": "37530",
            "population": 1698,
            "superficie_km2": "11.00",
            "latitude_centre": "47.4440002",
            "longitude_centre": "0.9870000"
        },
        {
            "id": 3528,
            "code_insee": "37186",
            "nom_standard": "Pont-de-Ruan",
            "slug_ville": "pont-de-ruan",
            "code_postal": "37260",
            "population": 1215,
            "superficie_km2": "6.00",
            "latitude_centre": "47.2649994",
            "longitude_centre": "0.5640000"
        },
        {
            "id": 3529,
            "code_insee": "37189",
            "nom_standard": "Preuilly-sur-Claise",
            "slug_ville": "preuilly-sur-claise",
            "code_postal": "37290",
            "population": 1010,
            "superficie_km2": "12.00",
            "latitude_centre": "46.8499985",
            "longitude_centre": "0.9310000"
        },
        {
            "id": 3530,
            "code_insee": "37192",
            "nom_standard": "Reignac-sur-Indre",
            "slug_ville": "reignac-sur-indre",
            "code_postal": "37310",
            "population": 1313,
            "superficie_km2": "22.00",
            "latitude_centre": "47.2229996",
            "longitude_centre": "0.9160000"
        },
        {
            "id": 3531,
            "code_insee": "37193",
            "nom_standard": "Restigné",
            "slug_ville": "restigne",
            "code_postal": "37140",
            "population": 1129,
            "superficie_km2": "20.00",
            "latitude_centre": "47.2869988",
            "longitude_centre": "0.2360000"
        },
        {
            "id": 3532,
            "code_insee": "37194",
            "nom_standard": "Reugny",
            "slug_ville": "reugny",
            "code_postal": "37380",
            "population": 1760,
            "superficie_km2": "30.00",
            "latitude_centre": "47.4860001",
            "longitude_centre": "0.8720000"
        },
        {
            "id": 3533,
            "code_insee": "37195",
            "nom_standard": "La Riche",
            "slug_ville": "la-riche",
            "code_postal": "37520",
            "population": 10325,
            "superficie_km2": "8.00",
            "latitude_centre": "47.3810005",
            "longitude_centre": "0.6380000"
        },
        {
            "id": 3534,
            "code_insee": "37196",
            "nom_standard": "Richelieu",
            "slug_ville": "richelieu",
            "code_postal": "37120",
            "population": 1635,
            "superficie_km2": "5.00",
            "latitude_centre": "47.0139999",
            "longitude_centre": "0.3160000"
        },
        {
            "id": 3535,
            "code_insee": "37203",
            "nom_standard": "Rochecorbon",
            "slug_ville": "rochecorbon",
            "code_postal": "37210",
            "population": 3220,
            "superficie_km2": "17.00",
            "latitude_centre": "47.4300003",
            "longitude_centre": "0.7610000"
        },
        {
            "id": 3536,
            "code_insee": "37204",
            "nom_standard": "Rouziers-de-Touraine",
            "slug_ville": "rouziers-de-touraine",
            "code_postal": "37360",
            "population": 1348,
            "superficie_km2": "18.00",
            "latitude_centre": "47.5309982",
            "longitude_centre": "0.6470000"
        },
        {
            "id": 3537,
            "code_insee": "37205",
            "nom_standard": "Saché",
            "slug_ville": "sache",
            "code_postal": "37190",
            "population": 1403,
            "superficie_km2": "28.00",
            "latitude_centre": "47.2369995",
            "longitude_centre": "0.5380000"
        },
        {
            "id": 3538,
            "code_insee": "37206",
            "nom_standard": "Saint-Antoine-du-Rocher",
            "slug_ville": "saint-antoine-du-rocher",
            "code_postal": "37360",
            "population": 1770,
            "superficie_km2": "24.00",
            "latitude_centre": "47.4959984",
            "longitude_centre": "0.6310000"
        },
        {
            "id": 3539,
            "code_insee": "37208",
            "nom_standard": "Saint-Avertin",
            "slug_ville": "saint-avertin",
            "code_postal": "37550",
            "population": 15000,
            "superficie_km2": "13.00",
            "latitude_centre": "47.3569984",
            "longitude_centre": "0.7380000"
        },
        {
            "id": 3540,
            "code_insee": "37211",
            "nom_standard": "Saint-Branchs",
            "slug_ville": "saint-branchs",
            "code_postal": "37320",
            "population": 2625,
            "superficie_km2": "52.00",
            "latitude_centre": "47.2239990",
            "longitude_centre": "0.7580000"
        },
        {
            "id": 3541,
            "code_insee": "37213",
            "nom_standard": "Saint-Christophe-sur-le-Nais",
            "slug_ville": "saint-christophe-sur-le-nais",
            "code_postal": "37370",
            "population": 1083,
            "superficie_km2": "18.00",
            "latitude_centre": "47.6240006",
            "longitude_centre": "0.4730000"
        },
        {
            "id": 3542,
            "code_insee": "37214",
            "nom_standard": "Saint-Cyr-sur-Loire",
            "slug_ville": "saint-cyr-sur-loire",
            "code_postal": "37540",
            "population": 17004,
            "superficie_km2": "13.00",
            "latitude_centre": "47.4189987",
            "longitude_centre": "0.6580000"
        },
        {
            "id": 3543,
            "code_insee": "37216",
            "nom_standard": "Saint-Épain",
            "slug_ville": "saint-epain",
            "code_postal": "37800",
            "population": 1514,
            "superficie_km2": "63.00",
            "latitude_centre": "47.1529999",
            "longitude_centre": "0.5790000"
        },
        {
            "id": 3544,
            "code_insee": "37217",
            "nom_standard": "Saint-Étienne-de-Chigny",
            "slug_ville": "saint-etienne-de-chigny",
            "code_postal": "37230",
            "population": 1614,
            "superficie_km2": "21.00",
            "latitude_centre": "47.3930016",
            "longitude_centre": "0.4990000"
        },
        {
            "id": 3545,
            "code_insee": "37219",
            "nom_standard": "Saint-Genouph",
            "slug_ville": "saint-genouph",
            "code_postal": "37510",
            "population": 1025,
            "superficie_km2": "5.00",
            "latitude_centre": "47.3720017",
            "longitude_centre": "0.5890000"
        },
        {
            "id": 3546,
            "code_insee": "37225",
            "nom_standard": "Saint-Martin-le-Beau",
            "slug_ville": "saint-martin-le-beau",
            "code_postal": "37270",
            "population": 3181,
            "superficie_km2": "19.00",
            "latitude_centre": "47.3610001",
            "longitude_centre": "0.9100000"
        },
        {
            "id": 3547,
            "code_insee": "37226",
            "nom_standard": "Sainte-Maure-de-Touraine",
            "slug_ville": "sainte-maure-de-touraine",
            "code_postal": "37800",
            "population": 4144,
            "superficie_km2": "41.00",
            "latitude_centre": "47.1150017",
            "longitude_centre": "0.6390000"
        },
        {
            "id": 3548,
            "code_insee": "37228",
            "nom_standard": "Saint-Nicolas-de-Bourgueil",
            "slug_ville": "saint-nicolas-de-bourgueil",
            "code_postal": "37140",
            "population": 1110,
            "superficie_km2": "36.00",
            "latitude_centre": "47.2960014",
            "longitude_centre": "0.1300000"
        },
        {
            "id": 3549,
            "code_insee": "37231",
            "nom_standard": "Saint-Paterne-Racan",
            "slug_ville": "saint-paterne-racan",
            "code_postal": "37370",
            "population": 1680,
            "superficie_km2": "48.00",
            "latitude_centre": "47.5820007",
            "longitude_centre": "0.4670000"
        },
        {
            "id": 3550,
            "code_insee": "37232",
            "nom_standard": "Coteaux-sur-Loire",
            "slug_ville": "coteaux-sur-loire",
            "code_postal": "37130",
            "population": 1879,
            "superficie_km2": "17.00",
            "latitude_centre": "47.2910004",
            "longitude_centre": "0.3010000"
        },
        {
            "id": 3551,
            "code_insee": "37233",
            "nom_standard": "Saint-Pierre-des-Corps",
            "slug_ville": "saint-pierre-des-corps",
            "code_postal": "37700",
            "population": 15909,
            "superficie_km2": "11.00",
            "latitude_centre": "47.3880005",
            "longitude_centre": "0.7380000"
        },
        {
            "id": 3552,
            "code_insee": "37237",
            "nom_standard": "Saint-Roch",
            "slug_ville": "saint-roch",
            "code_postal": "37390",
            "population": 1308,
            "superficie_km2": "5.00",
            "latitude_centre": "47.4459992",
            "longitude_centre": "0.5740000"
        },
        {
            "id": 3553,
            "code_insee": "37241",
            "nom_standard": "Savigné-sur-Lathan",
            "slug_ville": "savigne-sur-lathan",
            "code_postal": "37340",
            "population": 1321,
            "superficie_km2": "18.00",
            "latitude_centre": "47.4500008",
            "longitude_centre": "0.3270000"
        },
        {
            "id": 3554,
            "code_insee": "37242",
            "nom_standard": "Savigny-en-Véron",
            "slug_ville": "savigny-en-veron",
            "code_postal": "37420",
            "population": 1538,
            "superficie_km2": "21.00",
            "latitude_centre": "47.2109985",
            "longitude_centre": "0.1300000"
        },
        {
            "id": 3555,
            "code_insee": "37243",
            "nom_standard": "Savonnières",
            "slug_ville": "savonnieres",
            "code_postal": "37510",
            "population": 3294,
            "superficie_km2": "17.00",
            "latitude_centre": "47.3460007",
            "longitude_centre": "0.5590000"
        },
        {
            "id": 3556,
            "code_insee": "37245",
            "nom_standard": "Semblançay",
            "slug_ville": "semblancay",
            "code_postal": "37360",
            "population": 2149,
            "superficie_km2": "36.00",
            "latitude_centre": "47.5029984",
            "longitude_centre": "0.5650000"
        },
        {
            "id": 3557,
            "code_insee": "37249",
            "nom_standard": "Sonzay",
            "slug_ville": "sonzay",
            "code_postal": "37360",
            "population": 1418,
            "superficie_km2": "48.00",
            "latitude_centre": "47.5130005",
            "longitude_centre": "0.4770000"
        },
        {
            "id": 3558,
            "code_insee": "37250",
            "nom_standard": "Sorigny",
            "slug_ville": "sorigny",
            "code_postal": "37250",
            "population": 2817,
            "superficie_km2": "43.00",
            "latitude_centre": "47.2309990",
            "longitude_centre": "0.6870000"
        },
        {
            "id": 3559,
            "code_insee": "37254",
            "nom_standard": "Tauxigny-Saint-Bauld",
            "slug_ville": "tauxigny-saint-bauld",
            "code_postal": "37310",
            "population": 1693,
            "superficie_km2": "37.00",
            "latitude_centre": "47.2080002",
            "longitude_centre": "0.8300000"
        },
        {
            "id": 3560,
            "code_insee": "37257",
            "nom_standard": "Thilouze",
            "slug_ville": "thilouze",
            "code_postal": "37260",
            "population": 1790,
            "superficie_km2": "34.00",
            "latitude_centre": "47.2200012",
            "longitude_centre": "0.6010000"
        },
        {
            "id": 3561,
            "code_insee": "37261",
            "nom_standard": "Tours",
            "slug_ville": "tours",
            "code_postal": "37100",
            "population": 137658,
            "superficie_km2": "33.00",
            "latitude_centre": "47.3989983",
            "longitude_centre": "0.6960000"
        },
        {
            "id": 3562,
            "code_insee": "37263",
            "nom_standard": "Truyes",
            "slug_ville": "truyes",
            "code_postal": "37320",
            "population": 2436,
            "superficie_km2": "16.00",
            "latitude_centre": "47.2859993",
            "longitude_centre": "0.8520000"
        },
        {
            "id": 3563,
            "code_insee": "37264",
            "nom_standard": "Vallères",
            "slug_ville": "valleres",
            "code_postal": "37190",
            "population": 1324,
            "superficie_km2": "15.00",
            "latitude_centre": "47.3069992",
            "longitude_centre": "0.4740000"
        },
        {
            "id": 3564,
            "code_insee": "37266",
            "nom_standard": "Veigné",
            "slug_ville": "veigne",
            "code_postal": "37250",
            "population": 6568,
            "superficie_km2": "27.00",
            "latitude_centre": "47.2890015",
            "longitude_centre": "0.7300000"
        },
        {
            "id": 3565,
            "code_insee": "37267",
            "nom_standard": "Véretz",
            "slug_ville": "veretz",
            "code_postal": "37270",
            "population": 4732,
            "superficie_km2": "13.00",
            "latitude_centre": "47.3520012",
            "longitude_centre": "0.8100000"
        },
        {
            "id": 3566,
            "code_insee": "37270",
            "nom_standard": "Vernou-sur-Brenne",
            "slug_ville": "vernou-sur-brenne",
            "code_postal": "37210",
            "population": 2820,
            "superficie_km2": "26.00",
            "latitude_centre": "47.4360008",
            "longitude_centre": "0.8400000"
        },
        {
            "id": 3567,
            "code_insee": "37271",
            "nom_standard": "Villaines-les-Rochers",
            "slug_ville": "villaines-les-rochers",
            "code_postal": "37190",
            "population": 1032,
            "superficie_km2": "13.00",
            "latitude_centre": "47.2200012",
            "longitude_centre": "0.4960000"
        },
        {
            "id": 3568,
            "code_insee": "37272",
            "nom_standard": "Villandry",
            "slug_ville": "villandry",
            "code_postal": "37510",
            "population": 1136,
            "superficie_km2": "18.00",
            "latitude_centre": "47.3310013",
            "longitude_centre": "0.5000000"
        },
        {
            "id": 3569,
            "code_insee": "37273",
            "nom_standard": "La Ville-aux-Dames",
            "slug_ville": "la-ville-aux-dames",
            "code_postal": "37700",
            "population": 5584,
            "superficie_km2": "8.00",
            "latitude_centre": "47.3919983",
            "longitude_centre": "0.7740000"
        },
        {
            "id": 3570,
            "code_insee": "37276",
            "nom_standard": "Villedômer",
            "slug_ville": "villedomer",
            "code_postal": "37110",
            "population": 1310,
            "superficie_km2": "35.00",
            "latitude_centre": "47.5509987",
            "longitude_centre": "0.8700000"
        },
        {
            "id": 3571,
            "code_insee": "37278",
            "nom_standard": "Villeperdue",
            "slug_ville": "villeperdue",
            "code_postal": "37260",
            "population": 1093,
            "superficie_km2": "12.00",
            "latitude_centre": "47.1969986",
            "longitude_centre": "0.6380000"
        },
        {
            "id": 3572,
            "code_insee": "37281",
            "nom_standard": "Vouvray",
            "slug_ville": "vouvray",
            "code_postal": "37210",
            "population": 3346,
            "superficie_km2": "23.00",
            "latitude_centre": "47.4269981",
            "longitude_centre": "0.8040000"
        },
        {
            "id": 3573,
            "code_insee": "37282",
            "nom_standard": "Yzeures-sur-Creuse",
            "slug_ville": "yzeures-sur-creuse",
            "code_postal": "37290",
            "population": 1342,
            "superficie_km2": "55.00",
            "latitude_centre": "46.7900009",
            "longitude_centre": "0.8760000"
        }
    ]
}