{
    "departement": {
        "code": "65",
        "nom": "Hautes-Pyrénées",
        "slug": "hautes-pyrenees"
    },
    "region": {
        "id": 17,
        "code": "16",
        "nom": "Occitanie",
        "slug": "occitanie"
    },
    "voisins": [
        {
            "dep_code": "09",
            "dep_nom": "Ariège",
            "dep_slug": "ariege"
        },
        {
            "dep_code": "11",
            "dep_nom": "Aude",
            "dep_slug": "aude"
        },
        {
            "dep_code": "12",
            "dep_nom": "Aveyron",
            "dep_slug": "aveyron"
        },
        {
            "dep_code": "30",
            "dep_nom": "Gard",
            "dep_slug": "gard"
        }
    ],
    "villes_count": 32,
    "villes": [
        {
            "id": 6722,
            "code_insee": "65007",
            "nom_standard": "Andrest",
            "slug_ville": "andrest",
            "code_postal": "65390",
            "population": 1360,
            "superficie_km2": "6.00",
            "latitude_centre": "43.3160019",
            "longitude_centre": "0.0660000"
        },
        {
            "id": 6723,
            "code_insee": "65025",
            "nom_standard": "Argelès-Gazost",
            "slug_ville": "argeles-gazost",
            "code_postal": "65400",
            "population": 2850,
            "superficie_km2": "3.00",
            "latitude_centre": "43.0060005",
            "longitude_centre": "-0.0960000"
        },
        {
            "id": 6724,
            "code_insee": "65047",
            "nom_standard": "Aureilhan",
            "slug_ville": "aureilhan",
            "code_postal": "65800",
            "population": 7982,
            "superficie_km2": "10.00",
            "latitude_centre": "43.2500000",
            "longitude_centre": "0.1040000"
        },
        {
            "id": 6725,
            "code_insee": "65059",
            "nom_standard": "Bagnères-de-Bigorre",
            "slug_ville": "bagneres-de-bigorre",
            "code_postal": "65200",
            "population": 7000,
            "superficie_km2": "126.00",
            "latitude_centre": "42.9760017",
            "longitude_centre": "0.1330000"
        },
        {
            "id": 6726,
            "code_insee": "65062",
            "nom_standard": "Barbazan-Debat",
            "slug_ville": "barbazan-debat",
            "code_postal": "65690",
            "population": 3500,
            "superficie_km2": "10.00",
            "latitude_centre": "43.2019997",
            "longitude_centre": "0.1300000"
        },
        {
            "id": 6727,
            "code_insee": "65069",
            "nom_standard": "La Barthe-de-Neste",
            "slug_ville": "la-barthe-de-neste",
            "code_postal": "65250",
            "population": 1234,
            "superficie_km2": "8.00",
            "latitude_centre": "43.0800018",
            "longitude_centre": "0.3830000"
        },
        {
            "id": 6728,
            "code_insee": "65072",
            "nom_standard": "Bazet",
            "slug_ville": "bazet",
            "code_postal": "65460",
            "population": 1880,
            "superficie_km2": "3.00",
            "latitude_centre": "43.2910004",
            "longitude_centre": "0.0760000"
        },
        {
            "id": 6729,
            "code_insee": "65100",
            "nom_standard": "Bordères-sur-l'Échez",
            "slug_ville": "borderes-sur-l-echez",
            "code_postal": "65320",
            "population": 5407,
            "superficie_km2": "16.00",
            "latitude_centre": "43.2659988",
            "longitude_centre": "0.0420000"
        },
        {
            "id": 6730,
            "code_insee": "65123",
            "nom_standard": "Campan",
            "slug_ville": "campan",
            "code_postal": "65710",
            "population": 1288,
            "superficie_km2": "97.00",
            "latitude_centre": "42.9620018",
            "longitude_centre": "0.2170000"
        },
        {
            "id": 6731,
            "code_insee": "65127",
            "nom_standard": "Capvern",
            "slug_ville": "capvern",
            "code_postal": "65130",
            "population": 1267,
            "superficie_km2": "22.00",
            "latitude_centre": "43.1069984",
            "longitude_centre": "0.3320000"
        },
        {
            "id": 6732,
            "code_insee": "65198",
            "nom_standard": "Gerde",
            "slug_ville": "gerde",
            "code_postal": "65200",
            "population": 1168,
            "superficie_km2": "7.00",
            "latitude_centre": "43.0589981",
            "longitude_centre": "0.1780000"
        },
        {
            "id": 6733,
            "code_insee": "65223",
            "nom_standard": "Horgues",
            "slug_ville": "horgues",
            "code_postal": "65310",
            "population": 1189,
            "superficie_km2": "4.00",
            "latitude_centre": "43.1889992",
            "longitude_centre": "0.0800000"
        },
        {
            "id": 6734,
            "code_insee": "65226",
            "nom_standard": "Ibos",
            "slug_ville": "ibos",
            "code_postal": "65420",
            "population": 2919,
            "superficie_km2": "33.00",
            "latitude_centre": "43.2410011",
            "longitude_centre": "0.0000000"
        },
        {
            "id": 6735,
            "code_insee": "65235",
            "nom_standard": "Juillan",
            "slug_ville": "juillan",
            "code_postal": "65290",
            "population": 4022,
            "superficie_km2": "8.00",
            "latitude_centre": "43.2000008",
            "longitude_centre": "0.0230000"
        },
        {
            "id": 6736,
            "code_insee": "65251",
            "nom_standard": "Laloubère",
            "slug_ville": "laloubere",
            "code_postal": "65310",
            "population": 1869,
            "superficie_km2": "4.00",
            "latitude_centre": "43.2089996",
            "longitude_centre": "0.0760000"
        },
        {
            "id": 6737,
            "code_insee": "65258",
            "nom_standard": "Lannemezan",
            "slug_ville": "lannemezan",
            "code_postal": "65300",
            "population": 5810,
            "superficie_km2": "19.00",
            "latitude_centre": "43.1170006",
            "longitude_centre": "0.3940000"
        },
        {
            "id": 6738,
            "code_insee": "65284",
            "nom_standard": "Louey",
            "slug_ville": "louey",
            "code_postal": "65290",
            "population": 1089,
            "superficie_km2": "6.00",
            "latitude_centre": "43.1790009",
            "longitude_centre": "0.0200000"
        },
        {
            "id": 6739,
            "code_insee": "65286",
            "nom_standard": "Lourdes",
            "slug_ville": "lourdes",
            "code_postal": "65100",
            "population": 13509,
            "superficie_km2": "37.00",
            "latitude_centre": "43.1069984",
            "longitude_centre": "-0.0770000"
        },
        {
            "id": 6740,
            "code_insee": "65304",
            "nom_standard": "Maubourguet",
            "slug_ville": "maubourguet",
            "code_postal": "65700",
            "population": 2245,
            "superficie_km2": "22.00",
            "latitude_centre": "43.4690018",
            "longitude_centre": "0.0440000"
        },
        {
            "id": 6741,
            "code_insee": "65331",
            "nom_standard": "Odos",
            "slug_ville": "odos",
            "code_postal": "65310",
            "population": 3303,
            "superficie_km2": "9.00",
            "latitude_centre": "43.1940002",
            "longitude_centre": "0.0560000"
        },
        {
            "id": 6742,
            "code_insee": "65340",
            "nom_standard": "Orleix",
            "slug_ville": "orleix",
            "code_postal": "65800",
            "population": 1944,
            "superficie_km2": "8.00",
            "latitude_centre": "43.2760010",
            "longitude_centre": "0.1170000"
        },
        {
            "id": 6743,
            "code_insee": "65344",
            "nom_standard": "Ossun",
            "slug_ville": "ossun",
            "code_postal": "65380",
            "population": 2351,
            "superficie_km2": "28.00",
            "latitude_centre": "43.1790009",
            "longitude_centre": "-0.0430000"
        },
        {
            "id": 6744,
            "code_insee": "65350",
            "nom_standard": "Oursbelille",
            "slug_ville": "oursbelille",
            "code_postal": "65490",
            "population": 1207,
            "superficie_km2": "11.00",
            "latitude_centre": "43.2859993",
            "longitude_centre": "0.0360000"
        },
        {
            "id": 6745,
            "code_insee": "65362",
            "nom_standard": "Pierrefitte-Nestalas",
            "slug_ville": "pierrefitte-nestalas",
            "code_postal": "65260",
            "population": 1111,
            "superficie_km2": "2.00",
            "latitude_centre": "42.9620018",
            "longitude_centre": "-0.0750000"
        },
        {
            "id": 6746,
            "code_insee": "65370",
            "nom_standard": "Pouzac",
            "slug_ville": "pouzac",
            "code_postal": "65200",
            "population": 1105,
            "superficie_km2": "8.00",
            "latitude_centre": "43.0810013",
            "longitude_centre": "0.1300000"
        },
        {
            "id": 6747,
            "code_insee": "65375",
            "nom_standard": "Rabastens-de-Bigorre",
            "slug_ville": "rabastens-de-bigorre",
            "code_postal": "65140",
            "population": 1445,
            "superficie_km2": "9.00",
            "latitude_centre": "43.3860016",
            "longitude_centre": "0.1560000"
        },
        {
            "id": 6748,
            "code_insee": "65395",
            "nom_standard": "Saint-Pé-de-Bigorre",
            "slug_ville": "saint-pe-de-bigorre",
            "code_postal": "65270",
            "population": 1154,
            "superficie_km2": "43.00",
            "latitude_centre": "43.0839996",
            "longitude_centre": "-0.1580000"
        },
        {
            "id": 6749,
            "code_insee": "65417",
            "nom_standard": "Séméac",
            "slug_ville": "semeac",
            "code_postal": "65600",
            "population": 5161,
            "superficie_km2": "6.00",
            "latitude_centre": "43.2249985",
            "longitude_centre": "0.1090000"
        },
        {
            "id": 6750,
            "code_insee": "65433",
            "nom_standard": "Soues",
            "slug_ville": "soues",
            "code_postal": "65430",
            "population": 3023,
            "superficie_km2": "4.00",
            "latitude_centre": "43.2060013",
            "longitude_centre": "0.1000000"
        },
        {
            "id": 6751,
            "code_insee": "65440",
            "nom_standard": "Tarbes",
            "slug_ville": "tarbes",
            "code_postal": "65000",
            "population": 43955,
            "superficie_km2": "15.00",
            "latitude_centre": "43.2350006",
            "longitude_centre": "0.0660000"
        },
        {
            "id": 6752,
            "code_insee": "65447",
            "nom_standard": "Tournay",
            "slug_ville": "tournay",
            "code_postal": "65190",
            "population": 1230,
            "superficie_km2": "14.00",
            "latitude_centre": "43.1860008",
            "longitude_centre": "0.2480000"
        },
        {
            "id": 6753,
            "code_insee": "65460",
            "nom_standard": "Vic-en-Bigorre",
            "slug_ville": "vic-en-bigorre",
            "code_postal": "65500",
            "population": 4822,
            "superficie_km2": "32.00",
            "latitude_centre": "43.3909988",
            "longitude_centre": "0.0560000"
        }
    ]
}