{
    "departement": {
        "code": "67",
        "nom": "Bas-Rhin",
        "slug": "bas-rhin"
    },
    "region": {
        "id": 7,
        "code": "06",
        "nom": "Grand Est",
        "slug": "grand-est"
    },
    "voisins": [
        {
            "dep_code": "08",
            "dep_nom": "Ardennes",
            "dep_slug": "ardennes"
        },
        {
            "dep_code": "10",
            "dep_nom": "Aube",
            "dep_slug": "aube"
        },
        {
            "dep_code": "51",
            "dep_nom": "Marne",
            "dep_slug": "marne"
        },
        {
            "dep_code": "52",
            "dep_nom": "Haute-Marne",
            "dep_slug": "haute-marne"
        }
    ],
    "villes_count": 196,
    "villes": [
        {
            "id": 6842,
            "code_insee": "67001",
            "nom_standard": "Achenheim",
            "slug_ville": "achenheim",
            "code_postal": "67204",
            "population": 2504,
            "superficie_km2": "6.00",
            "latitude_centre": "48.5800018",
            "longitude_centre": "7.6250000"
        },
        {
            "id": 6843,
            "code_insee": "67004",
            "nom_standard": "Sommerau",
            "slug_ville": "sommerau",
            "code_postal": "67310",
            "population": 1524,
            "superficie_km2": "6.00",
            "latitude_centre": "48.6539993",
            "longitude_centre": "7.3670001"
        },
        {
            "id": 6844,
            "code_insee": "67008",
            "nom_standard": "Altorf",
            "slug_ville": "altorf",
            "code_postal": "67120",
            "population": 1414,
            "superficie_km2": "10.00",
            "latitude_centre": "48.5250015",
            "longitude_centre": "7.5390000"
        },
        {
            "id": 6845,
            "code_insee": "67010",
            "nom_standard": "Andlau",
            "slug_ville": "andlau",
            "code_postal": "67140",
            "population": 1759,
            "superficie_km2": "24.00",
            "latitude_centre": "48.3909988",
            "longitude_centre": "7.3850002"
        },
        {
            "id": 6846,
            "code_insee": "67019",
            "nom_standard": "Baldenheim",
            "slug_ville": "baldenheim",
            "code_postal": "67600",
            "population": 1205,
            "superficie_km2": "9.00",
            "latitude_centre": "48.2439995",
            "longitude_centre": "7.5359998"
        },
        {
            "id": 6847,
            "code_insee": "67021",
            "nom_standard": "Barr",
            "slug_ville": "barr",
            "code_postal": "67140",
            "population": 7152,
            "superficie_km2": "21.00",
            "latitude_centre": "48.4150009",
            "longitude_centre": "7.3990002"
        },
        {
            "id": 6848,
            "code_insee": "67025",
            "nom_standard": "Beinheim",
            "slug_ville": "beinheim",
            "code_postal": "67930",
            "population": 1914,
            "superficie_km2": "15.00",
            "latitude_centre": "48.8540001",
            "longitude_centre": "8.0920000"
        },
        {
            "id": 6849,
            "code_insee": "67028",
            "nom_standard": "Benfeld",
            "slug_ville": "benfeld",
            "code_postal": "67230",
            "population": 5870,
            "superficie_km2": "8.00",
            "latitude_centre": "48.3660011",
            "longitude_centre": "7.6020002"
        },
        {
            "id": 6850,
            "code_insee": "67031",
            "nom_standard": "Bernardswiller",
            "slug_ville": "bernardswiller",
            "code_postal": "67210",
            "population": 1459,
            "superficie_km2": "6.00",
            "latitude_centre": "48.4469986",
            "longitude_centre": "7.4540000"
        },
        {
            "id": 6851,
            "code_insee": "67034",
            "nom_standard": "Berstett",
            "slug_ville": "berstett",
            "code_postal": "67370",
            "population": 2483,
            "superficie_km2": "18.00",
            "latitude_centre": "48.6819992",
            "longitude_centre": "7.6320000"
        },
        {
            "id": 6852,
            "code_insee": "67040",
            "nom_standard": "Bindernheim",
            "slug_ville": "bindernheim",
            "code_postal": "67600",
            "population": 1048,
            "superficie_km2": "7.00",
            "latitude_centre": "48.2869988",
            "longitude_centre": "7.6139998"
        },
        {
            "id": 6853,
            "code_insee": "67043",
            "nom_standard": "Bischheim",
            "slug_ville": "bischheim",
            "code_postal": "67800",
            "population": 17939,
            "superficie_km2": "4.00",
            "latitude_centre": "48.6220017",
            "longitude_centre": "7.7589998"
        },
        {
            "id": 6854,
            "code_insee": "67045",
            "nom_standard": "Bischoffsheim",
            "slug_ville": "bischoffsheim",
            "code_postal": "67870",
            "population": 3352,
            "superficie_km2": "12.00",
            "latitude_centre": "48.4860001",
            "longitude_centre": "7.5260000"
        },
        {
            "id": 6855,
            "code_insee": "67046",
            "nom_standard": "Bischwiller",
            "slug_ville": "bischwiller",
            "code_postal": "67240",
            "population": 12435,
            "superficie_km2": "17.00",
            "latitude_centre": "48.7579994",
            "longitude_centre": "7.8600001"
        },
        {
            "id": 6856,
            "code_insee": "67049",
            "nom_standard": "Blaesheim",
            "slug_ville": "blaesheim",
            "code_postal": "67113",
            "population": 1356,
            "superficie_km2": "10.00",
            "latitude_centre": "48.5019989",
            "longitude_centre": "7.6090002"
        },
        {
            "id": 6857,
            "code_insee": "67052",
            "nom_standard": "Bœrsch",
            "slug_ville": "boersch",
            "code_postal": "67530",
            "population": 2412,
            "superficie_km2": "24.00",
            "latitude_centre": "48.4659996",
            "longitude_centre": "7.3750000"
        },
        {
            "id": 6858,
            "code_insee": "67055",
            "nom_standard": "Boofzheim",
            "slug_ville": "boofzheim",
            "code_postal": "67860",
            "population": 1384,
            "superficie_km2": "12.00",
            "latitude_centre": "48.3339996",
            "longitude_centre": "7.6780000"
        },
        {
            "id": 6859,
            "code_insee": "67061",
            "nom_standard": "Bouxwiller",
            "slug_ville": "bouxwiller",
            "code_postal": "67330",
            "population": 3712,
            "superficie_km2": "26.00",
            "latitude_centre": "48.8170013",
            "longitude_centre": "7.4650002"
        },
        {
            "id": 6860,
            "code_insee": "67065",
            "nom_standard": "Breuschwickersheim",
            "slug_ville": "breuschwickersheim",
            "code_postal": "67112",
            "population": 1337,
            "superficie_km2": "5.00",
            "latitude_centre": "48.5779991",
            "longitude_centre": "7.5990000"
        },
        {
            "id": 6861,
            "code_insee": "67066",
            "nom_standard": "La Broque",
            "slug_ville": "la-broque",
            "code_postal": "67130",
            "population": 2595,
            "superficie_km2": "23.00",
            "latitude_centre": "48.4599991",
            "longitude_centre": "7.1729999"
        },
        {
            "id": 6862,
            "code_insee": "67067",
            "nom_standard": "Brumath",
            "slug_ville": "brumath",
            "code_postal": "67170",
            "population": 10238,
            "superficie_km2": "31.00",
            "latitude_centre": "48.7200012",
            "longitude_centre": "7.7170000"
        },
        {
            "id": 6863,
            "code_insee": "67073",
            "nom_standard": "Châtenois",
            "slug_ville": "chatenois",
            "code_postal": "67730",
            "population": 4235,
            "superficie_km2": "15.00",
            "latitude_centre": "48.2799988",
            "longitude_centre": "7.3860002"
        },
        {
            "id": 6864,
            "code_insee": "67080",
            "nom_standard": "Dachstein",
            "slug_ville": "dachstein",
            "code_postal": "67120",
            "population": 1783,
            "superficie_km2": "7.00",
            "latitude_centre": "48.5540009",
            "longitude_centre": "7.5400000"
        },
        {
            "id": 6865,
            "code_insee": "67082",
            "nom_standard": "Dalhunden",
            "slug_ville": "dalhunden",
            "code_postal": "67770",
            "population": 1221,
            "superficie_km2": "7.00",
            "latitude_centre": "48.7709999",
            "longitude_centre": "7.9920001"
        },
        {
            "id": 6866,
            "code_insee": "67084",
            "nom_standard": "Dambach-la-Ville",
            "slug_ville": "dambach-la-ville",
            "code_postal": "67650",
            "population": 2207,
            "superficie_km2": "29.00",
            "latitude_centre": "48.3230019",
            "longitude_centre": "7.4270000"
        },
        {
            "id": 6867,
            "code_insee": "67087",
            "nom_standard": "Dauendorf",
            "slug_ville": "dauendorf",
            "code_postal": "67350",
            "population": 1448,
            "superficie_km2": "8.00",
            "latitude_centre": "48.8339996",
            "longitude_centre": "7.6659999"
        },
        {
            "id": 6868,
            "code_insee": "67089",
            "nom_standard": "Dettwiller",
            "slug_ville": "dettwiller",
            "code_postal": "67490",
            "population": 2582,
            "superficie_km2": "11.00",
            "latitude_centre": "48.7610016",
            "longitude_centre": "7.4540000"
        },
        {
            "id": 6869,
            "code_insee": "67095",
            "nom_standard": "Diemeringen",
            "slug_ville": "diemeringen",
            "code_postal": "67430",
            "population": 1592,
            "superficie_km2": "9.00",
            "latitude_centre": "48.9440002",
            "longitude_centre": "7.2040000"
        },
        {
            "id": 6870,
            "code_insee": "67097",
            "nom_standard": "Dingsheim",
            "slug_ville": "dingsheim",
            "code_postal": "67370",
            "population": 1222,
            "superficie_km2": "5.00",
            "latitude_centre": "48.6220017",
            "longitude_centre": "7.6609998"
        },
        {
            "id": 6871,
            "code_insee": "67098",
            "nom_standard": "Dinsheim-sur-Bruche",
            "slug_ville": "dinsheim-sur-bruche",
            "code_postal": "67190",
            "population": 1501,
            "superficie_km2": "5.00",
            "latitude_centre": "48.5480003",
            "longitude_centre": "7.4239998"
        },
        {
            "id": 6872,
            "code_insee": "67101",
            "nom_standard": "Dorlisheim",
            "slug_ville": "dorlisheim",
            "code_postal": "67120",
            "population": 2616,
            "superficie_km2": "11.00",
            "latitude_centre": "48.5200005",
            "longitude_centre": "7.4800000"
        },
        {
            "id": 6873,
            "code_insee": "67103",
            "nom_standard": "Dossenheim-sur-Zinsel",
            "slug_ville": "dossenheim-sur-zinsel",
            "code_postal": "67330",
            "population": 1036,
            "superficie_km2": "17.00",
            "latitude_centre": "48.8139992",
            "longitude_centre": "7.3779998"
        },
        {
            "id": 6874,
            "code_insee": "67105",
            "nom_standard": "Drulingen",
            "slug_ville": "drulingen",
            "code_postal": "67320",
            "population": 1417,
            "superficie_km2": "5.00",
            "latitude_centre": "48.8680000",
            "longitude_centre": "7.1950002"
        },
        {
            "id": 6875,
            "code_insee": "67106",
            "nom_standard": "Drusenheim",
            "slug_ville": "drusenheim",
            "code_postal": "67410",
            "population": 5292,
            "superficie_km2": "16.00",
            "latitude_centre": "48.7610016",
            "longitude_centre": "7.9460001"
        },
        {
            "id": 6876,
            "code_insee": "67108",
            "nom_standard": "Duppigheim",
            "slug_ville": "duppigheim",
            "code_postal": "67120",
            "population": 1839,
            "superficie_km2": "7.00",
            "latitude_centre": "48.5330010",
            "longitude_centre": "7.5960002"
        },
        {
            "id": 6877,
            "code_insee": "67110",
            "nom_standard": "Durrenbach",
            "slug_ville": "durrenbach",
            "code_postal": "67360",
            "population": 1106,
            "superficie_km2": "5.00",
            "latitude_centre": "48.8989983",
            "longitude_centre": "7.7630000"
        },
        {
            "id": 6878,
            "code_insee": "67112",
            "nom_standard": "Duttlenheim",
            "slug_ville": "duttlenheim",
            "code_postal": "67120",
            "population": 2903,
            "superficie_km2": "9.00",
            "latitude_centre": "48.5239983",
            "longitude_centre": "7.5710001"
        },
        {
            "id": 6879,
            "code_insee": "67115",
            "nom_standard": "Ebersheim",
            "slug_ville": "ebersheim",
            "code_postal": "67600",
            "population": 2291,
            "superficie_km2": "14.00",
            "latitude_centre": "48.3019981",
            "longitude_centre": "7.4980001"
        },
        {
            "id": 6880,
            "code_insee": "67118",
            "nom_standard": "Eckbolsheim",
            "slug_ville": "eckbolsheim",
            "code_postal": "67201",
            "population": 7199,
            "superficie_km2": "5.00",
            "latitude_centre": "48.5789986",
            "longitude_centre": "7.6820002"
        },
        {
            "id": 6881,
            "code_insee": "67119",
            "nom_standard": "Eckwersheim",
            "slug_ville": "eckwersheim",
            "code_postal": "67550",
            "population": 1403,
            "superficie_km2": "8.00",
            "latitude_centre": "48.6850014",
            "longitude_centre": "7.6960001"
        },
        {
            "id": 6882,
            "code_insee": "67122",
            "nom_standard": "Wangenbourg-Engenthal",
            "slug_ville": "wangenbourg-engenthal",
            "code_postal": "67710",
            "population": 1337,
            "superficie_km2": "31.00",
            "latitude_centre": "48.6209984",
            "longitude_centre": "7.3049998"
        },
        {
            "id": 6883,
            "code_insee": "67124",
            "nom_standard": "Entzheim",
            "slug_ville": "entzheim",
            "code_postal": "67960",
            "population": 2520,
            "superficie_km2": "8.00",
            "latitude_centre": "48.5359993",
            "longitude_centre": "7.6329999"
        },
        {
            "id": 6884,
            "code_insee": "67125",
            "nom_standard": "Epfig",
            "slug_ville": "epfig",
            "code_postal": "67680",
            "population": 2246,
            "superficie_km2": "22.00",
            "latitude_centre": "48.3510017",
            "longitude_centre": "7.4710002"
        },
        {
            "id": 6885,
            "code_insee": "67127",
            "nom_standard": "Ergersheim",
            "slug_ville": "ergersheim",
            "code_postal": "67120",
            "population": 1455,
            "superficie_km2": "6.00",
            "latitude_centre": "48.5760002",
            "longitude_centre": "7.5349998"
        },
        {
            "id": 6886,
            "code_insee": "67128",
            "nom_standard": "Ernolsheim-Bruche",
            "slug_ville": "ernolsheim-bruche",
            "code_postal": "67120",
            "population": 1904,
            "superficie_km2": "7.00",
            "latitude_centre": "48.5639992",
            "longitude_centre": "7.5689998"
        },
        {
            "id": 6887,
            "code_insee": "67130",
            "nom_standard": "Erstein",
            "slug_ville": "erstein",
            "code_postal": "67150",
            "population": 10887,
            "superficie_km2": "37.00",
            "latitude_centre": "48.4210014",
            "longitude_centre": "7.6849999"
        },
        {
            "id": 6888,
            "code_insee": "67131",
            "nom_standard": "Eschau",
            "slug_ville": "eschau",
            "code_postal": "67114",
            "population": 5746,
            "superficie_km2": "12.00",
            "latitude_centre": "48.4830017",
            "longitude_centre": "7.7300000"
        },
        {
            "id": 6889,
            "code_insee": "67137",
            "nom_standard": "Fegersheim",
            "slug_ville": "fegersheim",
            "code_postal": "67640",
            "population": 5777,
            "superficie_km2": "6.00",
            "latitude_centre": "48.4970017",
            "longitude_centre": "7.6890001"
        },
        {
            "id": 6890,
            "code_insee": "67150",
            "nom_standard": "Furdenheim",
            "slug_ville": "furdenheim",
            "code_postal": "67117",
            "population": 1507,
            "superficie_km2": "6.00",
            "latitude_centre": "48.6110001",
            "longitude_centre": "7.5580001"
        },
        {
            "id": 6891,
            "code_insee": "67151",
            "nom_standard": "Gambsheim",
            "slug_ville": "gambsheim",
            "code_postal": "67760",
            "population": 5213,
            "superficie_km2": "17.00",
            "latitude_centre": "48.6920013",
            "longitude_centre": "7.8839998"
        },
        {
            "id": 6892,
            "code_insee": "67152",
            "nom_standard": "Geispolsheim",
            "slug_ville": "geispolsheim",
            "code_postal": "67118",
            "population": 7603,
            "superficie_km2": "22.00",
            "latitude_centre": "48.5139999",
            "longitude_centre": "7.6580000"
        },
        {
            "id": 6893,
            "code_insee": "67154",
            "nom_standard": "Gerstheim",
            "slug_ville": "gerstheim",
            "code_postal": "67150",
            "population": 3463,
            "superficie_km2": "18.00",
            "latitude_centre": "48.3810005",
            "longitude_centre": "7.7040000"
        },
        {
            "id": 6894,
            "code_insee": "67155",
            "nom_standard": "Gertwiller",
            "slug_ville": "gertwiller",
            "code_postal": "67140",
            "population": 1273,
            "superficie_km2": "5.00",
            "latitude_centre": "48.4119988",
            "longitude_centre": "7.4749999"
        },
        {
            "id": 6895,
            "code_insee": "67156",
            "nom_standard": "Geudertheim",
            "slug_ville": "geudertheim",
            "code_postal": "67170",
            "population": 2675,
            "superficie_km2": "12.00",
            "latitude_centre": "48.7159996",
            "longitude_centre": "7.7600002"
        },
        {
            "id": 6896,
            "code_insee": "67160",
            "nom_standard": "Gœrsdorf",
            "slug_ville": "goersdorf",
            "code_postal": "67360",
            "population": 1054,
            "superficie_km2": "13.00",
            "latitude_centre": "48.9589996",
            "longitude_centre": "7.7740002"
        },
        {
            "id": 6897,
            "code_insee": "67167",
            "nom_standard": "Grendelbruch",
            "slug_ville": "grendelbruch",
            "code_postal": "67190",
            "population": 1224,
            "superficie_km2": "15.00",
            "latitude_centre": "48.4809990",
            "longitude_centre": "7.3049998"
        },
        {
            "id": 6898,
            "code_insee": "67168",
            "nom_standard": "Gresswiller",
            "slug_ville": "gresswiller",
            "code_postal": "67190",
            "population": 1661,
            "superficie_km2": "10.00",
            "latitude_centre": "48.5250015",
            "longitude_centre": "7.4099998"
        },
        {
            "id": 6899,
            "code_insee": "67169",
            "nom_standard": "Gries",
            "slug_ville": "gries",
            "code_postal": "67240",
            "population": 2879,
            "superficie_km2": "12.00",
            "latitude_centre": "48.7509995",
            "longitude_centre": "7.8249998"
        },
        {
            "id": 6900,
            "code_insee": "67172",
            "nom_standard": "Griesheim-près-Molsheim",
            "slug_ville": "griesheim-pres-molsheim",
            "code_postal": "67870",
            "population": 2303,
            "superficie_km2": "5.00",
            "latitude_centre": "48.5019989",
            "longitude_centre": "7.5310001"
        },
        {
            "id": 6901,
            "code_insee": "67173",
            "nom_standard": "Griesheim-sur-Souffel",
            "slug_ville": "griesheim-sur-souffel",
            "code_postal": "67370",
            "population": 1231,
            "superficie_km2": "4.00",
            "latitude_centre": "48.6329994",
            "longitude_centre": "7.6729999"
        },
        {
            "id": 6902,
            "code_insee": "67174",
            "nom_standard": "Gumbrechtshoffen",
            "slug_ville": "gumbrechtshoffen",
            "code_postal": "67110",
            "population": 1128,
            "superficie_km2": "6.00",
            "latitude_centre": "48.9029999",
            "longitude_centre": "7.6209998"
        },
        {
            "id": 6903,
            "code_insee": "67176",
            "nom_standard": "Gundershoffen",
            "slug_ville": "gundershoffen",
            "code_postal": "67110",
            "population": 3779,
            "superficie_km2": "17.00",
            "latitude_centre": "48.9070015",
            "longitude_centre": "7.6820002"
        },
        {
            "id": 6904,
            "code_insee": "67180",
            "nom_standard": "Haguenau",
            "slug_ville": "haguenau",
            "code_postal": "67500",
            "population": 35715,
            "superficie_km2": "184.00",
            "latitude_centre": "48.8419991",
            "longitude_centre": "7.8299999"
        },
        {
            "id": 6905,
            "code_insee": "67182",
            "nom_standard": "Hangenbieten",
            "slug_ville": "hangenbieten",
            "code_postal": "67980",
            "population": 1740,
            "superficie_km2": "4.00",
            "latitude_centre": "48.5569992",
            "longitude_centre": "7.6120000"
        },
        {
            "id": 6906,
            "code_insee": "67184",
            "nom_standard": "Hatten",
            "slug_ville": "hatten",
            "code_postal": "67690",
            "population": 1904,
            "superficie_km2": "19.00",
            "latitude_centre": "48.8940010",
            "longitude_centre": "8.0070000"
        },
        {
            "id": 6907,
            "code_insee": "67191",
            "nom_standard": "Herbitzheim",
            "slug_ville": "herbitzheim",
            "code_postal": "67260",
            "population": 1842,
            "superficie_km2": "22.00",
            "latitude_centre": "49.0219994",
            "longitude_centre": "7.0819998"
        },
        {
            "id": 6908,
            "code_insee": "67194",
            "nom_standard": "Herrlisheim",
            "slug_ville": "herrlisheim",
            "code_postal": "67850",
            "population": 4631,
            "superficie_km2": "14.00",
            "latitude_centre": "48.7319984",
            "longitude_centre": "7.9099998"
        },
        {
            "id": 6909,
            "code_insee": "67196",
            "nom_standard": "Hilsenheim",
            "slug_ville": "hilsenheim",
            "code_postal": "67600",
            "population": 2626,
            "superficie_km2": "20.00",
            "latitude_centre": "48.2970009",
            "longitude_centre": "7.5730000"
        },
        {
            "id": 6910,
            "code_insee": "67197",
            "nom_standard": "Hindisheim",
            "slug_ville": "hindisheim",
            "code_postal": "67150",
            "population": 1539,
            "superficie_km2": "12.00",
            "latitude_centre": "48.4659996",
            "longitude_centre": "7.6220002"
        },
        {
            "id": 6911,
            "code_insee": "67200",
            "nom_standard": "Hipsheim",
            "slug_ville": "hipsheim",
            "code_postal": "67150",
            "population": 1006,
            "superficie_km2": "4.00",
            "latitude_centre": "48.4659996",
            "longitude_centre": "7.6799998"
        },
        {
            "id": 6912,
            "code_insee": "67202",
            "nom_standard": "Hochfelden",
            "slug_ville": "hochfelden",
            "code_postal": "67270",
            "population": 4042,
            "superficie_km2": "12.00",
            "latitude_centre": "48.7560005",
            "longitude_centre": "7.5630002"
        },
        {
            "id": 6913,
            "code_insee": "67204",
            "nom_standard": "Hœnheim",
            "slug_ville": "hoenheim",
            "code_postal": "67800",
            "population": 11469,
            "superficie_km2": "3.00",
            "latitude_centre": "48.6240006",
            "longitude_centre": "7.7540002"
        },
        {
            "id": 6914,
            "code_insee": "67205",
            "nom_standard": "Hœrdt",
            "slug_ville": "hoerdt",
            "code_postal": "67720",
            "population": 4565,
            "superficie_km2": "16.00",
            "latitude_centre": "48.6910019",
            "longitude_centre": "7.7849998"
        },
        {
            "id": 6915,
            "code_insee": "67206",
            "nom_standard": "Hoffen",
            "slug_ville": "hoffen",
            "code_postal": "67250",
            "population": 1142,
            "superficie_km2": "9.00",
            "latitude_centre": "48.9329987",
            "longitude_centre": "7.9330001"
        },
        {
            "id": 6916,
            "code_insee": "67212",
            "nom_standard": "Holtzheim",
            "slug_ville": "holtzheim",
            "code_postal": "67810",
            "population": 3931,
            "superficie_km2": "7.00",
            "latitude_centre": "48.5569992",
            "longitude_centre": "7.6440001"
        },
        {
            "id": 6917,
            "code_insee": "67214",
            "nom_standard": "Hurtigheim",
            "slug_ville": "hurtigheim",
            "code_postal": "67117",
            "population": 1017,
            "superficie_km2": "5.00",
            "latitude_centre": "48.6170006",
            "longitude_centre": "7.6030002"
        },
        {
            "id": 6918,
            "code_insee": "67216",
            "nom_standard": "Huttenheim",
            "slug_ville": "huttenheim",
            "code_postal": "67230",
            "population": 2697,
            "superficie_km2": "13.00",
            "latitude_centre": "48.3540001",
            "longitude_centre": "7.5749998"
        },
        {
            "id": 6919,
            "code_insee": "67218",
            "nom_standard": "Illkirch-Graffenstaden",
            "slug_ville": "illkirch-graffenstaden",
            "code_postal": "67400",
            "population": 27118,
            "superficie_km2": "22.00",
            "latitude_centre": "48.5200005",
            "longitude_centre": "7.7309999"
        },
        {
            "id": 6920,
            "code_insee": "67222",
            "nom_standard": "Ingwiller",
            "slug_ville": "ingwiller",
            "code_postal": "67340",
            "population": 4011,
            "superficie_km2": "18.00",
            "latitude_centre": "48.8860016",
            "longitude_centre": "7.4689999"
        },
        {
            "id": 6921,
            "code_insee": "67223",
            "nom_standard": "Innenheim",
            "slug_ville": "innenheim",
            "code_postal": "67880",
            "population": 1221,
            "superficie_km2": "6.00",
            "latitude_centre": "48.4980011",
            "longitude_centre": "7.5739999"
        },
        {
            "id": 6922,
            "code_insee": "67226",
            "nom_standard": "Ittenheim",
            "slug_ville": "ittenheim",
            "code_postal": "67117",
            "population": 2093,
            "superficie_km2": "7.00",
            "latitude_centre": "48.6020012",
            "longitude_centre": "7.6050000"
        },
        {
            "id": 6923,
            "code_insee": "67230",
            "nom_standard": "Kaltenhouse",
            "slug_ville": "kaltenhouse",
            "code_postal": "67240",
            "population": 2478,
            "superficie_km2": "4.00",
            "latitude_centre": "48.7900009",
            "longitude_centre": "7.8330002"
        },
        {
            "id": 6924,
            "code_insee": "67233",
            "nom_standard": "Kertzfeld",
            "slug_ville": "kertzfeld",
            "code_postal": "67230",
            "population": 1190,
            "superficie_km2": "9.00",
            "latitude_centre": "48.3839989",
            "longitude_centre": "7.5549998"
        },
        {
            "id": 6925,
            "code_insee": "67234",
            "nom_standard": "Keskastel",
            "slug_ville": "keskastel",
            "code_postal": "67260",
            "population": 1493,
            "superficie_km2": "19.00",
            "latitude_centre": "48.9760017",
            "longitude_centre": "7.0630002"
        },
        {
            "id": 6926,
            "code_insee": "67237",
            "nom_standard": "Kilstett",
            "slug_ville": "kilstett",
            "code_postal": "67840",
            "population": 2491,
            "superficie_km2": "7.00",
            "latitude_centre": "48.6839981",
            "longitude_centre": "7.8460002"
        },
        {
            "id": 6927,
            "code_insee": "67239",
            "nom_standard": "Kintzheim",
            "slug_ville": "kintzheim",
            "code_postal": "67600",
            "population": 1680,
            "superficie_km2": "19.00",
            "latitude_centre": "48.2589989",
            "longitude_centre": "7.3740001"
        },
        {
            "id": 6928,
            "code_insee": "67246",
            "nom_standard": "Kogenheim",
            "slug_ville": "kogenheim",
            "code_postal": "67230",
            "population": 1241,
            "superficie_km2": "12.00",
            "latitude_centre": "48.3320007",
            "longitude_centre": "7.5310001"
        },
        {
            "id": 6929,
            "code_insee": "67247",
            "nom_standard": "Kolbsheim",
            "slug_ville": "kolbsheim",
            "code_postal": "67120",
            "population": 1002,
            "superficie_km2": "3.00",
            "latitude_centre": "48.5620003",
            "longitude_centre": "7.5860000"
        },
        {
            "id": 6930,
            "code_insee": "67248",
            "nom_standard": "Krautergersheim",
            "slug_ville": "krautergersheim",
            "code_postal": "67880",
            "population": 1745,
            "superficie_km2": "6.00",
            "latitude_centre": "48.4749985",
            "longitude_centre": "7.5660000"
        },
        {
            "id": 6931,
            "code_insee": "67252",
            "nom_standard": "Kurtzenhouse",
            "slug_ville": "kurtzenhouse",
            "code_postal": "67240",
            "population": 1082,
            "superficie_km2": "4.00",
            "latitude_centre": "48.7369995",
            "longitude_centre": "7.8049998"
        },
        {
            "id": 6932,
            "code_insee": "67256",
            "nom_standard": "Lampertheim",
            "slug_ville": "lampertheim",
            "code_postal": "67450",
            "population": 3458,
            "superficie_km2": "7.00",
            "latitude_centre": "48.6549988",
            "longitude_centre": "7.6939998"
        },
        {
            "id": 6933,
            "code_insee": "67261",
            "nom_standard": "Lauterbourg",
            "slug_ville": "lauterbourg",
            "code_postal": "67630",
            "population": 2339,
            "superficie_km2": "11.00",
            "latitude_centre": "48.9640007",
            "longitude_centre": "8.1859999"
        },
        {
            "id": 6934,
            "code_insee": "67263",
            "nom_standard": "Lembach",
            "slug_ville": "lembach",
            "code_postal": "67510",
            "population": 1531,
            "superficie_km2": "49.00",
            "latitude_centre": "49.0120010",
            "longitude_centre": "7.7680001"
        },
        {
            "id": 6935,
            "code_insee": "67267",
            "nom_standard": "Lingolsheim",
            "slug_ville": "lingolsheim",
            "code_postal": "67380",
            "population": 20266,
            "superficie_km2": "6.00",
            "latitude_centre": "48.5540009",
            "longitude_centre": "7.6810002"
        },
        {
            "id": 6936,
            "code_insee": "67268",
            "nom_standard": "Lipsheim",
            "slug_ville": "lipsheim",
            "code_postal": "67640",
            "population": 2670,
            "superficie_km2": "5.00",
            "latitude_centre": "48.4889984",
            "longitude_centre": "7.6570001"
        },
        {
            "id": 6937,
            "code_insee": "67276",
            "nom_standard": "Lutzelhouse",
            "slug_ville": "lutzelhouse",
            "code_postal": "67130",
            "population": 1907,
            "superficie_km2": "29.00",
            "latitude_centre": "48.5379982",
            "longitude_centre": "7.2420001"
        },
        {
            "id": 6938,
            "code_insee": "67281",
            "nom_standard": "Marckolsheim",
            "slug_ville": "marckolsheim",
            "code_postal": "67390",
            "population": 4309,
            "superficie_km2": "34.00",
            "latitude_centre": "48.1500015",
            "longitude_centre": "7.5609999"
        },
        {
            "id": 6939,
            "code_insee": "67282",
            "nom_standard": "Marlenheim",
            "slug_ville": "marlenheim",
            "code_postal": "67520",
            "population": 4211,
            "superficie_km2": "14.00",
            "latitude_centre": "48.6189995",
            "longitude_centre": "7.5060000"
        },
        {
            "id": 6940,
            "code_insee": "67283",
            "nom_standard": "Marmoutier",
            "slug_ville": "marmoutier",
            "code_postal": "67440",
            "population": 2706,
            "superficie_km2": "14.00",
            "latitude_centre": "48.6940002",
            "longitude_centre": "7.3709998"
        },
        {
            "id": 6941,
            "code_insee": "67285",
            "nom_standard": "Matzenheim",
            "slug_ville": "matzenheim",
            "code_postal": "67150",
            "population": 1490,
            "superficie_km2": "7.00",
            "latitude_centre": "48.3839989",
            "longitude_centre": "7.6350002"
        },
        {
            "id": 6942,
            "code_insee": "67286",
            "nom_standard": "Meistratzheim",
            "slug_ville": "meistratzheim",
            "code_postal": "67210",
            "population": 1503,
            "superficie_km2": "13.00",
            "latitude_centre": "48.4519997",
            "longitude_centre": "7.5609999"
        },
        {
            "id": 6943,
            "code_insee": "67291",
            "nom_standard": "Mertzwiller",
            "slug_ville": "mertzwiller",
            "code_postal": "67580",
            "population": 3391,
            "superficie_km2": "7.00",
            "latitude_centre": "48.8699989",
            "longitude_centre": "7.6859999"
        },
        {
            "id": 6944,
            "code_insee": "67296",
            "nom_standard": "Mittelhausbergen",
            "slug_ville": "mittelhausbergen",
            "code_postal": "67206",
            "population": 2094,
            "superficie_km2": "2.00",
            "latitude_centre": "48.6139984",
            "longitude_centre": "7.6939998"
        },
        {
            "id": 6945,
            "code_insee": "67300",
            "nom_standard": "Molsheim",
            "slug_ville": "molsheim",
            "code_postal": "67120",
            "population": 9359,
            "superficie_km2": "11.00",
            "latitude_centre": "48.5449982",
            "longitude_centre": "7.5000000"
        },
        {
            "id": 6946,
            "code_insee": "67301",
            "nom_standard": "Mommenheim",
            "slug_ville": "mommenheim",
            "code_postal": "67670",
            "population": 2259,
            "superficie_km2": "8.00",
            "latitude_centre": "48.7560005",
            "longitude_centre": "7.6500001"
        },
        {
            "id": 6947,
            "code_insee": "67302",
            "nom_standard": "Monswiller",
            "slug_ville": "monswiller",
            "code_postal": "67700",
            "population": 1994,
            "superficie_km2": "5.00",
            "latitude_centre": "48.7519989",
            "longitude_centre": "7.3860002"
        },
        {
            "id": 6948,
            "code_insee": "67305",
            "nom_standard": "Mothern",
            "slug_ville": "mothern",
            "code_postal": "67470",
            "population": 1915,
            "superficie_km2": "10.00",
            "latitude_centre": "48.9399986",
            "longitude_centre": "8.1520004"
        },
        {
            "id": 6949,
            "code_insee": "67309",
            "nom_standard": "Mundolsheim",
            "slug_ville": "mundolsheim",
            "code_postal": "67450",
            "population": 5074,
            "superficie_km2": "4.00",
            "latitude_centre": "48.6399994",
            "longitude_centre": "7.7150002"
        },
        {
            "id": 6950,
            "code_insee": "67310",
            "nom_standard": "Mussig",
            "slug_ville": "mussig",
            "code_postal": "67600",
            "population": 1139,
            "superficie_km2": "12.00",
            "latitude_centre": "48.2270012",
            "longitude_centre": "7.5180001"
        },
        {
            "id": 6951,
            "code_insee": "67311",
            "nom_standard": "Muttersholtz",
            "slug_ville": "muttersholtz",
            "code_postal": "67600",
            "population": 2228,
            "superficie_km2": "13.00",
            "latitude_centre": "48.2690010",
            "longitude_centre": "7.5330000"
        },
        {
            "id": 6952,
            "code_insee": "67313",
            "nom_standard": "Mutzig",
            "slug_ville": "mutzig",
            "code_postal": "67190",
            "population": 6094,
            "superficie_km2": "8.00",
            "latitude_centre": "48.5379982",
            "longitude_centre": "7.4549999"
        },
        {
            "id": 6953,
            "code_insee": "67322",
            "nom_standard": "Neuwiller-lès-Saverne",
            "slug_ville": "neuwiller-les-saverne",
            "code_postal": "67330",
            "population": 1105,
            "superficie_km2": "32.00",
            "latitude_centre": "48.8269997",
            "longitude_centre": "7.3660002"
        },
        {
            "id": 6954,
            "code_insee": "67324",
            "nom_standard": "Niederbronn-les-Bains",
            "slug_ville": "niederbronn-les-bains",
            "code_postal": "67110",
            "population": 4360,
            "superficie_km2": "32.00",
            "latitude_centre": "48.9640007",
            "longitude_centre": "7.6399999"
        },
        {
            "id": 6955,
            "code_insee": "67325",
            "nom_standard": "Niederhaslach",
            "slug_ville": "niederhaslach",
            "code_postal": "67280",
            "population": 1394,
            "superficie_km2": "7.00",
            "latitude_centre": "48.5359993",
            "longitude_centre": "7.3499999"
        },
        {
            "id": 6956,
            "code_insee": "67326",
            "nom_standard": "Niederhausbergen",
            "slug_ville": "niederhausbergen",
            "code_postal": "67207",
            "population": 1673,
            "superficie_km2": "3.00",
            "latitude_centre": "48.6230011",
            "longitude_centre": "7.7049999"
        },
        {
            "id": 6957,
            "code_insee": "67329",
            "nom_standard": "Niedernai",
            "slug_ville": "niedernai",
            "code_postal": "67210",
            "population": 1253,
            "superficie_km2": "11.00",
            "latitude_centre": "48.4459992",
            "longitude_centre": "7.5310001"
        },
        {
            "id": 6958,
            "code_insee": "67331",
            "nom_standard": "Niederschaeffolsheim",
            "slug_ville": "niederschaeffolsheim",
            "code_postal": "67500",
            "population": 1348,
            "superficie_km2": "6.00",
            "latitude_centre": "48.7719994",
            "longitude_centre": "7.7440000"
        },
        {
            "id": 6959,
            "code_insee": "67336",
            "nom_standard": "Nordhouse",
            "slug_ville": "nordhouse",
            "code_postal": "67150",
            "population": 1736,
            "superficie_km2": "11.00",
            "latitude_centre": "48.4469986",
            "longitude_centre": "7.6859999"
        },
        {
            "id": 6960,
            "code_insee": "67338",
            "nom_standard": "Obenheim",
            "slug_ville": "obenheim",
            "code_postal": "67230",
            "population": 1358,
            "superficie_km2": "8.00",
            "latitude_centre": "48.3559990",
            "longitude_centre": "7.6849999"
        },
        {
            "id": 6961,
            "code_insee": "67339",
            "nom_standard": "Betschdorf",
            "slug_ville": "betschdorf",
            "code_postal": "67660",
            "population": 4192,
            "superficie_km2": "28.00",
            "latitude_centre": "48.8940010",
            "longitude_centre": "7.9229999"
        },
        {
            "id": 6962,
            "code_insee": "67340",
            "nom_standard": "Oberbronn",
            "slug_ville": "oberbronn",
            "code_postal": "67110",
            "population": 1462,
            "superficie_km2": "21.00",
            "latitude_centre": "48.9379997",
            "longitude_centre": "7.5970001"
        },
        {
            "id": 6963,
            "code_insee": "67342",
            "nom_standard": "Oberhaslach",
            "slug_ville": "oberhaslach",
            "code_postal": "67280",
            "population": 1753,
            "superficie_km2": "25.00",
            "latitude_centre": "48.5680008",
            "longitude_centre": "7.2960000"
        },
        {
            "id": 6964,
            "code_insee": "67343",
            "nom_standard": "Oberhausbergen",
            "slug_ville": "oberhausbergen",
            "code_postal": "67205",
            "population": 5556,
            "superficie_km2": "4.00",
            "latitude_centre": "48.6069984",
            "longitude_centre": "7.6830001"
        },
        {
            "id": 6965,
            "code_insee": "67345",
            "nom_standard": "Oberhoffen-sur-Moder",
            "slug_ville": "oberhoffen-sur-moder",
            "code_postal": "67240",
            "population": 3764,
            "superficie_km2": "14.00",
            "latitude_centre": "48.7799988",
            "longitude_centre": "7.8870001"
        },
        {
            "id": 6966,
            "code_insee": "67347",
            "nom_standard": "Obermodern-Zutzendorf",
            "slug_ville": "obermodern-zutzendorf",
            "code_postal": "67330",
            "population": 1740,
            "superficie_km2": "14.00",
            "latitude_centre": "48.8479996",
            "longitude_centre": "7.5400000"
        },
        {
            "id": 6967,
            "code_insee": "67348",
            "nom_standard": "Obernai",
            "slug_ville": "obernai",
            "code_postal": "67210",
            "population": 12216,
            "superficie_km2": "26.00",
            "latitude_centre": "48.4589996",
            "longitude_centre": "7.4800000"
        },
        {
            "id": 6968,
            "code_insee": "67350",
            "nom_standard": "Oberschaeffolsheim",
            "slug_ville": "oberschaeffolsheim",
            "code_postal": "67203",
            "population": 2592,
            "superficie_km2": "8.00",
            "latitude_centre": "48.5919991",
            "longitude_centre": "7.6459999"
        },
        {
            "id": 6969,
            "code_insee": "67351",
            "nom_standard": "Seebach",
            "slug_ville": "seebach",
            "code_postal": "67160",
            "population": 1646,
            "superficie_km2": "17.00",
            "latitude_centre": "48.9640007",
            "longitude_centre": "7.9899998"
        },
        {
            "id": 6970,
            "code_insee": "67355",
            "nom_standard": "Oermingen",
            "slug_ville": "oermingen",
            "code_postal": "67970",
            "population": 1114,
            "superficie_km2": "15.00",
            "latitude_centre": "48.9980011",
            "longitude_centre": "7.1199999"
        },
        {
            "id": 6971,
            "code_insee": "67356",
            "nom_standard": "Offendorf",
            "slug_ville": "offendorf",
            "code_postal": "67850",
            "population": 2493,
            "superficie_km2": "14.00",
            "latitude_centre": "48.7150002",
            "longitude_centre": "7.9270000"
        },
        {
            "id": 6972,
            "code_insee": "67359",
            "nom_standard": "Ohlungen",
            "slug_ville": "ohlungen",
            "code_postal": "67590",
            "population": 1343,
            "superficie_km2": "8.00",
            "latitude_centre": "48.8120003",
            "longitude_centre": "7.6939998"
        },
        {
            "id": 6973,
            "code_insee": "67360",
            "nom_standard": "Ohnenheim",
            "slug_ville": "ohnenheim",
            "code_postal": "67390",
            "population": 1147,
            "superficie_km2": "12.00",
            "latitude_centre": "48.1870003",
            "longitude_centre": "7.5040002"
        },
        {
            "id": 6974,
            "code_insee": "67365",
            "nom_standard": "Ostwald",
            "slug_ville": "ostwald",
            "code_postal": "67540",
            "population": 13310,
            "superficie_km2": "7.00",
            "latitude_centre": "48.5470009",
            "longitude_centre": "7.7080002"
        },
        {
            "id": 6975,
            "code_insee": "67367",
            "nom_standard": "Otterswiller",
            "slug_ville": "otterswiller",
            "code_postal": "67700",
            "population": 1303,
            "superficie_km2": "3.00",
            "latitude_centre": "48.7229996",
            "longitude_centre": "7.3790002"
        },
        {
            "id": 6976,
            "code_insee": "67368",
            "nom_standard": "Ottrott",
            "slug_ville": "ottrott",
            "code_postal": "67530",
            "population": 1555,
            "superficie_km2": "29.00",
            "latitude_centre": "48.4430008",
            "longitude_centre": "7.3670001"
        },
        {
            "id": 6977,
            "code_insee": "67372",
            "nom_standard": "Val-de-Moder",
            "slug_ville": "val-de-moder",
            "code_postal": "67350",
            "population": 5031,
            "superficie_km2": "4.00",
            "latitude_centre": "48.8429985",
            "longitude_centre": "7.5990000"
        },
        {
            "id": 6978,
            "code_insee": "67375",
            "nom_standard": "Pfulgriesheim",
            "slug_ville": "pfulgriesheim",
            "code_postal": "67370",
            "population": 1297,
            "superficie_km2": "5.00",
            "latitude_centre": "48.6440010",
            "longitude_centre": "7.6650000"
        },
        {
            "id": 6979,
            "code_insee": "67378",
            "nom_standard": "Plobsheim",
            "slug_ville": "plobsheim",
            "code_postal": "67115",
            "population": 4473,
            "superficie_km2": "17.00",
            "latitude_centre": "48.4609985",
            "longitude_centre": "7.7350001"
        },
        {
            "id": 6980,
            "code_insee": "67388",
            "nom_standard": "Reichshoffen",
            "slug_ville": "reichshoffen",
            "code_postal": "67110",
            "population": 5416,
            "superficie_km2": "17.00",
            "latitude_centre": "48.9379997",
            "longitude_centre": "7.6750002"
        },
        {
            "id": 6981,
            "code_insee": "67389",
            "nom_standard": "Reichstett",
            "slug_ville": "reichstett",
            "code_postal": "67116",
            "population": 4376,
            "superficie_km2": "8.00",
            "latitude_centre": "48.6479988",
            "longitude_centre": "7.7570000"
        },
        {
            "id": 6982,
            "code_insee": "67397",
            "nom_standard": "Rhinau",
            "slug_ville": "rhinau",
            "code_postal": "67860",
            "population": 2675,
            "superficie_km2": "17.00",
            "latitude_centre": "48.3120003",
            "longitude_centre": "7.7040000"
        },
        {
            "id": 6983,
            "code_insee": "67400",
            "nom_standard": "Riedseltz",
            "slug_ville": "riedseltz",
            "code_postal": "67160",
            "population": 1126,
            "superficie_km2": "10.00",
            "latitude_centre": "48.9889984",
            "longitude_centre": "7.9489999"
        },
        {
            "id": 6984,
            "code_insee": "67405",
            "nom_standard": "Rœschwoog",
            "slug_ville": "roeschwoog",
            "code_postal": "67480",
            "population": 2272,
            "superficie_km2": "10.00",
            "latitude_centre": "48.8230019",
            "longitude_centre": "8.0400000"
        },
        {
            "id": 6985,
            "code_insee": "67407",
            "nom_standard": "Rohrwiller",
            "slug_ville": "rohrwiller",
            "code_postal": "67410",
            "population": 1603,
            "superficie_km2": "3.00",
            "latitude_centre": "48.7500000",
            "longitude_centre": "7.9029999"
        },
        {
            "id": 6986,
            "code_insee": "67408",
            "nom_standard": "Romanswiller",
            "slug_ville": "romanswiller",
            "code_postal": "67310",
            "population": 1188,
            "superficie_km2": "12.00",
            "latitude_centre": "48.6409988",
            "longitude_centre": "7.3800001"
        },
        {
            "id": 6987,
            "code_insee": "67409",
            "nom_standard": "Roppenheim",
            "slug_ville": "roppenheim",
            "code_postal": "67480",
            "population": 1030,
            "superficie_km2": "7.00",
            "latitude_centre": "48.8370018",
            "longitude_centre": "8.0670004"
        },
        {
            "id": 6988,
            "code_insee": "67411",
            "nom_standard": "Rosheim",
            "slug_ville": "rosheim",
            "code_postal": "67560",
            "population": 5360,
            "superficie_km2": "30.00",
            "latitude_centre": "48.4900017",
            "longitude_centre": "7.4120002"
        },
        {
            "id": 6989,
            "code_insee": "67412",
            "nom_standard": "Rossfeld",
            "slug_ville": "rossfeld",
            "code_postal": "67230",
            "population": 1030,
            "superficie_km2": "6.00",
            "latitude_centre": "48.3320007",
            "longitude_centre": "7.6129999"
        },
        {
            "id": 6990,
            "code_insee": "67414",
            "nom_standard": "Rothau",
            "slug_ville": "rothau",
            "code_postal": "67570",
            "population": 1491,
            "superficie_km2": "4.00",
            "latitude_centre": "48.4480019",
            "longitude_centre": "7.2069998"
        },
        {
            "id": 6991,
            "code_insee": "67418",
            "nom_standard": "Rountzenheim-Auenheim",
            "slug_ville": "rountzenheim-auenheim",
            "code_postal": "67480",
            "population": 1976,
            "superficie_km2": "6.00",
            "latitude_centre": "48.8209992",
            "longitude_centre": "7.9980001"
        },
        {
            "id": 6992,
            "code_insee": "67420",
            "nom_standard": "Russ",
            "slug_ville": "russ",
            "code_postal": "67130",
            "population": 1237,
            "superficie_km2": "11.00",
            "latitude_centre": "48.4860001",
            "longitude_centre": "7.2690001"
        },
        {
            "id": 6993,
            "code_insee": "67433",
            "nom_standard": "Sand",
            "slug_ville": "sand",
            "code_postal": "67230",
            "population": 1408,
            "superficie_km2": "6.00",
            "latitude_centre": "48.3779984",
            "longitude_centre": "7.6190000"
        },
        {
            "id": 6994,
            "code_insee": "67434",
            "nom_standard": "Sarre-Union",
            "slug_ville": "sarre-union",
            "code_postal": "67260",
            "population": 2772,
            "superficie_km2": "15.00",
            "latitude_centre": "48.9449997",
            "longitude_centre": "7.0890002"
        },
        {
            "id": 6995,
            "code_insee": "67437",
            "nom_standard": "Saverne",
            "slug_ville": "saverne",
            "code_postal": "67700",
            "population": 11390,
            "superficie_km2": "26.00",
            "latitude_centre": "48.7400017",
            "longitude_centre": "7.3420000"
        },
        {
            "id": 6996,
            "code_insee": "67442",
            "nom_standard": "Scharrachbergheim-Irmstett",
            "slug_ville": "scharrachbergheim-irmstett",
            "code_postal": "67310",
            "population": 1280,
            "superficie_km2": "3.00",
            "latitude_centre": "48.5900002",
            "longitude_centre": "7.4899998"
        },
        {
            "id": 6997,
            "code_insee": "67445",
            "nom_standard": "Scherwiller",
            "slug_ville": "scherwiller",
            "code_postal": "67750",
            "population": 3153,
            "superficie_km2": "19.00",
            "latitude_centre": "48.2949982",
            "longitude_centre": "7.4150000"
        },
        {
            "id": 6998,
            "code_insee": "67447",
            "nom_standard": "Schiltigheim",
            "slug_ville": "schiltigheim",
            "code_postal": "67300",
            "population": 34129,
            "superficie_km2": "8.00",
            "latitude_centre": "48.6119995",
            "longitude_centre": "7.7440000"
        },
        {
            "id": 6999,
            "code_insee": "67448",
            "nom_standard": "Schirmeck",
            "slug_ville": "schirmeck",
            "code_postal": "67130",
            "population": 2107,
            "superficie_km2": "12.00",
            "latitude_centre": "48.4920006",
            "longitude_centre": "7.1980000"
        },
        {
            "id": 7000,
            "code_insee": "67449",
            "nom_standard": "Schirrhein",
            "slug_ville": "schirrhein",
            "code_postal": "67240",
            "population": 2272,
            "superficie_km2": "7.00",
            "latitude_centre": "48.7960014",
            "longitude_centre": "7.9169998"
        },
        {
            "id": 7001,
            "code_insee": "67451",
            "nom_standard": "Schleithal",
            "slug_ville": "schleithal",
            "code_postal": "67160",
            "population": 1393,
            "superficie_km2": "9.00",
            "latitude_centre": "48.9869995",
            "longitude_centre": "8.0330000"
        },
        {
            "id": 7002,
            "code_insee": "67452",
            "nom_standard": "Schnersheim",
            "slug_ville": "schnersheim",
            "code_postal": "67370",
            "population": 1804,
            "superficie_km2": "11.00",
            "latitude_centre": "48.6599999",
            "longitude_centre": "7.5689998"
        },
        {
            "id": 7003,
            "code_insee": "67458",
            "nom_standard": "Schweighouse-sur-Moder",
            "slug_ville": "schweighouse-sur-moder",
            "code_postal": "67590",
            "population": 5050,
            "superficie_km2": "10.00",
            "latitude_centre": "48.8170013",
            "longitude_centre": "7.7379999"
        },
        {
            "id": 7004,
            "code_insee": "67460",
            "nom_standard": "Schwindratzheim",
            "slug_ville": "schwindratzheim",
            "code_postal": "67270",
            "population": 1759,
            "superficie_km2": "10.00",
            "latitude_centre": "48.7649994",
            "longitude_centre": "7.6030002"
        },
        {
            "id": 7005,
            "code_insee": "67462",
            "nom_standard": "Sélestat",
            "slug_ville": "selestat",
            "code_postal": "67600",
            "population": 19300,
            "superficie_km2": "47.00",
            "latitude_centre": "48.2480011",
            "longitude_centre": "7.4619999"
        },
        {
            "id": 7006,
            "code_insee": "67463",
            "nom_standard": "Seltz",
            "slug_ville": "seltz",
            "code_postal": "67470",
            "population": 3135,
            "superficie_km2": "21.00",
            "latitude_centre": "48.8940010",
            "longitude_centre": "8.1049995"
        },
        {
            "id": 7007,
            "code_insee": "67465",
            "nom_standard": "Sessenheim",
            "slug_ville": "sessenheim",
            "code_postal": "67770",
            "population": 2314,
            "superficie_km2": "9.00",
            "latitude_centre": "48.7949982",
            "longitude_centre": "7.9809999"
        },
        {
            "id": 7008,
            "code_insee": "67471",
            "nom_standard": "Souffelweyersheim",
            "slug_ville": "souffelweyersheim",
            "code_postal": "67460",
            "population": 8120,
            "superficie_km2": "5.00",
            "latitude_centre": "48.6320000",
            "longitude_centre": "7.7420001"
        },
        {
            "id": 7009,
            "code_insee": "67472",
            "nom_standard": "Soufflenheim",
            "slug_ville": "soufflenheim",
            "code_postal": "67620",
            "population": 4788,
            "superficie_km2": "13.00",
            "latitude_centre": "48.8089981",
            "longitude_centre": "7.9569998"
        },
        {
            "id": 7010,
            "code_insee": "67474",
            "nom_standard": "Soultz-sous-Forêts",
            "slug_ville": "soultz-sous-forets",
            "code_postal": "67250",
            "population": 3147,
            "superficie_km2": "15.00",
            "latitude_centre": "48.9459992",
            "longitude_centre": "7.8740001"
        },
        {
            "id": 7011,
            "code_insee": "67478",
            "nom_standard": "Steinbourg",
            "slug_ville": "steinbourg",
            "code_postal": "67790",
            "population": 1926,
            "superficie_km2": "13.00",
            "latitude_centre": "48.7639999",
            "longitude_centre": "7.4140000"
        },
        {
            "id": 7012,
            "code_insee": "67480",
            "nom_standard": "Still",
            "slug_ville": "still",
            "code_postal": "67190",
            "population": 1806,
            "superficie_km2": "23.00",
            "latitude_centre": "48.5670013",
            "longitude_centre": "7.3660002"
        },
        {
            "id": 7013,
            "code_insee": "67481",
            "nom_standard": "Stotzheim",
            "slug_ville": "stotzheim",
            "code_postal": "67140",
            "population": 1090,
            "superficie_km2": "14.00",
            "latitude_centre": "48.3759995",
            "longitude_centre": "7.5070000"
        },
        {
            "id": 7014,
            "code_insee": "67482",
            "nom_standard": "Strasbourg",
            "slug_ville": "strasbourg",
            "code_postal": "67000",
            "population": 291313,
            "superficie_km2": "78.00",
            "latitude_centre": "48.5709992",
            "longitude_centre": "7.7680001"
        },
        {
            "id": 7015,
            "code_insee": "67485",
            "nom_standard": "Stutzheim-Offenheim",
            "slug_ville": "stutzheim-offenheim",
            "code_postal": "67370",
            "population": 1647,
            "superficie_km2": "7.00",
            "latitude_centre": "48.6269989",
            "longitude_centre": "7.6269999"
        },
        {
            "id": 7016,
            "code_insee": "67486",
            "nom_standard": "Sundhouse",
            "slug_ville": "sundhouse",
            "code_postal": "67920",
            "population": 1824,
            "superficie_km2": "16.00",
            "latitude_centre": "48.2550011",
            "longitude_centre": "7.6300001"
        },
        {
            "id": 7017,
            "code_insee": "67487",
            "nom_standard": "Surbourg",
            "slug_ville": "surbourg",
            "code_postal": "67250",
            "population": 1717,
            "superficie_km2": "10.00",
            "latitude_centre": "48.9099999",
            "longitude_centre": "7.8360000"
        },
        {
            "id": 7018,
            "code_insee": "67495",
            "nom_standard": "Truchtersheim",
            "slug_ville": "truchtersheim",
            "code_postal": "67370",
            "population": 4389,
            "superficie_km2": "10.00",
            "latitude_centre": "48.6559982",
            "longitude_centre": "7.6160002"
        },
        {
            "id": 7019,
            "code_insee": "67500",
            "nom_standard": "Urmatt",
            "slug_ville": "urmatt",
            "code_postal": "67280",
            "population": 1448,
            "superficie_km2": "14.00",
            "latitude_centre": "48.5390015",
            "longitude_centre": "7.2950001"
        },
        {
            "id": 7020,
            "code_insee": "67504",
            "nom_standard": "Valff",
            "slug_ville": "valff",
            "code_postal": "67210",
            "population": 1369,
            "superficie_km2": "11.00",
            "latitude_centre": "48.4220009",
            "longitude_centre": "7.5260000"
        },
        {
            "id": 7021,
            "code_insee": "67506",
            "nom_standard": "Vendenheim",
            "slug_ville": "vendenheim",
            "code_postal": "67550",
            "population": 6042,
            "superficie_km2": "16.00",
            "latitude_centre": "48.6679993",
            "longitude_centre": "7.7389998"
        },
        {
            "id": 7022,
            "code_insee": "67507",
            "nom_standard": "Villé",
            "slug_ville": "ville",
            "code_postal": "67220",
            "population": 1775,
            "superficie_km2": "3.00",
            "latitude_centre": "48.3429985",
            "longitude_centre": "7.3030000"
        },
        {
            "id": 7023,
            "code_insee": "67519",
            "nom_standard": "La Wantzenau",
            "slug_ville": "la-wantzenau",
            "code_postal": "67610",
            "population": 5894,
            "superficie_km2": "25.00",
            "latitude_centre": "48.6590004",
            "longitude_centre": "7.8309999"
        },
        {
            "id": 7024,
            "code_insee": "67520",
            "nom_standard": "Wasselonne",
            "slug_ville": "wasselonne",
            "code_postal": "67310",
            "population": 5774,
            "superficie_km2": "15.00",
            "latitude_centre": "48.6389999",
            "longitude_centre": "7.4419999"
        },
        {
            "id": 7025,
            "code_insee": "67523",
            "nom_standard": "Weitbruch",
            "slug_ville": "weitbruch",
            "code_postal": "67500",
            "population": 2719,
            "superficie_km2": "15.00",
            "latitude_centre": "48.7620010",
            "longitude_centre": "7.7800002"
        },
        {
            "id": 7026,
            "code_insee": "67525",
            "nom_standard": "Westhoffen",
            "slug_ville": "westhoffen",
            "code_postal": "67310",
            "population": 1693,
            "superficie_km2": "21.00",
            "latitude_centre": "48.6049995",
            "longitude_centre": "7.4150000"
        },
        {
            "id": 7027,
            "code_insee": "67526",
            "nom_standard": "Westhouse",
            "slug_ville": "westhouse",
            "code_postal": "67230",
            "population": 1624,
            "superficie_km2": "12.00",
            "latitude_centre": "48.4070015",
            "longitude_centre": "7.5720000"
        },
        {
            "id": 7028,
            "code_insee": "67529",
            "nom_standard": "Weyersheim",
            "slug_ville": "weyersheim",
            "code_postal": "67720",
            "population": 3473,
            "superficie_km2": "20.00",
            "latitude_centre": "48.7159996",
            "longitude_centre": "7.8309999"
        },
        {
            "id": 7029,
            "code_insee": "67532",
            "nom_standard": "Willgottheim",
            "slug_ville": "willgottheim",
            "code_postal": "67370",
            "population": 1073,
            "superficie_km2": "9.00",
            "latitude_centre": "48.6739998",
            "longitude_centre": "7.5159998"
        },
        {
            "id": 7030,
            "code_insee": "67535",
            "nom_standard": "Wimmenau",
            "slug_ville": "wimmenau",
            "code_postal": "67290",
            "population": 1049,
            "superficie_km2": "21.00",
            "latitude_centre": "48.9210014",
            "longitude_centre": "7.4200001"
        },
        {
            "id": 7031,
            "code_insee": "67538",
            "nom_standard": "Wingen-sur-Moder",
            "slug_ville": "wingen-sur-moder",
            "code_postal": "67290",
            "population": 1574,
            "superficie_km2": "17.00",
            "latitude_centre": "48.9259987",
            "longitude_centre": "7.3699999"
        },
        {
            "id": 7032,
            "code_insee": "67539",
            "nom_standard": "Wingersheim les Quatre Bans",
            "slug_ville": "wingersheim-les-quatre-bans",
            "code_postal": "67170",
            "population": 2338,
            "superficie_km2": "8.00",
            "latitude_centre": "48.7299995",
            "longitude_centre": "7.6380000"
        },
        {
            "id": 7033,
            "code_insee": "67543",
            "nom_standard": "Wisches",
            "slug_ville": "wisches",
            "code_postal": "67130",
            "population": 2073,
            "superficie_km2": "19.00",
            "latitude_centre": "48.5120010",
            "longitude_centre": "7.2170000"
        },
        {
            "id": 7034,
            "code_insee": "67544",
            "nom_standard": "Wissembourg",
            "slug_ville": "wissembourg",
            "code_postal": "67160",
            "population": 7516,
            "superficie_km2": "48.00",
            "latitude_centre": "49.0180016",
            "longitude_centre": "7.9619999"
        },
        {
            "id": 7035,
            "code_insee": "67547",
            "nom_standard": "Wittisheim",
            "slug_ville": "wittisheim",
            "code_postal": "67820",
            "population": 2076,
            "superficie_km2": "11.00",
            "latitude_centre": "48.2630005",
            "longitude_centre": "7.5910001"
        },
        {
            "id": 7036,
            "code_insee": "67550",
            "nom_standard": "Wœrth",
            "slug_ville": "woerth",
            "code_postal": "67360",
            "population": 1696,
            "superficie_km2": "7.00",
            "latitude_centre": "48.9410019",
            "longitude_centre": "7.7440000"
        },
        {
            "id": 7037,
            "code_insee": "67551",
            "nom_standard": "Wolfisheim",
            "slug_ville": "wolfisheim",
            "code_postal": "67202",
            "population": 4165,
            "superficie_km2": "6.00",
            "latitude_centre": "48.5870018",
            "longitude_centre": "7.6630001"
        }
    ]
}