{"ville":{"id":14942,"code_insee":"19001","nom_standard":"Affieux","nom_a":null,"nom_de":null,"slug_ville":"affieux","departement_id":0,"code_postal":"19260","population":385,"superficie_km2":"3067.09","latitude_centre":"45.5111","longitude_centre":"1.7619","dep_code":"19","dep_nom":"Corrèze","dep_slug":"correze","reg_code":"75","reg_nom":"Nouvelle-Aquitaine","reg_slug":"nouvelle-aquitaine"},"departement":{"code":"19","nom":"Corrèze","slug":"correze"},"region":{"code":"75","nom":"Nouvelle-Aquitaine","slug":"nouvelle-aquitaine"},"villes_proches":[{"id":0,"code_insee":"19262","nom_standard":"Soudaine-Lavinadière","nom_a":null,"nom_de":null,"slug_ville":"soudaine-lavinadiere","departement_id":0,"code_postal":"19370","population":143,"superficie_km2":"2221.95","latitude_centre":"45.5426","longitude_centre":"1.7243","distance_km":4.57},{"id":0,"code_insee":"19118","nom_standard":"Le Lonzac","nom_a":null,"nom_de":null,"slug_ville":"le-lonzac","departement_id":0,"code_postal":"19470","population":823,"superficie_km2":"3663.56","latitude_centre":"45.4705","longitude_centre":"1.7274","distance_km":5.25},{"id":0,"code_insee":"19165","nom_standard":"Peyrissac","nom_a":null,"nom_de":null,"slug_ville":"peyrissac","departement_id":0,"code_postal":"19260","population":133,"superficie_km2":"610.27","latitude_centre":"45.5035","longitude_centre":"1.6932","distance_km":5.42},{"id":0,"code_insee":"19269","nom_standard":"Treignac","nom_a":null,"nom_de":null,"slug_ville":"treignac","departement_id":0,"code_postal":"19260","population":1256,"superficie_km2":"3815.49","latitude_centre":"45.5534","longitude_centre":"1.803","distance_km":5.69},{"id":0,"code_insee":"19172","nom_standard":"Rilhac-Treignac","nom_a":null,"nom_de":null,"slug_ville":"rilhac-treignac","departement_id":0,"code_postal":"19260","population":117,"superficie_km2":"960.57","latitude_centre":"45.5285","longitude_centre":"1.6912","distance_km":5.84},{"id":0,"code_insee":"19122","nom_standard":"Madranges","nom_a":null,"nom_de":null,"slug_ville":"madranges","departement_id":0,"code_postal":"19470","population":166,"superficie_km2":"1309.80","latitude_centre":"45.4633","longitude_centre":"1.8016","distance_km":6.15},{"id":0,"code_insee":"19281","nom_standard":"Veix","nom_a":null,"nom_de":null,"slug_ville":"veix","departement_id":0,"code_postal":"19260","population":80,"superficie_km2":"2196.21","latitude_centre":"45.5041","longitude_centre":"1.8431","distance_km":6.38},{"id":0,"code_insee":"19112","nom_standard":"Lestards","nom_a":null,"nom_de":null,"slug_ville":"lestards","departement_id":0,"code_postal":"19170","population":117,"superficie_km2":"1875.62","latitude_centre":"45.5425","longitude_centre":"1.8646","distance_km":8.73},{"id":0,"code_insee":"19181","nom_standard":"Saint-Augustin","nom_a":null,"nom_de":null,"slug_ville":"saint-augustin","departement_id":0,"code_postal":"19390","population":427,"superficie_km2":"3030.85","latitude_centre":"45.4383","longitude_centre":"1.8353","distance_km":9.91},{"id":0,"code_insee":"19037","nom_standard":"Chamboulive","nom_a":null,"nom_de":null,"slug_ville":"chamboulive","departement_id":0,"code_postal":"19450","population":1155,"superficie_km2":"4721.55","latitude_centre":"45.4276","longitude_centre":"1.7159","distance_km":9.95},{"id":0,"code_insee":"19020","nom_standard":"Beaumont","nom_a":null,"nom_de":null,"slug_ville":"beaumont","departement_id":0,"code_postal":"19390","population":114,"superficie_km2":"1112.90","latitude_centre":"45.4226","longitude_centre":"1.7904","distance_km":10.09},{"id":0,"code_insee":"19079","nom_standard":"Eyburie","nom_a":null,"nom_de":null,"slug_ville":"eyburie","departement_id":0,"code_postal":"19140","population":486,"superficie_km2":"2964.09","latitude_centre":"45.4686","longitude_centre":"1.6443","distance_km":10.31},{"id":0,"code_insee":"19131","nom_standard":"Meilhards","nom_a":null,"nom_de":null,"slug_ville":"meilhards","departement_id":0,"code_postal":"19510","population":545,"superficie_km2":"4520.55","latitude_centre":"45.5489","longitude_centre":"1.6358","distance_km":10.68},{"id":0,"code_insee":"19209","nom_standard":"Saint-Hilaire-les-Courbes","nom_a":null,"nom_de":null,"slug_ville":"saint-hilaire-les-courbes","departement_id":0,"code_postal":"19170","population":178,"superficie_km2":"3693.80","latitude_centre":"45.5983","longitude_centre":"1.8211","distance_km":10.74},{"id":0,"code_insee":"19036","nom_standard":"Chamberet","nom_a":null,"nom_de":null,"slug_ville":"chamberet","departement_id":0,"code_postal":"19370","population":1433,"superficie_km2":"7051.56","latitude_centre":"45.6038","longitude_centre":"1.7177","distance_km":10.87},{"id":0,"code_insee":"19051","nom_standard":"Chaumeil","nom_a":null,"nom_de":null,"slug_ville":"chaumeil","departement_id":0,"code_postal":"19390","population":164,"superficie_km2":"3164.34","latitude_centre":"45.4546","longitude_centre":"1.878","distance_km":11.02},{"id":0,"code_insee":"19166","nom_standard":"Pierrefitte","nom_a":null,"nom_de":null,"slug_ville":"pierrefitte","departement_id":0,"code_postal":"19450","population":93,"superficie_km2":"997.52","latitude_centre":"45.4297","longitude_centre":"1.6433","distance_km":12.94},{"id":0,"code_insee":"19240","nom_standard":"Saint-Salvadour","nom_a":null,"nom_de":null,"slug_ville":"saint-salvadour","departement_id":0,"code_postal":"19700","population":332,"superficie_km2":"1982.80","latitude_centre":"45.3868","longitude_centre":"1.7653","distance_km":13.82},{"id":0,"code_insee":"19137","nom_standard":"Meyrignac-l'Église","nom_a":null,"nom_de":null,"slug_ville":"meyrignac-l-eglise","departement_id":0,"code_postal":"19800","population":64,"superficie_km2":"1009.68","latitude_centre":"45.4054","longitude_centre":"1.8607","distance_km":14.05},{"id":0,"code_insee":"19155","nom_standard":"Orliac-de-Bar","nom_a":null,"nom_de":null,"slug_ville":"orliac-de-bar","departement_id":0,"code_postal":"19390","population":256,"superficie_km2":"1497.19","latitude_centre":"45.3705","longitude_centre":"1.8044","distance_km":15.98}]}