{"ville":{"id":21823,"code_insee":"43001","nom_standard":"Agnat","nom_a":null,"nom_de":null,"slug_ville":"agnat","departement_id":0,"code_postal":"43100","population":170,"superficie_km2":"1985.37","latitude_centre":"45.3435","longitude_centre":"3.4542","dep_code":"43","dep_nom":"Haute-Loire","dep_slug":"haute-loire","reg_code":"84","reg_nom":"Auvergne-Rhône-Alpes","reg_slug":"auvergne-rhone-alpes"},"departement":{"code":"43","nom":"Haute-Loire","slug":"haute-loire"},"region":{"code":"84","nom":"Auvergne-Rhône-Alpes","slug":"auvergne-rhone-alpes"},"villes_proches":[{"id":0,"code_insee":"43055","nom_standard":"Chaniat","nom_a":null,"nom_de":null,"slug_ville":"chaniat","departement_id":0,"code_postal":"43100","population":164,"superficie_km2":"1399.81","latitude_centre":"45.3173","longitude_centre":"3.472","distance_km":3.23},{"id":0,"code_insee":"43110","nom_standard":"Lamothe","nom_a":null,"nom_de":null,"slug_ville":"lamothe","departement_id":0,"code_postal":"43100","population":819,"superficie_km2":"1248.79","latitude_centre":"45.3159","longitude_centre":"3.4309","distance_km":3.57},{"id":0,"code_insee":"43052","nom_standard":"Champagnac-le-Vieux","nom_a":null,"nom_de":null,"slug_ville":"champagnac-le-vieux","departement_id":0,"code_postal":"43440","population":191,"superficie_km2":"2080.81","latitude_centre":"45.3535","longitude_centre":"3.5057","distance_km":4.18},{"id":0,"code_insee":"43193","nom_standard":"Saint-Hilaire","nom_a":null,"nom_de":null,"slug_ville":"saint-hilaire","departement_id":0,"code_postal":"43390","population":157,"superficie_km2":"1475.80","latitude_centre":"45.382","longitude_centre":"3.4455","distance_km":4.33},{"id":0,"code_insee":"43017","nom_standard":"Azérat","nom_a":null,"nom_de":null,"slug_ville":"azerat","departement_id":0,"code_postal":"43390","population":294,"superficie_km2":"1814.46","latitude_centre":"45.3532","longitude_centre":"3.3957","distance_km":4.7},{"id":0,"code_insee":"43074","nom_standard":"Cohade","nom_a":null,"nom_de":null,"slug_ville":"cohade","departement_id":0,"code_postal":"43100","population":893,"superficie_km2":"1010.04","latitude_centre":"45.3372","longitude_centre":"3.3728","distance_km":6.4},{"id":0,"code_insee":"43105","nom_standard":"Javaugues","nom_a":null,"nom_de":null,"slug_ville":"javaugues","departement_id":0,"code_postal":"43100","population":174,"superficie_km2":"698.73","latitude_centre":"45.292","longitude_centre":"3.4918","distance_km":6.44},{"id":0,"code_insee":"43096","nom_standard":"Fontannes","nom_a":null,"nom_de":null,"slug_ville":"fontannes","departement_id":0,"code_postal":"43100","population":875,"superficie_km2":"994.94","latitude_centre":"45.2855","longitude_centre":"3.4335","distance_km":6.65},{"id":0,"code_insee":"43064","nom_standard":"Chassignolles","nom_a":null,"nom_de":null,"slug_ville":"chassignolles","departement_id":0,"code_postal":"43440","population":64,"superficie_km2":"1819.49","latitude_centre":"45.4028","longitude_centre":"3.4857","distance_km":7.04},{"id":0,"code_insee":"43040","nom_standard":"Brioude","nom_a":null,"nom_de":null,"slug_ville":"brioude","departement_id":0,"code_postal":"43100","population":6527,"superficie_km2":"1351.61","latitude_centre":"45.2968","longitude_centre":"3.3847","distance_km":7.52},{"id":0,"code_insee":"43016","nom_standard":"Auzon","nom_a":null,"nom_de":null,"slug_ville":"auzon","departement_id":0,"code_postal":"43390","population":858,"superficie_km2":"1703.92","latitude_centre":"45.3876","longitude_centre":"3.3795","distance_km":7.62},{"id":0,"code_insee":"43226","nom_standard":"Saint-Vert","nom_a":null,"nom_de":null,"slug_ville":"saint-vert","departement_id":0,"code_postal":"43440","population":108,"superficie_km2":"2065.64","latitude_centre":"45.3769","longitude_centre":"3.5456","distance_km":8.05},{"id":0,"code_insee":"63376","nom_standard":"Saint-Martin-d'Ollières","nom_a":null,"nom_de":null,"slug_ville":"saint-martin-d-ollieres","departement_id":0,"code_postal":"63580","population":149,"superficie_km2":"1464.73","latitude_centre":"45.4175","longitude_centre":"3.4538","distance_km":8.23},{"id":0,"code_insee":"43178","nom_standard":"Saint-Didier-sur-Doulon","nom_a":null,"nom_de":null,"slug_ville":"saint-didier-sur-doulon","departement_id":0,"code_postal":"43440","population":197,"superficie_km2":"3411.50","latitude_centre":"45.3016","longitude_centre":"3.5459","distance_km":8.55},{"id":0,"code_insee":"43100","nom_standard":"Frugières-le-Pin","nom_a":null,"nom_de":null,"slug_ville":"frugieres-le-pin","departement_id":0,"code_postal":"43230","population":185,"superficie_km2":"1164.45","latitude_centre":"45.2717","longitude_centre":"3.4961","distance_km":8.63},{"id":0,"code_insee":"43117","nom_standard":"Lavaudieu","nom_a":null,"nom_de":null,"slug_ville":"lavaudieu","departement_id":0,"code_postal":"43100","population":243,"superficie_km2":"1761.70","latitude_centre":"45.2632","longitude_centre":"3.4558","distance_km":8.93},{"id":0,"code_insee":"43250","nom_standard":"Vals-le-Chastel","nom_a":null,"nom_de":null,"slug_ville":"vals-le-chastel","departement_id":0,"code_postal":"43230","population":39,"superficie_km2":"399.92","latitude_centre":"45.2711","longitude_centre":"3.5289","distance_km":9.95},{"id":0,"code_insee":"63442","nom_standard":"Valz-sous-Châteauneuf","nom_a":null,"nom_de":null,"slug_ville":"valz-sous-chateauneuf","departement_id":0,"code_postal":"63580","population":52,"superficie_km2":"513.02","latitude_centre":"45.4307","longitude_centre":"3.4194","distance_km":10.07},{"id":0,"code_insee":"63277","nom_standard":"Peslières","nom_a":null,"nom_de":null,"slug_ville":"peslieres","departement_id":0,"code_postal":"63580","population":56,"superficie_km2":"685.66","latitude_centre":"45.4375","longitude_centre":"3.4693","distance_km":10.52},{"id":0,"code_insee":"63079","nom_standard":"Champagnat-le-Jeune","nom_a":null,"nom_de":null,"slug_ville":"champagnat-le-jeune","departement_id":0,"code_postal":"63580","population":149,"superficie_km2":"941.15","latitude_centre":"45.4426","longitude_centre":"3.4235","distance_km":11.28}]}