{"ville":{"id":31289,"code_insee":"73005","nom_standard":"Aillon-le-Vieux","nom_a":null,"nom_de":null,"slug_ville":"aillon-le-vieux","departement_id":0,"code_postal":"73340","population":221,"superficie_km2":"2147.50","latitude_centre":"45.6529","longitude_centre":"6.0797","dep_code":"73","dep_nom":"Savoie","dep_slug":"savoie","reg_code":"84","reg_nom":"Auvergne-Rhône-Alpes","reg_slug":"auvergne-rhone-alpes"},"departement":{"code":"73","nom":"Savoie","slug":"savoie"},"region":{"code":"84","nom":"Auvergne-Rhône-Alpes","slug":"auvergne-rhone-alpes"},"villes_proches":[{"id":0,"code_insee":"73192","nom_standard":"Le Noyer","nom_a":null,"nom_de":null,"slug_ville":"le-noyer","departement_id":0,"code_postal":"73340","population":230,"superficie_km2":"1230.95","latitude_centre":"45.6681","longitude_centre":"6.0541","distance_km":2.61},{"id":0,"code_insee":"73234","nom_standard":"Saint-François-de-Sales","nom_a":null,"nom_de":null,"slug_ville":"saint-francois-de-sales","departement_id":0,"code_postal":"73340","population":190,"superficie_km2":"1439.13","latitude_centre":"45.6765","longitude_centre":"6.0411","distance_km":3.99},{"id":0,"code_insee":"73081","nom_standard":"Le Châtelard","nom_a":null,"nom_de":null,"slug_ville":"le-chatelard","departement_id":0,"code_postal":"73630","population":686,"superficie_km2":"1794.14","latitude_centre":"45.6839","longitude_centre":"6.1252","distance_km":4.94},{"id":0,"code_insee":"73090","nom_standard":"La Compôte","nom_a":null,"nom_de":null,"slug_ville":"la-compote","departement_id":0,"code_postal":"73630","population":273,"superficie_km2":"751.95","latitude_centre":"45.6604","longitude_centre":"6.1453","distance_km":5.17},{"id":31288,"code_insee":"73004","nom_standard":"Aillon-le-Jeune","nom_a":null,"nom_de":null,"slug_ville":"aillon-le-jeune","departement_id":0,"code_postal":"73340","population":430,"superficie_km2":"3391.70","latitude_centre":"45.6032","longitude_centre":"6.0863","distance_km":5.55},{"id":0,"code_insee":"73098","nom_standard":"Les Déserts","nom_a":null,"nom_de":null,"slug_ville":"les-deserts","departement_id":0,"code_postal":"73230","population":845,"superficie_km2":"3347.58","latitude_centre":"45.6439","longitude_centre":"5.9987","distance_km":6.38},{"id":0,"code_insee":"73146","nom_standard":"Lescheraines","nom_a":null,"nom_de":null,"slug_ville":"lescheraines","departement_id":0,"code_postal":"73340","population":803,"superficie_km2":"818.57","latitude_centre":"45.7082","longitude_centre":"6.1069","distance_km":6.5},{"id":0,"code_insee":"73293","nom_standard":"Thoiry","nom_a":null,"nom_de":null,"slug_ville":"thoiry","departement_id":0,"code_postal":"73230","population":456,"superficie_km2":"1766.65","latitude_centre":"45.5983","longitude_centre":"6.0466","distance_km":6.59},{"id":0,"code_insee":"73277","nom_standard":"Sainte-Reine","nom_a":null,"nom_de":null,"slug_ville":"sainte-reine","departement_id":0,"code_postal":"73630","population":177,"superficie_km2":"1450.22","latitude_centre":"45.6085","longitude_centre":"6.1444","distance_km":7.05},{"id":0,"code_insee":"73178","nom_standard":"La Motte-en-Bauges","nom_a":null,"nom_de":null,"slug_ville":"la-motte-en-bauges","departement_id":0,"code_postal":"73340","population":539,"superficie_km2":"987.33","latitude_centre":"45.7113","longitude_centre":"6.1304","distance_km":7.59},{"id":0,"code_insee":"73020","nom_standard":"Arith","nom_a":null,"nom_de":null,"slug_ville":"arith","departement_id":0,"code_postal":"73340","population":456,"superficie_km2":"2409.71","latitude_centre":"45.7238","longitude_centre":"6.0613","distance_km":8.01},{"id":0,"code_insee":"73106","nom_standard":"École","nom_a":null,"nom_de":null,"slug_ville":"ecole","departement_id":0,"code_postal":"73630","population":305,"superficie_km2":"2944.95","latitude_centre":"45.6276","longitude_centre":"6.1816","distance_km":8.41},{"id":0,"code_insee":"73243","nom_standard":"Saint-Jean-d'Arvey","nom_a":null,"nom_de":null,"slug_ville":"saint-jean-d-arvey","departement_id":0,"code_postal":"73230","population":1721,"superficie_km2":"1295.91","latitude_centre":"45.605","longitude_centre":"5.991","distance_km":8.71},{"id":0,"code_insee":"73263","nom_standard":"Saint-Offenge","nom_a":null,"nom_de":null,"slug_ville":"saint-offenge","departement_id":0,"code_postal":"73100","population":1179,"superficie_km2":"1565.94","latitude_centre":"45.7132","longitude_centre":"6.0075","distance_km":8.74},{"id":0,"code_insee":"73101","nom_standard":"Doucy-en-Bauges","nom_a":null,"nom_de":null,"slug_ville":"doucy-en-bauges","departement_id":0,"code_postal":"73630","population":94,"superficie_km2":"1239.83","latitude_centre":"45.6971","longitude_centre":"6.1761","distance_km":8.96},{"id":0,"code_insee":"73164","nom_standard":"Montcel","nom_a":null,"nom_de":null,"slug_ville":"montcel","departement_id":0,"code_postal":"73100","population":1111,"superficie_km2":"1517.01","latitude_centre":"45.7086","longitude_centre":"5.9895","distance_km":9.35},{"id":0,"code_insee":"73210","nom_standard":"Puygros","nom_a":null,"nom_de":null,"slug_ville":"puygros","departement_id":0,"code_postal":"73190","population":406,"superficie_km2":"1028.21","latitude_centre":"45.5683","longitude_centre":"6.0371","distance_km":9.97},{"id":0,"code_insee":"73247","nom_standard":"Saint-Jean-de-la-Porte","nom_a":null,"nom_de":null,"slug_ville":"saint-jean-de-la-porte","departement_id":0,"code_postal":"73250","population":989,"superficie_km2":"1603.66","latitude_centre":"45.5641","longitude_centre":"6.1214","distance_km":10.39},{"id":0,"code_insee":"73036","nom_standard":"Bellecombe-en-Bauges","nom_a":null,"nom_de":null,"slug_ville":"bellecombe-en-bauges","departement_id":0,"code_postal":"73340","population":793,"superficie_km2":"2275.38","latitude_centre":"45.7368","longitude_centre":"6.1452","distance_km":10.63},{"id":0,"code_insee":"74004","nom_standard":"Allèves","nom_a":null,"nom_de":null,"slug_ville":"alleves","departement_id":0,"code_postal":"74540","population":397,"superficie_km2":"883.67","latitude_centre":"45.7539","longitude_centre":"6.082","distance_km":11.23}]}