{"ville":{"id":25465,"code_insee":"57010","nom_standard":"Alaincourt-la-Côte","nom_a":null,"nom_de":null,"slug_ville":"alaincourt-la-cote","departement_id":0,"code_postal":"57590","population":176,"superficie_km2":"412.53","latitude_centre":"48.8973","longitude_centre":"6.3433","dep_code":"57","dep_nom":"Moselle","dep_slug":"moselle","reg_code":"44","reg_nom":"Grand Est","reg_slug":"grand-est"},"departement":{"code":"57","nom":"Moselle","slug":"moselle"},"region":{"code":"44","nom":"Grand Est","slug":"grand-est"},"villes_proches":[{"id":0,"code_insee":"57406","nom_standard":"Liocourt","nom_a":null,"nom_de":null,"slug_ville":"liocourt","departement_id":0,"code_postal":"57590","population":138,"superficie_km2":"317.12","latitude_centre":"48.9102","longitude_centre":"6.342","distance_km":1.44},{"id":0,"code_insee":"57559","nom_standard":"Puzieux","nom_a":null,"nom_de":null,"slug_ville":"puzieux","departement_id":0,"code_postal":"57590","population":167,"superficie_km2":"626.01","latitude_centre":"48.8917","longitude_centre":"6.3644","distance_km":1.66},{"id":0,"code_insee":"57158","nom_standard":"Craincourt","nom_a":null,"nom_de":null,"slug_ville":"craincourt","departement_id":0,"code_postal":"57590","population":226,"superficie_km2":"905.71","latitude_centre":"48.8785","longitude_centre":"6.3348","distance_km":2.18},{"id":0,"code_insee":"57231","nom_standard":"Foville","nom_a":null,"nom_de":null,"slug_ville":"foville","departement_id":0,"code_postal":"57420","population":102,"superficie_km2":"341.33","latitude_centre":"48.9175","longitude_centre":"6.3263","distance_km":2.57},{"id":0,"code_insee":"57755","nom_standard":"Xocourt","nom_a":null,"nom_de":null,"slug_ville":"xocourt","departement_id":0,"code_postal":"57590","population":99,"superficie_km2":"490.13","latitude_centre":"48.9111","longitude_centre":"6.3767","distance_km":2.88},{"id":24841,"code_insee":"54517","nom_standard":"Thézey-Saint-Martin","nom_a":null,"nom_de":null,"slug_ville":"thezey-saint-martin","departement_id":0,"code_postal":"54610","population":200,"superficie_km2":"801.91","latitude_centre":"48.9016","longitude_centre":"6.3039","distance_km":2.92},{"id":0,"code_insee":"57171","nom_standard":"Delme","nom_a":null,"nom_de":null,"slug_ville":"delme","departement_id":0,"code_postal":"57590","population":1166,"superficie_km2":"510.62","latitude_centre":"48.8844","longitude_centre":"6.383","distance_km":3.24},{"id":0,"code_insee":"57354","nom_standard":"Juville","nom_a":null,"nom_de":null,"slug_ville":"juville","departement_id":0,"code_postal":"57590","population":146,"superficie_km2":"613.78","latitude_centre":"48.9295","longitude_centre":"6.3589","distance_km":3.76},{"id":0,"code_insee":"57040","nom_standard":"Aulnois-sur-Seille","nom_a":null,"nom_de":null,"slug_ville":"aulnois-sur-seille","departement_id":0,"code_postal":"57590","population":313,"superficie_km2":"505.58","latitude_centre":"48.8636","longitude_centre":"6.3361","distance_km":3.78},{"id":0,"code_insee":"57737","nom_standard":"Vulmont","nom_a":null,"nom_de":null,"slug_ville":"vulmont","departement_id":0,"code_postal":"57420","population":31,"superficie_km2":"306.32","latitude_centre":"48.9254","longitude_centre":"6.3063","distance_km":4.13},{"id":0,"code_insee":"57674","nom_standard":"Tincry","nom_a":null,"nom_de":null,"slug_ville":"tincry","departement_id":0,"code_postal":"57590","population":169,"superficie_km2":"844.11","latitude_centre":"48.9077","longitude_centre":"6.4049","distance_km":4.65},{"id":0,"code_insee":"57391","nom_standard":"Lemoncourt","nom_a":null,"nom_de":null,"slug_ville":"lemoncourt","departement_id":0,"code_postal":"57590","population":57,"superficie_km2":"543.03","latitude_centre":"48.8636","longitude_centre":"6.3837","distance_km":4.77},{"id":24689,"code_insee":"54313","nom_standard":"Létricourt","nom_a":null,"nom_de":null,"slug_ville":"letricourt","departement_id":0,"code_postal":"54610","population":224,"superficie_km2":"730.70","latitude_centre":"48.8772","longitude_centre":"6.2844","distance_km":4.85},{"id":0,"code_insee":"57228","nom_standard":"Fossieux","nom_a":null,"nom_de":null,"slug_ville":"fossieux","departement_id":0,"code_postal":"57590","population":186,"superficie_km2":"506.48","latitude_centre":"48.8495","longitude_centre":"6.3311","distance_km":5.39},{"id":0,"code_insee":"57472","nom_standard":"Moncheux","nom_a":null,"nom_de":null,"slug_ville":"moncheux","departement_id":0,"code_postal":"57420","population":146,"superficie_km2":"734.17","latitude_centre":"48.946","longitude_centre":"6.3393","distance_km":5.42},{"id":0,"code_insee":"57045","nom_standard":"Bacourt","nom_a":null,"nom_de":null,"slug_ville":"bacourt","departement_id":0,"code_postal":"57590","population":114,"superficie_km2":"395.49","latitude_centre":"48.9292","longitude_centre":"6.4044","distance_km":5.7},{"id":0,"code_insee":"57436","nom_standard":"Malaucourt-sur-Seille","nom_a":null,"nom_de":null,"slug_ville":"malaucourt-sur-seille","departement_id":0,"code_postal":"57590","population":130,"superficie_km2":"715.10","latitude_centre":"48.8437","longitude_centre":"6.356","distance_km":6.03},{"id":0,"code_insee":"57605","nom_standard":"Sailly-Achâtel","nom_a":null,"nom_de":null,"slug_ville":"sailly-achatel","departement_id":0,"code_postal":"57420","population":324,"superficie_km2":"818.29","latitude_centre":"48.9438","longitude_centre":"6.2985","distance_km":6.12},{"id":25464,"code_insee":"57009","nom_standard":"Ajoncourt","nom_a":null,"nom_de":null,"slug_ville":"ajoncourt","departement_id":0,"code_postal":"57590","population":102,"superficie_km2":"349.08","latitude_centre":"48.8446","longitude_centre":"6.3012","distance_km":6.62},{"id":0,"code_insee":"57676","nom_standard":"Tragny","nom_a":null,"nom_de":null,"slug_ville":"tragny","departement_id":0,"code_postal":"57580","population":87,"superficie_km2":"541.96","latitude_centre":"48.9562","longitude_centre":"6.3806","distance_km":7.09}]}