{"ville":{"id":29439,"code_insee":"67003","nom_standard":"Albé","nom_a":null,"nom_de":null,"slug_ville":"albe","departement_id":0,"code_postal":"67220","population":473,"superficie_km2":"1149.12","latitude_centre":"48.3635","longitude_centre":"7.3409","dep_code":"67","dep_nom":"Bas-Rhin","dep_slug":"bas-rhin","reg_code":"44","reg_nom":"Grand Est","reg_slug":"grand-est"},"departement":{"code":"67","nom":"Bas-Rhin","slug":"bas-rhin"},"region":{"code":"44","nom":"Grand Est","slug":"grand-est"},"villes_proches":[{"id":0,"code_insee":"67493","nom_standard":"Triembach-au-Val","nom_a":null,"nom_de":null,"slug_ville":"triembach-au-val","departement_id":0,"code_postal":"67220","population":421,"superficie_km2":"299.45","latitude_centre":"48.3419","longitude_centre":"7.3363","distance_km":2.43},{"id":0,"code_insee":"67387","nom_standard":"Reichsfeld","nom_a":null,"nom_de":null,"slug_ville":"reichsfeld","departement_id":0,"code_postal":"67140","population":284,"superficie_km2":"503.88","latitude_centre":"48.3601","longitude_centre":"7.3796","distance_km":2.88},{"id":0,"code_insee":"67507","nom_standard":"Villé","nom_a":null,"nom_de":null,"slug_ville":"ville","departement_id":0,"code_postal":"67220","population":1799,"superficie_km2":"304.14","latitude_centre":"48.344","longitude_centre":"7.3038","distance_km":3.5},{"id":0,"code_insee":"67427","nom_standard":"Saint-Maurice","nom_a":null,"nom_de":null,"slug_ville":"saint-maurice","departement_id":0,"code_postal":"67220","population":332,"superficie_km2":"157.95","latitude_centre":"48.3322","longitude_centre":"7.3344","distance_km":3.51},{"id":0,"code_insee":"67063","nom_standard":"Breitenbach","nom_a":null,"nom_de":null,"slug_ville":"breitenbach","departement_id":0,"code_postal":"67220","population":686,"superficie_km2":"1283.29","latitude_centre":"48.3736","longitude_centre":"7.2895","distance_km":3.96},{"id":0,"code_insee":"67430","nom_standard":"Saint-Pierre-Bois","nom_a":null,"nom_de":null,"slug_ville":"saint-pierre-bois","departement_id":0,"code_postal":"67220","population":804,"superficie_km2":"769.40","latitude_centre":"48.3311","longitude_centre":"7.3666","distance_km":4.07},{"id":0,"code_insee":"67426","nom_standard":"Saint-Martin","nom_a":null,"nom_de":null,"slug_ville":"saint-martin","departement_id":0,"code_postal":"67220","population":374,"superficie_km2":"415.90","latitude_centre":"48.3506","longitude_centre":"7.2846","distance_km":4.4},{"id":0,"code_insee":"67490","nom_standard":"Thanvillé","nom_a":null,"nom_de":null,"slug_ville":"thanville","departement_id":0,"code_postal":"67220","population":623,"superficie_km2":"205.64","latitude_centre":"48.3231","longitude_centre":"7.3484","distance_km":4.53},{"id":0,"code_insee":"67210","nom_standard":"Le Hohwald","nom_a":null,"nom_de":null,"slug_ville":"le-hohwald","departement_id":0,"code_postal":"67140","population":521,"superficie_km2":"2088.47","latitude_centre":"48.4003","longitude_centre":"7.3092","distance_km":4.71},{"id":0,"code_insee":"67010","nom_standard":"Andlau","nom_a":null,"nom_de":null,"slug_ville":"andlau","departement_id":0,"code_postal":"67140","population":1757,"superficie_km2":"2402.00","latitude_centre":"48.3935","longitude_centre":"7.3871","distance_km":4.77},{"id":0,"code_insee":"67032","nom_standard":"Bernardvillé","nom_a":null,"nom_de":null,"slug_ville":"bernardville","departement_id":0,"code_postal":"67140","population":197,"superficie_km2":"272.82","latitude_centre":"48.3686","longitude_centre":"7.4069","distance_km":4.91},{"id":0,"code_insee":"67320","nom_standard":"Neuve-Église","nom_a":null,"nom_de":null,"slug_ville":"neuve-eglise","departement_id":0,"code_postal":"67220","population":613,"superficie_km2":"576.33","latitude_centre":"48.3238","longitude_centre":"7.3093","distance_km":4.99},{"id":0,"code_insee":"67337","nom_standard":"Nothalten","nom_a":null,"nom_de":null,"slug_ville":"nothalten","departement_id":0,"code_postal":"67680","population":409,"superficie_km2":"415.34","latitude_centre":"48.3557","longitude_centre":"7.4127","distance_km":5.38},{"id":0,"code_insee":"67092","nom_standard":"Dieffenbach-au-Val","nom_a":null,"nom_de":null,"slug_ville":"dieffenbach-au-val","departement_id":0,"code_postal":"67220","population":642,"superficie_km2":"311.74","latitude_centre":"48.3138","longitude_centre":"7.3275","distance_km":5.61},{"id":0,"code_insee":"67022","nom_standard":"Bassemberg","nom_a":null,"nom_de":null,"slug_ville":"bassemberg","departement_id":0,"code_postal":"67220","population":222,"superficie_km2":"189.23","latitude_centre":"48.3352","longitude_centre":"7.2781","distance_km":5.61},{"id":0,"code_insee":"67051","nom_standard":"Blienschwiller","nom_a":null,"nom_de":null,"slug_ville":"blienschwiller","departement_id":0,"code_postal":"67650","population":300,"superficie_km2":"313.37","latitude_centre":"48.345","longitude_centre":"7.4138","distance_km":5.77},{"id":0,"code_insee":"67317","nom_standard":"Neubois","nom_a":null,"nom_de":null,"slug_ville":"neubois","departement_id":0,"code_postal":"67220","population":646,"superficie_km2":"1153.33","latitude_centre":"48.3021","longitude_centre":"7.3207","distance_km":6.99},{"id":0,"code_insee":"67021","nom_standard":"Barr","nom_a":null,"nom_de":null,"slug_ville":"barr","departement_id":0,"code_postal":"67140","population":7057,"superficie_km2":"2117.75","latitude_centre":"48.4136","longitude_centre":"7.3988","distance_km":7.02},{"id":0,"code_insee":"67062","nom_standard":"Breitenau","nom_a":null,"nom_de":null,"slug_ville":"breitenau","departement_id":0,"code_postal":"67220","population":341,"superficie_km2":"450.81","latitude_centre":"48.3148","longitude_centre":"7.2773","distance_km":7.17},{"id":0,"code_insee":"67505","nom_standard":"La Vancelle","nom_a":null,"nom_de":null,"slug_ville":"la-vancelle","departement_id":0,"code_postal":"67730","population":402,"superficie_km2":"807.17","latitude_centre":"48.2829","longitude_centre":"7.3221","distance_km":9.07}]}