{"ville":{"id":11799,"code_insee":"08005","nom_standard":"Alincourt","nom_a":null,"nom_de":null,"slug_ville":"alincourt","departement_id":0,"code_postal":"08310","population":160,"superficie_km2":"890.56","latitude_centre":"49.4009","longitude_centre":"4.345","dep_code":"08","dep_nom":"Ardennes","dep_slug":"ardennes","reg_code":"44","reg_nom":"Grand Est","reg_slug":"grand-est"},"departement":{"code":"08","nom":"Ardennes","slug":"ardennes"},"region":{"code":"44","nom":"Grand Est","slug":"grand-est"},"villes_proches":[{"id":0,"code_insee":"08239","nom_standard":"Juniville","nom_a":null,"nom_de":null,"slug_ville":"juniville","departement_id":0,"code_postal":"08310","population":1224,"superficie_km2":"2608.69","latitude_centre":"49.4007","longitude_centre":"4.378","distance_km":2.39},{"id":0,"code_insee":"08314","nom_standard":"Neuflize","nom_a":null,"nom_de":null,"slug_ville":"neuflize","departement_id":0,"code_postal":"08300","population":855,"superficie_km2":"1368.97","latitude_centre":"49.405","longitude_centre":"4.311","distance_km":2.5},{"id":0,"code_insee":"08111","nom_standard":"Le Châtelet-sur-Retourne","nom_a":null,"nom_de":null,"slug_ville":"le-chatelet-sur-retourne","departement_id":0,"code_postal":"08300","population":774,"superficie_km2":"982.84","latitude_centre":"49.4113","longitude_centre":"4.2774","distance_km":5.03},{"id":0,"code_insee":"08287","nom_standard":"Ménil-Lépinois","nom_a":null,"nom_de":null,"slug_ville":"menil-lepinois","departement_id":0,"code_postal":"08310","population":148,"superficie_km2":"1789.92","latitude_centre":"49.3718","longitude_centre":"4.29","distance_km":5.13},{"id":0,"code_insee":"08339","nom_standard":"Perthes","nom_a":null,"nom_de":null,"slug_ville":"perthes","departement_id":0,"code_postal":"08300","population":303,"superficie_km2":"2362.06","latitude_centre":"49.4487","longitude_centre":"4.3605","distance_km":5.43},{"id":0,"code_insee":"08066","nom_standard":"Bignicourt","nom_a":null,"nom_de":null,"slug_ville":"bignicourt","departement_id":0,"code_postal":"08310","population":65,"superficie_km2":"870.95","latitude_centre":"49.3902","longitude_centre":"4.4212","distance_km":5.64},{"id":0,"code_insee":"08014","nom_standard":"Annelles","nom_a":null,"nom_de":null,"slug_ville":"annelles","departement_id":0,"code_postal":"08310","population":127,"superficie_km2":"1273.92","latitude_centre":"49.4341","longitude_centre":"4.4141","distance_km":6.21},{"id":0,"code_insee":"08032","nom_standard":"Aussonce","nom_a":null,"nom_de":null,"slug_ville":"aussonce","departement_id":0,"code_postal":"08310","population":236,"superficie_km2":"1943.00","latitude_centre":"49.3432","longitude_centre":"4.3252","distance_km":6.57},{"id":0,"code_insee":"08435","nom_standard":"Tagnon","nom_a":null,"nom_de":null,"slug_ville":"tagnon","departement_id":0,"code_postal":"08300","population":901,"superficie_km2":"2396.47","latitude_centre":"49.4511","longitude_centre":"4.2902","distance_km":6.85},{"id":0,"code_insee":"08060","nom_standard":"Bergnicourt","nom_a":null,"nom_de":null,"slug_ville":"bergnicourt","departement_id":0,"code_postal":"08300","population":292,"superficie_km2":"825.42","latitude_centre":"49.4119","longitude_centre":"4.2489","distance_km":7.06},{"id":0,"code_insee":"08320","nom_standard":"La Neuville-en-Tourne-à-Fuy","nom_a":null,"nom_de":null,"slug_ville":"la-neuville-en-tourne-a-fuy","departement_id":0,"code_postal":"08310","population":533,"superficie_km2":"2736.65","latitude_centre":"49.3461","longitude_centre":"4.3965","distance_km":7.14},{"id":0,"code_insee":"08484","nom_standard":"Ville-sur-Retourne","nom_a":null,"nom_de":null,"slug_ville":"ville-sur-retourne","departement_id":0,"code_postal":"08310","population":73,"superficie_km2":"959.27","latitude_centre":"49.3952","longitude_centre":"4.4488","distance_km":7.54},{"id":0,"code_insee":"08286","nom_standard":"Ménil-Annelles","nom_a":null,"nom_de":null,"slug_ville":"menil-annelles","departement_id":0,"code_postal":"08310","population":95,"superficie_km2":"920.91","latitude_centre":"49.4346","longitude_centre":"4.4472","distance_km":8.29},{"id":0,"code_insee":"08064","nom_standard":"Biermes","nom_a":null,"nom_de":null,"slug_ville":"biermes","departement_id":0,"code_postal":"08300","population":316,"superficie_km2":"796.09","latitude_centre":"49.4769","longitude_centre":"4.3815","distance_km":8.85},{"id":0,"code_insee":"51293","nom_standard":"Heutrégiville","nom_a":null,"nom_de":null,"slug_ville":"heutregiville","departement_id":0,"code_postal":"51110","population":508,"superficie_km2":"1178.77","latitude_centre":"49.3312","longitude_centre":"4.2596","distance_km":9.92},{"id":0,"code_insee":"08403","nom_standard":"Sault-lès-Rethel","nom_a":null,"nom_de":null,"slug_ville":"sault-les-rethel","departement_id":0,"code_postal":"08300","population":1900,"superficie_km2":"653.34","latitude_centre":"49.4905","longitude_centre":"4.3552","distance_km":9.99},{"id":0,"code_insee":"08452","nom_standard":"Thugny-Trugny","nom_a":null,"nom_de":null,"slug_ville":"thugny-trugny","departement_id":0,"code_postal":"08300","population":243,"superficie_km2":"1339.22","latitude_centre":"49.4756","longitude_centre":"4.425","distance_km":10.12},{"id":11797,"code_insee":"08001","nom_standard":"Acy-Romance","nom_a":null,"nom_de":null,"slug_ville":"acy-romance","departement_id":0,"code_postal":"08300","population":479,"superficie_km2":"1105.01","latitude_centre":"49.4915","longitude_centre":"4.3269","distance_km":10.16},{"id":0,"code_insee":"08313","nom_standard":"Nanteuil-sur-Aisne","nom_a":null,"nom_de":null,"slug_ville":"nanteuil-sur-aisne","departement_id":0,"code_postal":"08300","population":150,"superficie_km2":"798.25","latitude_centre":"49.5014","longitude_centre":"4.2976","distance_km":11.69},{"id":0,"code_insee":"51054","nom_standard":"Bétheniville","nom_a":null,"nom_de":null,"slug_ville":"betheniville","departement_id":0,"code_postal":"51490","population":1259,"superficie_km2":"1769.13","latitude_centre":"49.2929","longitude_centre":"4.3672","distance_km":12.12}]}