{"ville":{"id":23325,"code_insee":"51004","nom_standard":"Allemanche-Launay-et-Soyer","nom_a":null,"nom_de":null,"slug_ville":"allemanche-launay-et-soyer","departement_id":0,"code_postal":"51260","population":121,"superficie_km2":"1524.99","latitude_centre":"48.608","longitude_centre":"3.7932","dep_code":"51","dep_nom":"Marne","dep_slug":"marne","reg_code":"44","reg_nom":"Grand Est","reg_slug":"grand-est"},"departement":{"code":"51","nom":"Marne","slug":"marne"},"region":{"code":"44","nom":"Grand Est","slug":"grand-est"},"villes_proches":[{"id":0,"code_insee":"51009","nom_standard":"Anglure","nom_a":null,"nom_de":null,"slug_ville":"anglure","departement_id":0,"code_postal":"51260","population":777,"superficie_km2":"805.76","latitude_centre":"48.5891","longitude_centre":"3.8166","distance_km":2.72},{"id":0,"code_insee":"51041","nom_standard":"Baudement","nom_a":null,"nom_de":null,"slug_ville":"baudement","departement_id":0,"code_postal":"51260","population":98,"superficie_km2":"854.20","latitude_centre":"48.5802","longitude_centre":"3.7721","distance_km":3.46},{"id":0,"code_insee":"51127","nom_standard":"La Chapelle-Lasson","nom_a":null,"nom_de":null,"slug_ville":"la-chapelle-lasson","departement_id":0,"code_postal":"51260","population":85,"superficie_km2":"1502.27","latitude_centre":"48.6341","longitude_centre":"3.8192","distance_km":3.47},{"id":0,"code_insee":"51511","nom_standard":"Saint-Quentin-le-Verger","nom_a":null,"nom_de":null,"slug_ville":"saint-quentin-le-verger","departement_id":0,"code_postal":"51120","population":112,"superficie_km2":"1064.26","latitude_centre":"48.6153","longitude_centre":"3.7413","distance_km":3.9},{"id":0,"code_insee":"51628","nom_standard":"Villeneuve-Saint-Vistre-et-Villevotte","nom_a":null,"nom_de":null,"slug_ville":"villeneuve-saint-vistre-et-villevotte","departement_id":0,"code_postal":"51120","population":120,"superficie_km2":"959.70","latitude_centre":"48.6357","longitude_centre":"3.7598","distance_km":3.94},{"id":0,"code_insee":"51353","nom_standard":"Marsangis","nom_a":null,"nom_de":null,"slug_ville":"marsangis","departement_id":0,"code_postal":"51260","population":45,"superficie_km2":"673.49","latitude_centre":"48.6131","longitude_centre":"3.8498","distance_km":4.2},{"id":0,"code_insee":"51279","nom_standard":"Granges-sur-Aube","nom_a":null,"nom_de":null,"slug_ville":"granges-sur-aube","departement_id":0,"code_postal":"51260","population":180,"superficie_km2":"809.02","latitude_centre":"48.5877","longitude_centre":"3.8602","distance_km":5.42},{"id":0,"code_insee":"51524","nom_standard":"Saron-sur-Aube","nom_a":null,"nom_de":null,"slug_ville":"saron-sur-aube","departement_id":0,"code_postal":"51260","population":268,"superficie_km2":"1647.44","latitude_centre":"48.5842","longitude_centre":"3.7274","distance_km":5.52},{"id":0,"code_insee":"51032","nom_standard":"Bagneux","nom_a":null,"nom_de":null,"slug_ville":"bagneux","departement_id":0,"code_postal":"51260","population":405,"superficie_km2":"1385.53","latitude_centre":"48.5605","longitude_centre":"3.8304","distance_km":5.95},{"id":0,"code_insee":"51451","nom_standard":"Queudes","nom_a":null,"nom_de":null,"slug_ville":"queudes","departement_id":0,"code_postal":"51120","population":79,"superficie_km2":"1008.56","latitude_centre":"48.6582","longitude_centre":"3.7598","distance_km":6.1},{"id":0,"code_insee":"51492","nom_standard":"Saint-Just-Sauvage","nom_a":null,"nom_de":null,"slug_ville":"saint-just-sauvage","departement_id":0,"code_postal":"51260","population":1456,"superficie_km2":"1777.47","latitude_centre":"48.5497","longitude_centre":"3.7689","distance_km":6.72},{"id":0,"code_insee":"51565","nom_standard":"Thaas","nom_a":null,"nom_de":null,"slug_ville":"thaas","departement_id":0,"code_postal":"51230","population":97,"superficie_km2":"1042.61","latitude_centre":"48.641","longitude_centre":"3.871","distance_km":6.79},{"id":0,"code_insee":"51351","nom_standard":"Marigny","nom_a":null,"nom_de":null,"slug_ville":"marigny","departement_id":0,"code_postal":"51230","population":108,"superficie_km2":"1162.20","latitude_centre":"48.659","longitude_centre":"3.8463","distance_km":6.88},{"id":0,"code_insee":"51516","nom_standard":"Saint-Saturnin","nom_a":null,"nom_de":null,"slug_ville":"saint-saturnin","departement_id":0,"code_postal":"51260","population":47,"superficie_km2":"803.07","latitude_centre":"48.6168","longitude_centre":"3.8874","distance_km":6.99},{"id":0,"code_insee":"51652","nom_standard":"Vouarces","nom_a":null,"nom_de":null,"slug_ville":"vouarces","departement_id":0,"code_postal":"51260","population":63,"superficie_km2":"598.77","latitude_centre":"48.5915","longitude_centre":"3.8898","distance_km":7.34},{"id":0,"code_insee":"51265","nom_standard":"Gaye","nom_a":null,"nom_de":null,"slug_ville":"gaye","departement_id":0,"code_postal":"51120","population":564,"superficie_km2":"2125.69","latitude_centre":"48.6788","longitude_centre":"3.8069","distance_km":7.94},{"id":12620,"code_insee":"10144","nom_standard":"Ã‰trelles-sur-Aube","nom_a":null,"nom_de":null,"slug_ville":"etrelles-sur-aube","departement_id":0,"code_postal":"10170","population":158,"superficie_km2":"1054.13","latitude_centre":"48.5602","longitude_centre":"3.876","distance_km":8.08},{"id":0,"code_insee":"51343","nom_standard":"Marcilly-sur-Seine","nom_a":null,"nom_de":null,"slug_ville":"marcilly-sur-seine","departement_id":0,"code_postal":"51260","population":622,"superficie_km2":"999.11","latitude_centre":"48.5575","longitude_centre":"3.7116","distance_km":8.22},{"id":0,"code_insee":"51155","nom_standard":"Clesles","nom_a":null,"nom_de":null,"slug_ville":"clesles","departement_id":0,"code_postal":"51260","population":615,"superficie_km2":"1333.21","latitude_centre":"48.5322","longitude_centre":"3.8261","distance_km":8.77},{"id":0,"code_insee":"51151","nom_standard":"Chichey","nom_a":null,"nom_de":null,"slug_ville":"chichey","departement_id":0,"code_postal":"51120","population":166,"superficie_km2":"718.01","latitude_centre":"48.6854","longitude_centre":"3.7527","distance_km":9.11}]}