{"ville":{"id":12205,"code_insee":"09008","nom_standard":"Alos","nom_a":null,"nom_de":null,"slug_ville":"alos","departement_id":0,"code_postal":"09200","population":116,"superficie_km2":"2384.98","latitude_centre":"42.9013","longitude_centre":"1.1318","dep_code":"09","dep_nom":"Ariège","dep_slug":"ariege","reg_code":"76","reg_nom":"Occitanie","reg_slug":"occitanie"},"departement":{"code":"09","nom":"Ariège","slug":"ariege"},"region":{"code":"76","nom":"Occitanie","slug":"occitanie"},"villes_proches":[{"id":0,"code_insee":"09291","nom_standard":"Sentenac-d'Oust","nom_a":null,"nom_de":null,"slug_ville":"sentenac-d-oust","departement_id":0,"code_postal":"09140","population":110,"superficie_km2":"1859.95","latitude_centre":"42.8662","longitude_centre":"1.1378","distance_km":3.93},{"id":0,"code_insee":"09214","nom_standard":"Moulis","nom_a":null,"nom_de":null,"slug_ville":"moulis","departement_id":0,"code_postal":"09200","population":794,"superficie_km2":"3674.93","latitude_centre":"42.9348","longitude_centre":"1.0957","distance_km":4.75},{"id":0,"code_insee":"09149","nom_standard":"Lacourt","nom_a":null,"nom_de":null,"slug_ville":"lacourt","departement_id":0,"code_postal":"09200","population":205,"superficie_km2":"1656.01","latitude_centre":"42.9317","longitude_centre":"1.1767","distance_km":4.98},{"id":0,"code_insee":"09299","nom_standard":"Soueix-Rogalle","nom_a":null,"nom_de":null,"slug_ville":"soueix-rogalle","departement_id":0,"code_postal":"09140","population":421,"superficie_km2":"1378.96","latitude_centre":"42.8958","longitude_centre":"1.1929","distance_km":5.01},{"id":0,"code_insee":"09119","nom_standard":"Eycheil","nom_a":null,"nom_de":null,"slug_ville":"eycheil","departement_id":0,"code_postal":"09200","population":522,"superficie_km2":"489.28","latitude_centre":"42.9534","longitude_centre":"1.1574","distance_km":6.16},{"id":0,"code_insee":"09085","nom_standard":"Castillon-en-Couserans","nom_a":null,"nom_de":null,"slug_ville":"castillon-en-couserans","departement_id":0,"code_postal":"09800","population":428,"superficie_km2":"499.93","latitude_centre":"42.9177","longitude_centre":"1.058","distance_km":6.28},{"id":0,"code_insee":"09114","nom_standard":"Erp","nom_a":null,"nom_de":null,"slug_ville":"erp","departement_id":0,"code_postal":"09200","population":142,"superficie_km2":"946.47","latitude_centre":"42.9317","longitude_centre":"1.2027","distance_km":6.69},{"id":0,"code_insee":"09095","nom_standard":"Cescau","nom_a":null,"nom_de":null,"slug_ville":"cescau","departement_id":0,"code_postal":"09800","population":163,"superficie_km2":"538.83","latitude_centre":"42.9303","longitude_centre":"1.0532","distance_km":7.17},{"id":0,"code_insee":"09017","nom_standard":"Arrien-en-Bethmale","nom_a":null,"nom_de":null,"slug_ville":"arrien-en-bethmale","departement_id":0,"code_postal":"09800","population":134,"superficie_km2":"1448.48","latitude_centre":"42.8741","longitude_centre":"1.052","distance_km":7.17},{"id":0,"code_insee":"09111","nom_standard":"Engomer","nom_a":null,"nom_de":null,"slug_ville":"engomer","departement_id":0,"code_postal":"09800","population":315,"superficie_km2":"764.92","latitude_centre":"42.9435","longitude_centre":"1.0641","distance_km":7.24},{"id":0,"code_insee":"09055","nom_standard":"Bethmale","nom_a":null,"nom_de":null,"slug_ville":"bethmale","departement_id":0,"code_postal":"09800","population":108,"superficie_km2":"3181.28","latitude_centre":"42.8459","longitude_centre":"1.0781","distance_km":7.56},{"id":0,"code_insee":"09261","nom_standard":"Saint-Girons","nom_a":null,"nom_de":null,"slug_ville":"saint-girons","departement_id":0,"code_postal":"09200","population":6008,"superficie_km2":"1901.09","latitude_centre":"42.9681","longitude_centre":"1.1591","distance_km":7.75},{"id":0,"code_insee":"09110","nom_standard":"Encourtiech","nom_a":null,"nom_de":null,"slug_ville":"encourtiech","departement_id":0,"code_postal":"09200","population":100,"superficie_km2":"485.54","latitude_centre":"42.9644","longitude_centre":"1.1913","distance_km":8.53},{"id":0,"code_insee":"09301","nom_standard":"Soulan","nom_a":null,"nom_de":null,"slug_ville":"soulan","departement_id":0,"code_postal":"09320","population":400,"superficie_km2":"2390.00","latitude_centre":"42.9056","longitude_centre":"1.2448","distance_km":9.22},{"id":0,"code_insee":"09285","nom_standard":"Seix","nom_a":null,"nom_de":null,"slug_ville":"seix","departement_id":0,"code_postal":"09140","population":762,"superficie_km2":"8720.71","latitude_centre":"42.8179","longitude_centre":"1.1495","distance_km":9.39},{"id":0,"code_insee":"09223","nom_standard":"Oust","nom_a":null,"nom_de":null,"slug_ville":"oust","departement_id":0,"code_postal":"09140","population":583,"superficie_km2":"1912.55","latitude_centre":"42.8598","longitude_centre":"1.2362","distance_km":9.68},{"id":0,"code_insee":"09062","nom_standard":"Bordes-Uchentein","nom_a":null,"nom_de":null,"slug_ville":"bordes-uchentein","departement_id":0,"code_postal":"09800","population":219,"superficie_km2":"5340.70","latitude_centre":"42.8472","longitude_centre":"1.0384","distance_km":9.7},{"id":0,"code_insee":"09201","nom_standard":"Montégut-en-Couserans","nom_a":null,"nom_de":null,"slug_ville":"montegut-en-couserans","departement_id":0,"code_postal":"09200","population":70,"superficie_km2":"628.76","latitude_centre":"42.9844","longitude_centre":"1.0907","distance_km":9.83},{"id":0,"code_insee":"09268","nom_standard":"Saint-Lizier","nom_a":null,"nom_de":null,"slug_ville":"saint-lizier","departement_id":0,"code_postal":"09190","population":1391,"superficie_km2":"907.56","latitude_centre":"42.9997","longitude_centre":"1.1267","distance_km":10.95},{"id":0,"code_insee":"09208","nom_standard":"Montgauch","nom_a":null,"nom_de":null,"slug_ville":"montgauch","departement_id":0,"code_postal":"09160","population":112,"superficie_km2":"906.80","latitude_centre":"42.9922","longitude_centre":"1.0713","distance_km":11.24}]}