{"ville":{"id":30107,"code_insee":"70014","nom_standard":"Amblans-et-Velotte","nom_a":null,"nom_de":null,"slug_ville":"amblans-et-velotte","departement_id":0,"code_postal":"70200","population":386,"superficie_km2":"984.24","latitude_centre":"47.6817","longitude_centre":"6.4198","dep_code":"70","dep_nom":"Haute-Saône","dep_slug":"haute-saone","reg_code":"27","reg_nom":"Bourgogne-Franche-Comté","reg_slug":"bourgogne-franche-comte"},"departement":{"code":"70","nom":"Haute-Saône","slug":"haute-saone"},"region":{"code":"27","nom":"Bourgogne-Franche-Comté","slug":"bourgogne-franche-comte"},"villes_proches":[{"id":0,"code_insee":"70081","nom_standard":"Bouhans-lès-Lure","nom_a":null,"nom_de":null,"slug_ville":"bouhans-les-lure","departement_id":0,"code_postal":"70200","population":267,"superficie_km2":"901.48","latitude_centre":"47.6948","longitude_centre":"6.4293","distance_km":1.62},{"id":0,"code_insee":"70262","nom_standard":"Genevreuille","nom_a":null,"nom_de":null,"slug_ville":"genevreuille","departement_id":0,"code_postal":"70240","population":148,"superficie_km2":"637.19","latitude_centre":"47.677","longitude_centre":"6.3786","distance_km":3.13},{"id":30098,"code_insee":"70004","nom_standard":"Adelans-et-le-Val-de-Bithaine","nom_a":null,"nom_de":null,"slug_ville":"adelans-et-le-val-de-bithaine","departement_id":0,"code_postal":"70200","population":311,"superficie_km2":"1726.91","latitude_centre":"47.7077","longitude_centre":"6.3992","distance_km":3.28},{"id":0,"code_insee":"70581","nom_standard":"Vy-lès-Lure","nom_a":null,"nom_de":null,"slug_ville":"vy-les-lure","departement_id":0,"code_postal":"70200","population":704,"superficie_km2":"1592.47","latitude_centre":"47.6518","longitude_centre":"6.4452","distance_km":3.83},{"id":0,"code_insee":"70321","nom_standard":"Magny-Vernois","nom_a":null,"nom_de":null,"slug_ville":"magny-vernois","departement_id":0,"code_postal":"70200","population":1372,"superficie_km2":"651.64","latitude_centre":"47.668","longitude_centre":"6.4695","distance_km":4.02},{"id":0,"code_insee":"70351","nom_standard":"Mollans","nom_a":null,"nom_de":null,"slug_ville":"mollans","departement_id":0,"code_postal":"70240","population":244,"superficie_km2":"1361.19","latitude_centre":"47.651","longitude_centre":"6.3859","distance_km":4.25},{"id":0,"code_insee":"70186","nom_standard":"La Creuse","nom_a":null,"nom_de":null,"slug_ville":"la-creuse","departement_id":0,"code_postal":"70240","population":73,"superficie_km2":"512.25","latitude_centre":"47.6822","longitude_centre":"6.3498","distance_km":5.24},{"id":0,"code_insee":"70432","nom_standard":"Quers","nom_a":null,"nom_de":null,"slug_ville":"quers","departement_id":0,"code_postal":"70200","population":340,"superficie_km2":"997.29","latitude_centre":"47.7273","longitude_centre":"6.4424","distance_km":5.35},{"id":0,"code_insee":"70195","nom_standard":"Dambenoît-lès-Colombe","nom_a":null,"nom_de":null,"slug_ville":"dambenoit-les-colombe","departement_id":0,"code_postal":"70200","population":272,"superficie_km2":"873.43","latitude_centre":"47.7232","longitude_centre":"6.3828","distance_km":5.38},{"id":0,"code_insee":"70310","nom_standard":"Lure","nom_a":null,"nom_de":null,"slug_ville":"lure","departement_id":0,"code_postal":"70200","population":7877,"superficie_km2":"2466.58","latitude_centre":"47.6817","longitude_centre":"6.4933","distance_km":5.5},{"id":0,"code_insee":"70416","nom_standard":"Pomoy","nom_a":null,"nom_de":null,"slug_ville":"pomoy","departement_id":0,"code_postal":"70240","population":197,"superficie_km2":"756.85","latitude_centre":"47.6587","longitude_centre":"6.349","distance_km":5.89},{"id":0,"code_insee":"70029","nom_standard":"Arpenans","nom_a":null,"nom_de":null,"slug_ville":"arpenans","departement_id":0,"code_postal":"70200","population":245,"superficie_km2":"1204.92","latitude_centre":"47.6228","longitude_centre":"6.4127","distance_km":6.57},{"id":0,"code_insee":"70303","nom_standard":"Liévans","nom_a":null,"nom_de":null,"slug_ville":"lievans","departement_id":0,"code_postal":"70240","population":152,"superficie_km2":"417.17","latitude_centre":"47.6364","longitude_centre":"6.3492","distance_km":7.3},{"id":0,"code_insee":"70577","nom_standard":"Vouhenans","nom_a":null,"nom_de":null,"slug_ville":"vouhenans","departement_id":0,"code_postal":"70200","population":379,"superficie_km2":"838.11","latitude_centre":"47.6419","longitude_centre":"6.4982","distance_km":7.35},{"id":0,"code_insee":"70250","nom_standard":"Franchevelle","nom_a":null,"nom_de":null,"slug_ville":"franchevelle","departement_id":0,"code_postal":"70200","population":491,"superficie_km2":"1038.76","latitude_centre":"47.7433","longitude_centre":"6.4606","distance_km":7.5},{"id":0,"code_insee":"70046","nom_standard":"Les Aynans","nom_a":null,"nom_de":null,"slug_ville":"les-aynans","departement_id":0,"code_postal":"70200","population":356,"superficie_km2":"788.77","latitude_centre":"47.617","longitude_centre":"6.4525","distance_km":7.6},{"id":0,"code_insee":"70364","nom_standard":"Montjustin-et-Velotte","nom_a":null,"nom_de":null,"slug_ville":"montjustin-et-velotte","departement_id":0,"code_postal":"70110","population":122,"superficie_km2":"756.00","latitude_centre":"47.6197","longitude_centre":"6.3742","distance_km":7.69},{"id":0,"code_insee":"70155","nom_standard":"Citers","nom_a":null,"nom_de":null,"slug_ville":"citers","departement_id":0,"code_postal":"70300","population":765,"superficie_km2":"1518.19","latitude_centre":"47.754","longitude_centre":"6.4193","distance_km":8.04},{"id":30100,"code_insee":"70007","nom_standard":"Ailloncourt","nom_a":null,"nom_de":null,"slug_ville":"ailloncourt","departement_id":0,"code_postal":"70300","population":305,"superficie_km2":"944.41","latitude_centre":"47.758","longitude_centre":"6.3949","distance_km":8.69},{"id":0,"code_insee":"70396","nom_standard":"Oricourt","nom_a":null,"nom_de":null,"slug_ville":"oricourt","departement_id":0,"code_postal":"70110","population":31,"superficie_km2":"373.64","latitude_centre":"47.5971","longitude_centre":"6.3951","distance_km":9.59}]}