{"ville":{"id":31597,"code_insee":"76008","nom_standard":"Ancourt","nom_a":null,"nom_de":null,"slug_ville":"ancourt","departement_id":0,"code_postal":"76370","population":618,"superficie_km2":"1239.09","latitude_centre":"49.911","longitude_centre":"1.1835","dep_code":"76","dep_nom":"Seine-Maritime","dep_slug":"seine-maritime","reg_code":"28","reg_nom":"Normandie","reg_slug":"normandie"},"departement":{"code":"76","nom":"Seine-Maritime","slug":"seine-maritime"},"region":{"code":"28","nom":"Normandie","slug":"normandie"},"villes_proches":[{"id":0,"code_insee":"76665","nom_standard":"Sauchay","nom_a":null,"nom_de":null,"slug_ville":"sauchay","departement_id":0,"code_postal":"76630","population":454,"superficie_km2":"572.97","latitude_centre":"49.9179","longitude_centre":"1.2073","distance_km":1.87},{"id":0,"code_insee":"76324","nom_standard":"Grèges","nom_a":null,"nom_de":null,"slug_ville":"greges","departement_id":0,"code_postal":"76370","population":830,"superficie_km2":"319.29","latitude_centre":"49.9234","longitude_centre":"1.1496","distance_km":2.79},{"id":0,"code_insee":"76071","nom_standard":"Bellengreville","nom_a":null,"nom_de":null,"slug_ville":"bellengreville","departement_id":0,"code_postal":"76630","population":467,"superficie_km2":"758.52","latitude_centre":"49.9091","longitude_centre":"1.2294","distance_km":3.29},{"id":0,"code_insee":"76414","nom_standard":"Martin-Église","nom_a":null,"nom_de":null,"slug_ville":"martin-eglise","departement_id":0,"code_postal":"76370","population":1589,"superficie_km2":"964.99","latitude_centre":"49.9105","longitude_centre":"1.1279","distance_km":3.98},{"id":0,"code_insee":"76026","nom_standard":"Arques-la-Bataille","nom_a":null,"nom_de":null,"slug_ville":"arques-la-bataille","departement_id":0,"code_postal":"76880","population":2412,"superficie_km2":"1476.37","latitude_centre":"49.8789","longitude_centre":"1.1539","distance_km":4.15},{"id":0,"code_insee":"76562","nom_standard":"Saint-Aubin-le-Cauf","nom_a":null,"nom_de":null,"slug_ville":"saint-aubin-le-cauf","departement_id":0,"code_postal":"76510","population":843,"superficie_km2":"999.62","latitude_centre":"49.8663","longitude_centre":"1.1723","distance_km":5.03},{"id":0,"code_insee":"76624","nom_standard":"Saint-Nicolas-d'Aliermont","nom_a":null,"nom_de":null,"slug_ville":"saint-nicolas-d-aliermont","departement_id":0,"code_postal":"76510","population":3665,"superficie_km2":"1552.77","latitude_centre":"49.8754","longitude_centre":"1.2412","distance_km":5.72},{"id":0,"code_insee":"76235","nom_standard":"Envermeu","nom_a":null,"nom_de":null,"slug_ville":"envermeu","departement_id":0,"code_postal":"76630","population":1967,"superficie_km2":"1442.47","latitude_centre":"49.898","longitude_centre":"1.2634","distance_km":5.9},{"id":0,"code_insee":"76545","nom_standard":"Rouxmesnil-Bouteilles","nom_a":null,"nom_de":null,"slug_ville":"rouxmesnil-bouteilles","departement_id":0,"code_postal":"76370","population":1798,"superficie_km2":"562.33","latitude_centre":"49.8987","longitude_centre":"1.102","distance_km":5.99},{"id":0,"code_insee":"76413","nom_standard":"Martigny","nom_a":null,"nom_de":null,"slug_ville":"martigny","departement_id":0,"code_postal":"76880","population":405,"superficie_km2":"516.68","latitude_centre":"49.8599","longitude_centre":"1.1475","distance_km":6.24},{"id":0,"code_insee":"76210","nom_standard":"Dampierre-Saint-Nicolas","nom_a":null,"nom_de":null,"slug_ville":"dampierre-saint-nicolas","departement_id":0,"code_postal":"76510","population":444,"superficie_km2":"393.87","latitude_centre":"49.8556","longitude_centre":"1.2053","distance_km":6.36},{"id":0,"code_insee":"76618","nom_standard":"Petit-Caux","nom_a":null,"nom_de":null,"slug_ville":"petit-caux","departement_id":0,"code_postal":"76370","population":9513,"superficie_km2":"9218.98","latitude_centre":"49.9612","longitude_centre":"1.2343","distance_km":6.66},{"id":0,"code_insee":"76217","nom_standard":"Dieppe","nom_a":null,"nom_de":null,"slug_ville":"dieppe","departement_id":0,"code_postal":"76200","population":28496,"superficie_km2":"1181.75","latitude_centre":"49.9199","longitude_centre":"1.0838","distance_km":7.21},{"id":0,"code_insee":"76582","nom_standard":"Saint-Germain-d'Étables","nom_a":null,"nom_de":null,"slug_ville":"saint-germain-d-etables","departement_id":0,"code_postal":"76590","population":240,"superficie_km2":"717.22","latitude_centre":"49.8373","longitude_centre":"1.1861","distance_km":8.2},{"id":0,"code_insee":"76030","nom_standard":"Aubermesnil-Beaumais","nom_a":null,"nom_de":null,"slug_ville":"aubermesnil-beaumais","departement_id":0,"code_postal":"76550","population":520,"superficie_km2":"496.98","latitude_centre":"49.8493","longitude_centre":"1.1208","distance_km":8.2},{"id":0,"code_insee":"76437","nom_standard":"Meulers","nom_a":null,"nom_de":null,"slug_ville":"meulers","departement_id":0,"code_postal":"76510","population":577,"superficie_km2":"673.78","latitude_centre":"49.8409","longitude_centre":"1.2247","distance_km":8.34},{"id":0,"code_insee":"76112","nom_standard":"Le Bois-Robert","nom_a":null,"nom_de":null,"slug_ville":"le-bois-robert","departement_id":0,"code_postal":"76590","population":388,"superficie_km2":"500.69","latitude_centre":"49.8395","longitude_centre":"1.1469","distance_km":8.37},{"id":0,"code_insee":"76590","nom_standard":"Saint-Jacques-d'Aliermont","nom_a":null,"nom_de":null,"slug_ville":"saint-jacques-d-aliermont","departement_id":0,"code_postal":"76510","population":373,"superficie_km2":"780.45","latitude_centre":"49.8478","longitude_centre":"1.2491","distance_km":8.45},{"id":0,"code_insee":"76170","nom_standard":"La Chapelle-du-Bourgay","nom_a":null,"nom_de":null,"slug_ville":"la-chapelle-du-bourgay","departement_id":0,"code_postal":"76590","population":107,"superficie_km2":"305.41","latitude_centre":"49.8244","longitude_centre":"1.1467","distance_km":9.98},{"id":0,"code_insee":"76698","nom_standard":"Torcy-le-Petit","nom_a":null,"nom_de":null,"slug_ville":"torcy-le-petit","departement_id":0,"code_postal":"76590","population":518,"superficie_km2":"370.73","latitude_centre":"49.8166","longitude_centre":"1.1809","distance_km":10.5}]}