{"ville":{"id":33945,"code_insee":"86005","nom_standard":"Angliers","nom_a":null,"nom_de":null,"slug_ville":"angliers","departement_id":0,"code_postal":"86330","population":612,"superficie_km2":"2331.65","latitude_centre":"46.9365","longitude_centre":"0.0992","dep_code":"86","dep_nom":"Vienne","dep_slug":"vienne","reg_code":"75","reg_nom":"Nouvelle-Aquitaine","reg_slug":"nouvelle-aquitaine"},"departement":{"code":"86","nom":"Vienne","slug":"vienne"},"region":{"code":"75","nom":"Nouvelle-Aquitaine","slug":"nouvelle-aquitaine"},"villes_proches":[{"id":0,"code_insee":"86013","nom_standard":"Aulnay","nom_a":null,"nom_de":null,"slug_ville":"aulnay","departement_id":0,"code_postal":"86330","population":107,"superficie_km2":"806.41","latitude_centre":"46.9064","longitude_centre":"0.0944","distance_km":3.37},{"id":0,"code_insee":"86049","nom_standard":"Chalais","nom_a":null,"nom_de":null,"slug_ville":"chalais","departement_id":0,"code_postal":"86200","population":465,"superficie_km2":"1491.45","latitude_centre":"46.9719","longitude_centre":"0.0999","distance_km":3.94},{"id":0,"code_insee":"86149","nom_standard":"Martaizé","nom_a":null,"nom_de":null,"slug_ville":"martaize","departement_id":0,"code_postal":"86330","population":355,"superficie_km2":"1969.66","latitude_centre":"46.92","longitude_centre":"0.0519","distance_km":4.03},{"id":0,"code_insee":"86109","nom_standard":"Guesnes","nom_a":null,"nom_de":null,"slug_ville":"guesnes","departement_id":0,"code_postal":"86420","population":239,"superficie_km2":"1340.95","latitude_centre":"46.906","longitude_centre":"0.1505","distance_km":5.17},{"id":0,"code_insee":"86069","nom_standard":"La Chaussée","nom_a":null,"nom_de":null,"slug_ville":"la-chaussee","departement_id":0,"code_postal":"86330","population":189,"superficie_km2":"1360.09","latitude_centre":"46.8849","longitude_centre":"0.107","distance_km":5.77},{"id":0,"code_insee":"86079","nom_standard":"La Roche-Rigault","nom_a":null,"nom_de":null,"slug_ville":"la-roche-rigault","departement_id":0,"code_postal":"86200","population":565,"superficie_km2":"2570.86","latitude_centre":"46.9674","longitude_centre":"0.1709","distance_km":6.44},{"id":0,"code_insee":"86173","nom_standard":"Mouterre-Silly","nom_a":null,"nom_de":null,"slug_ville":"mouterre-silly","departement_id":0,"code_postal":"86200","population":602,"superficie_km2":"3107.35","latitude_centre":"46.9837","longitude_centre":"0.0355","distance_km":7.14},{"id":0,"code_insee":"86218","nom_standard":"Saint-Clair","nom_a":null,"nom_de":null,"slug_ville":"saint-clair","departement_id":0,"code_postal":"86330","population":209,"superficie_km2":"1077.00","latitude_centre":"46.878","longitude_centre":"0.0546","distance_km":7.33},{"id":0,"code_insee":"86167","nom_standard":"Monts-sur-Guesnes","nom_a":null,"nom_de":null,"slug_ville":"monts-sur-guesnes","departement_id":0,"code_postal":"86420","population":921,"superficie_km2":"1134.43","latitude_centre":"46.9108","longitude_centre":"0.1929","distance_km":7.67},{"id":0,"code_insee":"86008","nom_standard":"Arçay","nom_a":null,"nom_de":null,"slug_ville":"arcay","departement_id":0,"code_postal":"86200","population":343,"superficie_km2":"1419.66","latitude_centre":"46.9544","longitude_centre":"0.0012","distance_km":7.7},{"id":0,"code_insee":"86093","nom_standard":"Dercé","nom_a":null,"nom_de":null,"slug_ville":"derce","departement_id":0,"code_postal":"86420","population":162,"superficie_km2":"1234.75","latitude_centre":"46.9416","longitude_centre":"0.2076","distance_km":8.25},{"id":0,"code_insee":"86137","nom_standard":"Loudun","nom_a":null,"nom_de":null,"slug_ville":"loudun","departement_id":0,"code_postal":"86200","population":6839,"superficie_km2":"4398.62","latitude_centre":"47.0116","longitude_centre":"0.1048","distance_km":8.36},{"id":0,"code_insee":"86151","nom_standard":"Maulay","nom_a":null,"nom_de":null,"slug_ville":"maulay","departement_id":0,"code_postal":"86200","population":194,"superficie_km2":"2304.32","latitude_centre":"46.9668","longitude_centre":"0.2052","distance_km":8.72},{"id":0,"code_insee":"86156","nom_standard":"Messemé","nom_a":null,"nom_de":null,"slug_ville":"messeme","departement_id":0,"code_postal":"86200","population":243,"superficie_km2":"985.40","latitude_centre":"47.0098","longitude_centre":"0.1637","distance_km":9.51},{"id":0,"code_insee":"86227","nom_standard":"Saint-Laon","nom_a":null,"nom_de":null,"slug_ville":"saint-laon","departement_id":0,"code_postal":"86200","population":136,"superficie_km2":"1193.27","latitude_centre":"46.9657","longitude_centre":"-0.0195","distance_km":9.58},{"id":0,"code_insee":"86161","nom_standard":"Moncontour","nom_a":null,"nom_de":null,"slug_ville":"moncontour","departement_id":0,"code_postal":"86330","population":976,"superficie_km2":"4141.83","latitude_centre":"46.8768","longitude_centre":"0.0033","distance_km":9.86},{"id":0,"code_insee":"86286","nom_standard":"Verrue","nom_a":null,"nom_de":null,"slug_ville":"verrue","departement_id":0,"code_postal":"86420","population":379,"superficie_km2":"2857.50","latitude_centre":"46.8673","longitude_centre":"0.1817","distance_km":9.92},{"id":0,"code_insee":"86106","nom_standard":"Glénouze","nom_a":null,"nom_de":null,"slug_ville":"glenouze","departement_id":0,"code_postal":"86200","population":106,"superficie_km2":"966.57","latitude_centre":"47.0069","longitude_centre":"-0.0003","distance_km":10.88},{"id":0,"code_insee":"86225","nom_standard":"Saint-Jean-de-Sauves","nom_a":null,"nom_de":null,"slug_ville":"saint-jean-de-sauves","departement_id":0,"code_postal":"86330","population":1281,"superficie_km2":"5665.79","latitude_centre":"46.8386","longitude_centre":"0.0847","distance_km":10.94},{"id":0,"code_insee":"86018","nom_standard":"Basses","nom_a":null,"nom_de":null,"slug_ville":"basses","departement_id":0,"code_postal":"86200","population":344,"superficie_km2":"1028.23","latitude_centre":"47.0442","longitude_centre":"0.1266","distance_km":12.15}]}