{"ville":{"id":6028,"code_insee":"60017","nom_standard":"Ansauvillers","nom_a":null,"nom_de":null,"slug_ville":"ansauvillers","departement_id":661,"code_postal":"60120","population":1163,"superficie_km2":"7.00","latitude_centre":"49.5670013","longitude_centre":"2.3859999","dep_code":"60","dep_nom":"Oise","dep_slug":"oise","reg_code":"09","reg_nom":"Hauts-de-France","reg_slug":"hauts-de-france"},"departement":{"code":"60","nom":"Oise","slug":"oise"},"region":{"code":"09","nom":"Hauts-de-France","slug":"hauts-de-france"},"villes_proches":[{"id":6186,"code_insee":"60701","nom_standard":"Wavignies","nom_a":null,"nom_de":null,"slug_ville":"wavignies","departement_id":661,"code_postal":"60130","population":1330,"superficie_km2":"10.00","latitude_centre":"49.5470009","longitude_centre":"2.3599999","distance_km":2.91},{"id":6150,"code_insee":"60581","nom_standard":"Saint-Just-en-Chaussée","nom_a":null,"nom_de":null,"slug_ville":"saint-just-en-chaussee","departement_id":661,"code_postal":"60130","population":6060,"superficie_km2":"15.00","latitude_centre":"49.5110016","longitude_centre":"2.4180000","distance_km":6.64},{"id":6104,"code_insee":"60374","nom_standard":"Maignelay-Montigny","nom_a":null,"nom_de":null,"slug_ville":"maignelay-montigny","departement_id":661,"code_postal":"60420","population":2555,"superficie_km2":"19.00","latitude_centre":"49.5480003","longitude_centre":"2.5130000","distance_km":9.4},{"id":6138,"code_insee":"60526","nom_standard":"Ravenel","nom_a":null,"nom_de":null,"slug_ville":"ravenel","departement_id":661,"code_postal":"60130","population":1054,"superficie_km2":"11.00","latitude_centre":"49.5139999","longitude_centre":"2.4990001","distance_km":10.06},{"id":6044,"code_insee":"60104","nom_standard":"Breteuil","nom_a":null,"nom_de":null,"slug_ville":"breteuil","departement_id":661,"code_postal":"60120","population":4156,"superficie_km2":"17.00","latitude_centre":"49.6339989","longitude_centre":"2.2920001","distance_km":10.07},{"id":6031,"code_insee":"60034","nom_standard":"Avrechy","nom_a":null,"nom_de":null,"slug_ville":"avrechy","departement_id":661,"code_postal":"60130","population":1162,"superficie_km2":"13.00","latitude_centre":"49.4449997","longitude_centre":"2.4240000","distance_km":13.84},{"id":6170,"code_insee":"60643","nom_standard":"Tricot","nom_a":null,"nom_de":null,"slug_ville":"tricot","departement_id":661,"code_postal":"60420","population":1365,"superficie_km2":"12.00","latitude_centre":"49.5629997","longitude_centre":"2.5850000","distance_km":14.36},{"id":8601,"code_insee":"80561","nom_standard":"Montdidier","nom_a":null,"nom_de":null,"slug_ville":"montdidier","departement_id":681,"code_postal":"80500","population":6009,"superficie_km2":"13.00","latitude_centre":"49.6479988","longitude_centre":"2.5690000","distance_km":15.97},{"id":6079,"code_insee":"60234","nom_standard":"Fitz-James","nom_a":null,"nom_de":null,"slug_ville":"fitz-james","departement_id":661,"code_postal":"60600","population":2578,"superficie_km2":"10.00","latitude_centre":"49.3989983","longitude_centre":"2.4289999","distance_km":18.94},{"id":6022,"code_insee":"60007","nom_standard":"Agnetz","nom_a":null,"nom_de":null,"slug_ville":"agnetz","departement_id":661,"code_postal":"60600","population":3055,"superficie_km2":"13.00","latitude_centre":"49.3959999","longitude_centre":"2.3820000","distance_km":19.02},{"id":8611,"code_insee":"80625","nom_standard":"Trois-Rivières","nom_a":null,"nom_de":null,"slug_ville":"trois-rivieres","departement_id":681,"code_postal":"80500","population":1495,"superficie_km2":"4.00","latitude_centre":"49.7070007","longitude_centre":"2.5510001","distance_km":19.58},{"id":6043,"code_insee":"60103","nom_standard":"Bresles","nom_a":null,"nom_de":null,"slug_ville":"bresles","departement_id":661,"code_postal":"60510","population":3993,"superficie_km2":"21.00","latitude_centre":"49.4140015","longitude_centre":"2.2500000","distance_km":19.65},{"id":8548,"code_insee":"80010","nom_standard":"Ailly-sur-Noye","nom_a":null,"nom_de":null,"slug_ville":"ailly-sur-noye","departement_id":681,"code_postal":"80250","population":2724,"superficie_km2":"25.00","latitude_centre":"49.7470017","longitude_centre":"2.3469999","distance_km":20.21},{"id":6098,"code_insee":"60355","nom_standard":"Laversines","nom_a":null,"nom_de":null,"slug_ville":"laversines","departement_id":661,"code_postal":"60510","population":1151,"superficie_km2":"14.00","latitude_centre":"49.4300003","longitude_centre":"2.2010000","distance_km":20.26},{"id":6065,"code_insee":"60157","nom_standard":"Clermont","nom_a":null,"nom_de":null,"slug_ville":"clermont","departement_id":661,"code_postal":"60600","population":10475,"superficie_km2":"6.00","latitude_centre":"49.3779984","longitude_centre":"2.4089999","distance_km":21.08},{"id":6045,"code_insee":"60106","nom_standard":"Breuil-le-Sec","nom_a":null,"nom_de":null,"slug_ville":"breuil-le-sec","departement_id":661,"code_postal":"60840","population":2586,"superficie_km2":"9.00","latitude_centre":"49.3779984","longitude_centre":"2.4560001","distance_km":21.62},{"id":6124,"code_insee":"60464","nom_standard":"Nointel","nom_a":null,"nom_de":null,"slug_ville":"nointel","departement_id":661,"code_postal":"60840","population":1138,"superficie_km2":"9.00","latitude_centre":"49.3829994","longitude_centre":"2.4879999","distance_km":21.75},{"id":6071,"code_insee":"60178","nom_standard":"Crèvecœur-le-Grand","nom_a":null,"nom_de":null,"slug_ville":"crevecoeur-le-grand","departement_id":661,"code_postal":"60360","population":3462,"superficie_km2":"12.00","latitude_centre":"49.6119995","longitude_centre":"2.0850000","distance_km":22.27},{"id":6167,"code_insee":"60639","nom_standard":"Tillé","nom_a":null,"nom_de":null,"slug_ville":"tille","departement_id":661,"code_postal":"60000","population":1272,"superficie_km2":"15.00","latitude_centre":"49.4640007","longitude_centre":"2.1180000","distance_km":22.48},{"id":6046,"code_insee":"60107","nom_standard":"Breuil-le-Vert","nom_a":null,"nom_de":null,"slug_ville":"breuil-le-vert","departement_id":661,"code_postal":"60600","population":3139,"superficie_km2":"7.00","latitude_centre":"49.3619995","longitude_centre":"2.4260001","distance_km":22.98}]}