{"ville":{"id":16644,"code_insee":"25018","nom_standard":"Anteuil","nom_a":null,"nom_de":null,"slug_ville":"anteuil","departement_id":0,"code_postal":"25340","population":602,"superficie_km2":"2420.19","latitude_centre":"47.3769","longitude_centre":"6.5781","dep_code":"25","dep_nom":"Doubs","dep_slug":"doubs","reg_code":"27","reg_nom":"Bourgogne-Franche-Comté","reg_slug":"bourgogne-franche-comte"},"departement":{"code":"25","nom":"Doubs","slug":"doubs"},"region":{"code":"27","nom":"Bourgogne-Franche-Comté","slug":"bourgogne-franche-comte"},"villes_proches":[{"id":0,"code_insee":"25595","nom_standard":"Vellerot-lès-Belvoir","nom_a":null,"nom_de":null,"slug_ville":"vellerot-les-belvoir","departement_id":0,"code_postal":"25430","population":95,"superficie_km2":"606.43","latitude_centre":"47.3474","longitude_centre":"6.5887","distance_km":3.38},{"id":0,"code_insee":"25516","nom_standard":"Saint-Georges-Armont","nom_a":null,"nom_de":null,"slug_ville":"saint-georges-armont","departement_id":0,"code_postal":"25340","population":122,"superficie_km2":"472.65","latitude_centre":"47.404","longitude_centre":"6.547","distance_km":3.82},{"id":0,"code_insee":"25327","nom_standard":"Lanthenans","nom_a":null,"nom_de":null,"slug_ville":"lanthenans","departement_id":0,"code_postal":"25250","population":68,"superficie_km2":"332.28","latitude_centre":"47.3915","longitude_centre":"6.6257","distance_km":3.93},{"id":0,"code_insee":"25436","nom_standard":"Orve","nom_a":null,"nom_de":null,"slug_ville":"orve","departement_id":0,"code_postal":"25430","population":59,"superficie_km2":"559.94","latitude_centre":"47.338","longitude_centre":"6.5589","distance_km":4.56},{"id":0,"code_insee":"25067","nom_standard":"Blussans","nom_a":null,"nom_de":null,"slug_ville":"blussans","departement_id":0,"code_postal":"25250","population":187,"superficie_km2":"818.40","latitude_centre":"47.4123","longitude_centre":"6.6104","distance_km":4.63},{"id":0,"code_insee":"25311","nom_standard":"Hyémondans","nom_a":null,"nom_de":null,"slug_ville":"hyemondans","departement_id":0,"code_postal":"25250","population":191,"superficie_km2":"691.22","latitude_centre":"47.3816","longitude_centre":"6.6422","distance_km":4.85},{"id":0,"code_insee":"25635","nom_standard":"Vyt-lès-Belvoir","nom_a":null,"nom_de":null,"slug_ville":"vyt-les-belvoir","departement_id":0,"code_postal":"25430","population":179,"superficie_km2":"755.87","latitude_centre":"47.3483","longitude_centre":"6.6281","distance_km":4.93},{"id":0,"code_insee":"25479","nom_standard":"Rang","nom_a":null,"nom_de":null,"slug_ville":"rang","departement_id":0,"code_postal":"25250","population":389,"superficie_km2":"1042.93","latitude_centre":"47.4192","longitude_centre":"6.557","distance_km":4.96},{"id":0,"code_insee":"25177","nom_standard":"Crosey-le-Grand","nom_a":null,"nom_de":null,"slug_ville":"crosey-le-grand","departement_id":0,"code_postal":"25340","population":158,"superficie_km2":"1029.24","latitude_centre":"47.344","longitude_centre":"6.5315","distance_km":5.07},{"id":0,"code_insee":"25315","nom_standard":"L'Isle-sur-le-Doubs","nom_a":null,"nom_de":null,"slug_ville":"l-isle-sur-le-doubs","departement_id":0,"code_postal":"25250","population":2780,"superficie_km2":"1076.10","latitude_centre":"47.4242","longitude_centre":"6.5912","distance_km":5.35},{"id":0,"code_insee":"25476","nom_standard":"Rahon","nom_a":null,"nom_de":null,"slug_ville":"rahon","departement_id":0,"code_postal":"25430","population":140,"superficie_km2":"571.20","latitude_centre":"47.3266","longitude_centre":"6.5838","distance_km":5.61},{"id":0,"code_insee":"25145","nom_standard":"Chazot","nom_a":null,"nom_de":null,"slug_ville":"chazot","departement_id":0,"code_postal":"25430","population":117,"superficie_km2":"526.00","latitude_centre":"47.3333","longitude_centre":"6.5354","distance_km":5.82},{"id":0,"code_insee":"25156","nom_standard":"Pays-de-Clerval","nom_a":null,"nom_de":null,"slug_ville":"pays-de-clerval","departement_id":0,"code_postal":"25340","population":1174,"superficie_km2":"2254.95","latitude_centre":"47.3875","longitude_centre":"6.5021","distance_km":5.84},{"id":0,"code_insee":"25552","nom_standard":"Sourans","nom_a":null,"nom_de":null,"slug_ville":"sourans","departement_id":0,"code_postal":"25250","population":113,"superficie_km2":"419.83","latitude_centre":"47.4107","longitude_centre":"6.6399","distance_km":5.98},{"id":0,"code_insee":"25461","nom_standard":"Pompierre-sur-Doubs","nom_a":null,"nom_de":null,"slug_ville":"pompierre-sur-doubs","departement_id":0,"code_postal":"25340","population":300,"superficie_km2":"817.16","latitude_centre":"47.4265","longitude_centre":"6.5275","distance_km":6.7},{"id":0,"code_insee":"25053","nom_standard":"Belvoir","nom_a":null,"nom_de":null,"slug_ville":"belvoir","departement_id":0,"code_postal":"25430","population":95,"superficie_km2":"928.41","latitude_centre":"47.3182","longitude_centre":"6.6152","distance_km":7.1},{"id":0,"code_insee":"25066","nom_standard":"Blussangeaux","nom_a":null,"nom_de":null,"slug_ville":"blussangeaux","departement_id":0,"code_postal":"25250","population":75,"superficie_km2":"216.93","latitude_centre":"47.4374","longitude_centre":"6.6176","distance_km":7.35},{"id":0,"code_insee":"25470","nom_standard":"La Prétière","nom_a":null,"nom_de":null,"slug_ville":"la-pretiere","departement_id":0,"code_postal":"25250","population":159,"superficie_km2":"273.79","latitude_centre":"47.4494","longitude_centre":"6.6108","distance_km":8.43},{"id":0,"code_insee":"25019","nom_standard":"Appenans","nom_a":null,"nom_de":null,"slug_ville":"appenans","departement_id":0,"code_postal":"25250","population":385,"superficie_km2":"412.34","latitude_centre":"47.4549","longitude_centre":"6.568","distance_km":8.71},{"id":0,"code_insee":"25529","nom_standard":"Sancey","nom_a":null,"nom_de":null,"slug_ville":"sancey","departement_id":0,"code_postal":"25430","population":1385,"superficie_km2":"3042.68","latitude_centre":"47.2942","longitude_centre":"6.5758","distance_km":9.2}]}