{"ville":{"id":21634,"code_insee":"42006","nom_standard":"Apinac","nom_a":null,"nom_de":null,"slug_ville":"apinac","departement_id":0,"code_postal":"42550","population":437,"superficie_km2":"1553.21","latitude_centre":"45.3935","longitude_centre":"3.9939","dep_code":"42","dep_nom":"Loire","dep_slug":"loire","reg_code":"84","reg_nom":"Auvergne-Rhône-Alpes","reg_slug":"auvergne-rhone-alpes"},"departement":{"code":"42","nom":"Loire","slug":"loire"},"region":{"code":"84","nom":"Auvergne-Rhône-Alpes","slug":"auvergne-rhone-alpes"},"villes_proches":[{"id":0,"code_insee":"42142","nom_standard":"Merle-Leignec","nom_a":null,"nom_de":null,"slug_ville":"merle-leignec","departement_id":0,"code_postal":"42380","population":324,"superficie_km2":"1646.72","latitude_centre":"45.3678","longitude_centre":"4.028","distance_km":3.91},{"id":0,"code_insee":"42318","nom_standard":"Usson-en-Forez","nom_a":null,"nom_de":null,"slug_ville":"usson-en-forez","departement_id":0,"code_postal":"42550","population":1455,"superficie_km2":"4731.68","latitude_centre":"45.3847","longitude_centre":"3.937","distance_km":4.55},{"id":0,"code_insee":"42091","nom_standard":"Estivareilles","nom_a":null,"nom_de":null,"slug_ville":"estivareilles","departement_id":0,"code_postal":"42380","population":721,"superficie_km2":"2274.04","latitude_centre":"45.4345","longitude_centre":"4.0068","distance_km":4.67},{"id":0,"code_insee":"43212","nom_standard":"Saint-Pal-de-Chalencon","nom_a":null,"nom_de":null,"slug_ville":"saint-pal-de-chalencon","departement_id":0,"code_postal":"43500","population":1038,"superficie_km2":"2909.36","latitude_centre":"45.3464","longitude_centre":"3.9642","distance_km":5.73},{"id":0,"code_insee":"42235","nom_standard":"Saint-Hilaire-Cusson-la-Valmitte","nom_a":null,"nom_de":null,"slug_ville":"saint-hilaire-cusson-la-valmitte","departement_id":0,"code_postal":"42380","population":340,"superficie_km2":"1864.29","latitude_centre":"45.3684","longitude_centre":"4.0628","distance_km":6.06},{"id":0,"code_insee":"42204","nom_standard":"Saint-Bonnet-le-Château","nom_a":null,"nom_de":null,"slug_ville":"saint-bonnet-le-chateau","departement_id":0,"code_postal":"42380","population":1459,"superficie_km2":"187.61","latitude_centre":"45.4252","longitude_centre":"4.0646","distance_km":6.55},{"id":0,"code_insee":"42266","nom_standard":"Saint-Nizier-de-Fornas","nom_a":null,"nom_de":null,"slug_ville":"saint-nizier-de-fornas","departement_id":0,"code_postal":"42380","population":655,"superficie_km2":"1596.66","latitude_centre":"45.4066","longitude_centre":"4.081","distance_km":6.95},{"id":0,"code_insee":"42146","nom_standard":"Montarcher","nom_a":null,"nom_de":null,"slug_ville":"montarcher","departement_id":0,"code_postal":"42380","population":63,"superficie_km2":"587.38","latitude_centre":"45.4593","longitude_centre":"3.9901","distance_km":7.32},{"id":0,"code_insee":"42050","nom_standard":"La Chapelle-en-Lafaye","nom_a":null,"nom_de":null,"slug_ville":"la-chapelle-en-lafaye","departement_id":0,"code_postal":"42380","population":138,"superficie_km2":"916.34","latitude_centre":"45.4609","longitude_centre":"3.9859","distance_km":7.52},{"id":0,"code_insee":"42312","nom_standard":"La Tourette","nom_a":null,"nom_de":null,"slug_ville":"la-tourette","departement_id":0,"code_postal":"42380","population":642,"superficie_km2":"569.42","latitude_centre":"45.4225","longitude_centre":"4.0846","distance_km":7.78},{"id":0,"code_insee":"63309","nom_standard":"Saillant","nom_a":null,"nom_de":null,"slug_ville":"saillant","departement_id":0,"code_postal":"63840","population":315,"superficie_km2":"1743.26","latitude_centre":"45.4488","longitude_centre":"3.9299","distance_km":7.92},{"id":0,"code_insee":"43034","nom_standard":"Boisset","nom_a":null,"nom_de":null,"slug_ville":"boisset","departement_id":0,"code_postal":"43500","population":394,"superficie_km2":"1419.17","latitude_centre":"45.3117","longitude_centre":"3.9817","distance_km":9.15},{"id":0,"code_insee":"42126","nom_standard":"Luriecq","nom_a":null,"nom_de":null,"slug_ville":"luriecq","departement_id":0,"code_postal":"42380","population":1238,"superficie_km2":"2035.62","latitude_centre":"45.4546","longitude_centre":"4.0724","distance_km":9.15},{"id":0,"code_insee":"63104","nom_standard":"La Chaulme","nom_a":null,"nom_de":null,"slug_ville":"la-chaulme","departement_id":0,"code_postal":"63660","population":118,"superficie_km2":"1354.65","latitude_centre":"45.472","longitude_centre":"3.9556","distance_km":9.23},{"id":0,"code_insee":"43249","nom_standard":"Valprivas","nom_a":null,"nom_de":null,"slug_ville":"valprivas","departement_id":0,"code_postal":"43210","population":553,"superficie_km2":"2239.24","latitude_centre":"45.3209","longitude_centre":"4.0511","distance_km":9.23},{"id":0,"code_insee":"42140","nom_standard":"Marols","nom_a":null,"nom_de":null,"slug_ville":"marols","departement_id":0,"code_postal":"42560","population":462,"superficie_km2":"1494.00","latitude_centre":"45.4726","longitude_centre":"4.0372","distance_km":9.42},{"id":0,"code_insee":"63465","nom_standard":"Viverols","nom_a":null,"nom_de":null,"slug_ville":"viverols","departement_id":0,"code_postal":"63840","population":442,"superficie_km2":"1256.20","latitude_centre":"45.431","longitude_centre":"3.8793","distance_km":9.87},{"id":0,"code_insee":"43201","nom_standard":"Saint-Julien-d'Ance","nom_a":null,"nom_de":null,"slug_ville":"saint-julien-d-ance","departement_id":0,"code_postal":"43500","population":245,"superficie_km2":"1801.46","latitude_centre":"45.306","longitude_centre":"3.9302","distance_km":10.93},{"id":0,"code_insee":"43246","nom_standard":"Tiranges","nom_a":null,"nom_de":null,"slug_ville":"tiranges","departement_id":0,"code_postal":"43530","population":453,"superficie_km2":"2699.43","latitude_centre":"45.2875","longitude_centre":"4.0154","distance_km":11.91},{"id":0,"code_insee":"42240","nom_standard":"Saint-Jean-Soleymieux","nom_a":null,"nom_de":null,"slug_ville":"saint-jean-soleymieux","departement_id":0,"code_postal":"42560","population":840,"superficie_km2":"1656.86","latitude_centre":"45.5061","longitude_centre":"4.0098","distance_km":12.58}]}