{"ville":{"id":29773,"code_insee":"68008","nom_standard":"Appenwihr","nom_a":null,"nom_de":null,"slug_ville":"appenwihr","departement_id":0,"code_postal":"68280","population":586,"superficie_km2":"772.00","latitude_centre":"48.026","longitude_centre":"7.4522","dep_code":"68","dep_nom":"Haut-Rhin","dep_slug":"haut-rhin","reg_code":"44","reg_nom":"Grand Est","reg_slug":"grand-est"},"departement":{"code":"68","nom":"Haut-Rhin","slug":"haut-rhin"},"region":{"code":"44","nom":"Grand Est","slug":"grand-est"},"villes_proches":[{"id":0,"code_insee":"68136","nom_standard":"Hettenschlag","nom_a":null,"nom_de":null,"slug_ville":"hettenschlag","departement_id":0,"code_postal":"68600","population":357,"superficie_km2":"769.20","latitude_centre":"48.0073","longitude_centre":"7.4572","distance_km":2.11},{"id":0,"code_insee":"68189","nom_standard":"Logelheim","nom_a":null,"nom_de":null,"slug_ville":"logelheim","departement_id":0,"code_postal":"68280","population":950,"superficie_km2":"434.58","latitude_centre":"48.0221","longitude_centre":"7.419","distance_km":2.51},{"id":0,"code_insee":"68331","nom_standard":"Sundhoffen","nom_a":null,"nom_de":null,"slug_ville":"sundhoffen","departement_id":0,"code_postal":"68280","population":1993,"superficie_km2":"1278.75","latitude_centre":"48.045","longitude_centre":"7.4218","distance_km":3.09},{"id":0,"code_insee":"68379","nom_standard":"Wolfgantzen","nom_a":null,"nom_de":null,"slug_ville":"wolfgantzen","departement_id":0,"code_postal":"68600","population":1190,"superficie_km2":"936.51","latitude_centre":"48.0291","longitude_centre":"7.4953","distance_km":3.22},{"id":0,"code_insee":"68360","nom_standard":"Weckolsheim","nom_a":null,"nom_de":null,"slug_ville":"weckolsheim","departement_id":0,"code_postal":"68600","population":742,"superficie_km2":"695.77","latitude_centre":"48.0037","longitude_centre":"7.4915","distance_km":3.83},{"id":0,"code_insee":"68295","nom_standard":"Sainte-Croix-en-Plaine","nom_a":null,"nom_de":null,"slug_ville":"sainte-croix-en-plaine","departement_id":0,"code_postal":"68127","population":3004,"superficie_km2":"2582.46","latitude_centre":"48.0092","longitude_centre":"7.405","distance_km":3.98},{"id":0,"code_insee":"68367","nom_standard":"Widensolen","nom_a":null,"nom_de":null,"slug_ville":"widensolen","departement_id":0,"code_postal":"68320","population":1215,"superficie_km2":"1066.04","latitude_centre":"48.0583","longitude_centre":"7.4832","distance_km":4.27},{"id":0,"code_insee":"68007","nom_standard":"Andolsheim","nom_a":null,"nom_de":null,"slug_ville":"andolsheim","departement_id":0,"code_postal":"68280","population":2199,"superficie_km2":"1157.18","latitude_centre":"48.0645","longitude_centre":"7.4389","distance_km":4.39},{"id":0,"code_insee":"68235","nom_standard":"Niederhergheim","nom_a":null,"nom_de":null,"slug_ville":"niederhergheim","departement_id":0,"code_postal":"68127","population":1176,"superficie_km2":"1240.39","latitude_centre":"47.9955","longitude_centre":"7.3948","distance_km":5.45},{"id":0,"code_insee":"68231","nom_standard":"Neuf-Brisach","nom_a":null,"nom_de":null,"slug_ville":"neuf-brisach","departement_id":0,"code_postal":"68600","population":1895,"superficie_km2":"127.40","latitude_centre":"48.0176","longitude_centre":"7.5277","distance_km":5.69},{"id":0,"code_insee":"68095","nom_standard":"Fortschwihr","nom_a":null,"nom_de":null,"slug_ville":"fortschwihr","departement_id":0,"code_postal":"68320","population":1198,"superficie_km2":"478.48","latitude_centre":"48.0822","longitude_centre":"7.4508","distance_km":6.25},{"id":0,"code_insee":"68069","nom_standard":"Dessenheim","nom_a":null,"nom_de":null,"slug_ville":"dessenheim","departement_id":0,"code_postal":"68600","population":1442,"superficie_km2":"1911.12","latitude_centre":"47.9714","longitude_centre":"7.4832","distance_km":6.49},{"id":0,"code_insee":"68345","nom_standard":"Urschenheim","nom_a":null,"nom_de":null,"slug_ville":"urschenheim","departement_id":0,"code_postal":"68320","population":808,"superficie_km2":"639.71","latitude_centre":"48.0808","longitude_centre":"7.4925","distance_km":6.79},{"id":0,"code_insee":"68036","nom_standard":"Biesheim","nom_a":null,"nom_de":null,"slug_ville":"biesheim","departement_id":0,"code_postal":"68600","population":2499,"superficie_km2":"1648.98","latitude_centre":"48.0471","longitude_centre":"7.5395","distance_km":6.9},{"id":0,"code_insee":"68145","nom_standard":"Horbourg-Wihr","nom_a":null,"nom_de":null,"slug_ville":"horbourg-wihr","departement_id":0,"code_postal":"68180","population":6199,"superficie_km2":"944.21","latitude_centre":"48.0827","longitude_centre":"7.407","distance_km":7.14},{"id":0,"code_insee":"68038","nom_standard":"Bischwihr","nom_a":null,"nom_de":null,"slug_ville":"bischwihr","departement_id":0,"code_postal":"68320","population":1202,"superficie_km2":"325.36","latitude_centre":"48.0929","longitude_centre":"7.4313","distance_km":7.6},{"id":0,"code_insee":"68242","nom_standard":"Oberhergheim","nom_a":null,"nom_de":null,"slug_ville":"oberhergheim","departement_id":0,"code_postal":"68127","population":1315,"superficie_km2":"1991.35","latitude_centre":"47.9681","longitude_centre":"7.3924","distance_km":7.83},{"id":0,"code_insee":"68227","nom_standard":"Muntzenheim","nom_a":null,"nom_de":null,"slug_ville":"muntzenheim","departement_id":0,"code_postal":"68320","population":1288,"superficie_km2":"648.05","latitude_centre":"48.0995","longitude_centre":"7.4668","distance_km":8.24},{"id":0,"code_insee":"68076","nom_standard":"Durrenentzen","nom_a":null,"nom_de":null,"slug_ville":"durrenentzen","departement_id":0,"code_postal":"68320","population":1062,"superficie_km2":"623.09","latitude_centre":"48.093","longitude_centre":"7.5071","distance_km":8.49},{"id":0,"code_insee":"68366","nom_standard":"Wickerschwihr","nom_a":null,"nom_de":null,"slug_ville":"wickerschwihr","departement_id":0,"code_postal":"68320","population":742,"superficie_km2":"223.35","latitude_centre":"48.112","longitude_centre":"7.4381","distance_km":9.62}]}