{"ville":{"id":2800,"code_insee":"33009","nom_standard":"Arcachon","nom_a":null,"nom_de":null,"slug_ville":"arcachon","departement_id":634,"code_postal":"33120","population":11259,"superficie_km2":"8.00","latitude_centre":"44.6529999","longitude_centre":"-1.1740000","dep_code":"33","dep_nom":"Gironde","dep_slug":"gironde","reg_code":"15","reg_nom":"Nouvelle-Aquitaine","reg_slug":"nouvelle-aquitaine"},"departement":{"code":"33","nom":"Gironde","slug":"gironde"},"region":{"code":"15","nom":"Nouvelle-Aquitaine","slug":"nouvelle-aquitaine"},"villes_proches":[{"id":2883,"code_insee":"33199","nom_standard":"Gujan-Mestras","nom_a":null,"nom_de":null,"slug_ville":"gujan-mestras","departement_id":634,"code_postal":"33470","population":22399,"superficie_km2":"50.00","latitude_centre":"44.5940018","longitude_centre":"-1.0840000","distance_km":9.68},{"id":3014,"code_insee":"33529","nom_standard":"La Teste-de-Buch","nom_a":null,"nom_de":null,"slug_ville":"la-teste-de-buch","departement_id":634,"code_postal":"33115","population":26556,"superficie_km2":"178.00","latitude_centre":"44.5559998","longitude_centre":"-1.1750000","distance_km":10.79},{"id":2901,"code_insee":"33236","nom_standard":"Lège-Cap-Ferret","nom_a":null,"nom_de":null,"slug_ville":"lege-cap-ferret","departement_id":634,"code_postal":"33950","population":8193,"superficie_km2":"97.00","latitude_centre":"44.7610016","longitude_centre":"-1.1930000","distance_km":12.1},{"id":2798,"code_insee":"33005","nom_standard":"Andernos-les-Bains","nom_a":null,"nom_de":null,"slug_ville":"andernos-les-bains","departement_id":634,"code_postal":"33510","population":12472,"superficie_km2":"21.00","latitude_centre":"44.7540016","longitude_centre":"-1.0810000","distance_km":13.42},{"id":3013,"code_insee":"33527","nom_standard":"Le Teich","nom_a":null,"nom_de":null,"slug_ville":"le-teich","departement_id":634,"code_postal":"33470","population":9004,"superficie_km2":"86.00","latitude_centre":"44.5779991","longitude_centre":"-1.0240000","distance_km":14.51},{"id":2801,"code_insee":"33011","nom_standard":"Arès","nom_a":null,"nom_de":null,"slug_ville":"ares","departement_id":634,"code_postal":"33740","population":6441,"superficie_km2":"49.00","latitude_centre":"44.7949982","longitude_centre":"-1.0790000","distance_km":17.48},{"id":2823,"code_insee":"33051","nom_standard":"Biganos","nom_a":null,"nom_de":null,"slug_ville":"biganos","departement_id":634,"code_postal":"33380","population":11095,"superficie_km2":"51.00","latitude_centre":"44.6609993","longitude_centre":"-0.9490000","distance_km":17.82},{"id":2807,"code_insee":"33019","nom_standard":"Audenge","nom_a":null,"nom_de":null,"slug_ville":"audenge","departement_id":634,"code_postal":"33980","population":9371,"superficie_km2":"82.00","latitude_centre":"44.7140007","longitude_centre":"-0.9440000","distance_km":19.41},{"id":2898,"code_insee":"33229","nom_standard":"Lanton","nom_a":null,"nom_de":null,"slug_ville":"lanton","departement_id":634,"code_postal":"33138","population":7276,"superficie_km2":"138.00","latitude_centre":"44.7739983","longitude_centre":"-0.9770000","distance_km":20.58},{"id":3965,"code_insee":"40287","nom_standard":"Sanguinet","nom_a":null,"nom_de":null,"slug_ville":"sanguinet","departement_id":641,"code_postal":"40460","population":4582,"superficie_km2":"100.00","latitude_centre":"44.4780006","longitude_centre":"-1.0640000","distance_km":21.32},{"id":2919,"code_insee":"33284","nom_standard":"Mios","nom_a":null,"nom_de":null,"slug_ville":"mios","departement_id":634,"code_postal":"33380","population":11469,"superficie_km2":"137.00","latitude_centre":"44.6180000","longitude_centre":"-0.8950000","distance_km":22.42},{"id":2939,"code_insee":"33333","nom_standard":"Le Porge","nom_a":null,"nom_de":null,"slug_ville":"le-porge","departement_id":634,"code_postal":"33680","population":3371,"superficie_km2":"149.00","latitude_centre":"44.8670006","longitude_centre":"-1.1410000","distance_km":23.94},{"id":3029,"code_insee":"33555","nom_standard":"Marcheprime","nom_a":null,"nom_de":null,"slug_ville":"marcheprime","departement_id":634,"code_postal":"33380","population":5367,"superficie_km2":"25.00","latitude_centre":"44.7029991","longitude_centre":"-0.8560000","distance_km":25.75},{"id":3002,"code_insee":"33498","nom_standard":"Salles","nom_a":null,"nom_de":null,"slug_ville":"salles","departement_id":634,"code_postal":"33770","population":7887,"superficie_km2":"138.00","latitude_centre":"44.5419998","longitude_centre":"-0.8840000","distance_km":26.07},{"id":3899,"code_insee":"40046","nom_standard":"Biscarrosse","nom_a":null,"nom_de":null,"slug_ville":"biscarrosse","departement_id":641,"code_postal":"40600","population":14551,"superficie_km2":"193.00","latitude_centre":"44.4090004","longitude_centre":"-1.1770000","distance_km":27.13},{"id":2910,"code_insee":"33260","nom_standard":"Lugos","nom_a":null,"nom_de":null,"slug_ville":"lugos","departement_id":634,"code_postal":"33830","population":1066,"superficie_km2":"62.00","latitude_centre":"44.4690018","longitude_centre":"-0.9150000","distance_km":28.98},{"id":2971,"code_insee":"33422","nom_standard":"Saint-Jean-d'Illac","nom_a":null,"nom_de":null,"slug_ville":"saint-jean-d-illac","departement_id":634,"code_postal":"33127","population":9304,"superficie_km2":"121.00","latitude_centre":"44.7929993","longitude_centre":"-0.8190000","distance_km":32.08},{"id":2812,"code_insee":"33029","nom_standard":"Le Barp","nom_a":null,"nom_de":null,"slug_ville":"le-barp","departement_id":634,"code_postal":"33114","population":5654,"superficie_km2":"107.00","latitude_centre":"44.6269989","longitude_centre":"-0.7470000","distance_km":33.91},{"id":3935,"code_insee":"40217","nom_standard":"Parentis-en-Born","nom_a":null,"nom_de":null,"slug_ville":"parentis-en-born","departement_id":641,"code_postal":"40160","population":7195,"superficie_km2":"124.00","latitude_centre":"44.3450012","longitude_centre":"-1.0650001","distance_km":35.32},{"id":2819,"code_insee":"33042","nom_standard":"Belin-Béliet","nom_a":null,"nom_de":null,"slug_ville":"belin-beliet","departement_id":634,"code_postal":"33830","population":6039,"superficie_km2":"156.00","latitude_centre":"44.4860001","longitude_centre":"-0.7870000","distance_km":35.84}]}