{"ville":{"id":28879,"code_insee":"65026","nom_standard":"Aries-Espénan","nom_a":null,"nom_de":null,"slug_ville":"aries-espenan","departement_id":0,"code_postal":"65230","population":91,"superficie_km2":"560.10","latitude_centre":"43.2769","longitude_centre":"0.5299","dep_code":"65","dep_nom":"Hautes-Pyrénées","dep_slug":"hautes-pyrenees","reg_code":"76","reg_nom":"Occitanie","reg_slug":"occitanie"},"departement":{"code":"65","nom":"Hautes-Pyrénées","slug":"hautes-pyrenees"},"region":{"code":"76","nom":"Occitanie","slug":"occitanie"},"villes_proches":[{"id":0,"code_insee":"65155","nom_standard":"Devèze","nom_a":null,"nom_de":null,"slug_ville":"deveze","departement_id":0,"code_postal":"65230","population":50,"superficie_km2":"512.48","latitude_centre":"43.2776","longitude_centre":"0.548","distance_km":1.47},{"id":0,"code_insee":"65368","nom_standard":"Pouy","nom_a":null,"nom_de":null,"slug_ville":"pouy","departement_id":0,"code_postal":"65230","population":40,"superficie_km2":"192.87","latitude_centre":"43.2627","longitude_centre":"0.5569","distance_km":2.7},{"id":0,"code_insee":"65129","nom_standard":"Castelnau-Magnoac","nom_a":null,"nom_de":null,"slug_ville":"castelnau-magnoac","departement_id":0,"code_postal":"65230","population":750,"superficie_km2":"1275.87","latitude_centre":"43.3008","longitude_centre":"0.5142","distance_km":2.95},{"id":0,"code_insee":"65088","nom_standard":"Betbèze","nom_a":null,"nom_de":null,"slug_ville":"betbeze","departement_id":0,"code_postal":"65230","population":42,"superficie_km2":"344.11","latitude_centre":"43.2908","longitude_centre":"0.5698","distance_km":3.58},{"id":0,"code_insee":"65148","nom_standard":"Cizos","nom_a":null,"nom_de":null,"slug_ville":"cizos","departement_id":0,"code_postal":"65230","population":136,"superficie_km2":"767.96","latitude_centre":"43.2629","longitude_centre":"0.4898","distance_km":3.6},{"id":0,"code_insee":"65475","nom_standard":"Villemur","nom_a":null,"nom_de":null,"slug_ville":"villemur","departement_id":0,"code_postal":"65230","population":67,"superficie_km2":"366.16","latitude_centre":"43.249","longitude_centre":"0.5583","distance_km":3.86},{"id":0,"code_insee":"65336","nom_standard":"Organ","nom_a":null,"nom_de":null,"slug_ville":"organ","departement_id":0,"code_postal":"65230","population":27,"superficie_km2":"270.70","latitude_centre":"43.2764","longitude_centre":"0.4814","distance_km":3.93},{"id":0,"code_insee":"65404","nom_standard":"Sariac-Magnoac","nom_a":null,"nom_de":null,"slug_ville":"sariac-magnoac","departement_id":0,"code_postal":"65230","population":162,"superficie_km2":"1092.77","latitude_centre":"43.3104","longitude_centre":"0.555","distance_km":4.24},{"id":0,"code_insee":"65068","nom_standard":"Barthe","nom_a":null,"nom_de":null,"slug_ville":"barthe","departement_id":0,"code_postal":"65230","population":25,"superficie_km2":"137.14","latitude_centre":"43.2865","longitude_centre":"0.4758","distance_km":4.51},{"id":0,"code_insee":"65249","nom_standard":"Lalanne","nom_a":null,"nom_de":null,"slug_ville":"lalanne","departement_id":0,"code_postal":"65230","population":99,"superficie_km2":"647.43","latitude_centre":"43.2712","longitude_centre":"0.5872","distance_km":4.68},{"id":0,"code_insee":"65358","nom_standard":"Peyret-Saint-André","nom_a":null,"nom_de":null,"slug_ville":"peyret-saint-andre","departement_id":0,"code_postal":"65230","population":69,"superficie_km2":"630.05","latitude_centre":"43.3184","longitude_centre":"0.516","distance_km":4.75},{"id":0,"code_insee":"65263","nom_standard":"Larroque","nom_a":null,"nom_de":null,"slug_ville":"larroque","departement_id":0,"code_postal":"65230","population":101,"superficie_km2":"698.00","latitude_centre":"43.3124","longitude_centre":"0.4888","distance_km":5.16},{"id":19041,"code_insee":"31498","nom_standard":"Saint-Loup-en-Comminges","nom_a":null,"nom_de":null,"slug_ville":"saint-loup-en-comminges","departement_id":0,"code_postal":"31350","population":38,"superficie_km2":"472.10","latitude_centre":"43.2426","longitude_centre":"0.573","distance_km":5.17},{"id":0,"code_insee":"65315","nom_standard":"Monléon-Magnoac","nom_a":null,"nom_de":null,"slug_ville":"monleon-magnoac","departement_id":0,"code_postal":"65670","population":405,"superficie_km2":"1967.38","latitude_centre":"43.2305","longitude_centre":"0.5201","distance_km":5.22},{"id":0,"code_insee":"65214","nom_standard":"Hachan","nom_a":null,"nom_de":null,"slug_ville":"hachan","departement_id":0,"code_postal":"65230","population":46,"superficie_km2":"184.67","latitude_centre":"43.285","longitude_centre":"0.4564","distance_km":6.02},{"id":0,"code_insee":"65134","nom_standard":"Casterets","nom_a":null,"nom_de":null,"slug_ville":"casterets","departement_id":0,"code_postal":"65230","population":17,"superficie_km2":"185.61","latitude_centre":"43.3154","longitude_centre":"0.5831","distance_km":6.07},{"id":0,"code_insee":"65074","nom_standard":"Bazordan","nom_a":null,"nom_de":null,"slug_ville":"bazordan","departement_id":0,"code_postal":"65670","population":111,"superficie_km2":"932.04","latitude_centre":"43.2226","longitude_centre":"0.5459","distance_km":6.18},{"id":0,"code_insee":"65136","nom_standard":"Caubous","nom_a":null,"nom_de":null,"slug_ville":"caubous","departement_id":0,"code_postal":"65230","population":32,"superficie_km2":"387.19","latitude_centre":"43.2406","longitude_centre":"0.4706","distance_km":6.27},{"id":0,"code_insee":"65261","nom_standard":"Laran","nom_a":null,"nom_de":null,"slug_ville":"laran","departement_id":0,"code_postal":"65670","population":46,"superficie_km2":"340.97","latitude_centre":"43.233","longitude_centre":"0.4755","distance_km":6.58},{"id":19358,"code_insee":"32272","nom_standard":"Monlaur-Bernet","nom_a":null,"nom_de":null,"slug_ville":"monlaur-bernet","departement_id":0,"code_postal":"32140","population":163,"superficie_km2":"1256.61","latitude_centre":"43.3468","longitude_centre":"0.5165","distance_km":7.85}]}