{"ville":{"id":12211,"code_insee":"09015","nom_standard":"Arignac","nom_a":null,"nom_de":null,"slug_ville":"arignac","departement_id":0,"code_postal":"09400","population":719,"superficie_km2":"865.48","latitude_centre":"42.875","longitude_centre":"1.5984","dep_code":"09","dep_nom":"Ariège","dep_slug":"ariege","reg_code":"76","reg_nom":"Occitanie","reg_slug":"occitanie"},"departement":{"code":"09","nom":"Ariège","slug":"ariege"},"region":{"code":"76","nom":"Occitanie","slug":"occitanie"},"villes_proches":[{"id":0,"code_insee":"09058","nom_standard":"Bompas","nom_a":null,"nom_de":null,"slug_ville":"bompas","departement_id":0,"code_postal":"09400","population":206,"superficie_km2":"278.89","latitude_centre":"42.8627","longitude_centre":"1.6189","distance_km":2.16},{"id":0,"code_insee":"09303","nom_standard":"Surba","nom_a":null,"nom_de":null,"slug_ville":"surba","departement_id":0,"code_postal":"09400","population":340,"superficie_km2":"220.89","latitude_centre":"42.8597","longitude_centre":"1.5817","distance_km":2.18},{"id":0,"code_insee":"09045","nom_standard":"Bédeilhac-et-Aynat","nom_a":null,"nom_de":null,"slug_ville":"bedeilhac-et-aynat","departement_id":0,"code_postal":"09400","population":178,"superficie_km2":"658.67","latitude_centre":"42.8814","longitude_centre":"1.5664","distance_km":2.7},{"id":0,"code_insee":"09210","nom_standard":"Montoulieu","nom_a":null,"nom_de":null,"slug_ville":"montoulieu","departement_id":0,"code_postal":"09000","population":415,"superficie_km2":"1430.37","latitude_centre":"42.9015","longitude_centre":"1.6015","distance_km":2.96},{"id":0,"code_insee":"09306","nom_standard":"Tarascon-sur-Ariège","nom_a":null,"nom_de":null,"slug_ville":"tarascon-sur-ariege","departement_id":0,"code_postal":"09400","population":3085,"superficie_km2":"859.09","latitude_centre":"42.8451","longitude_centre":"1.5977","distance_km":3.33},{"id":0,"code_insee":"09240","nom_standard":"Quié","nom_a":null,"nom_de":null,"slug_ville":"quie","departement_id":0,"code_postal":"09400","population":297,"superficie_km2":"250.56","latitude_centre":"42.8416","longitude_centre":"1.5891","distance_km":3.79},{"id":0,"code_insee":"09188","nom_standard":"Mercus-Garrabet","nom_a":null,"nom_de":null,"slug_ville":"mercus-garrabet","departement_id":0,"code_postal":"09400","population":1238,"superficie_km2":"1505.08","latitude_centre":"42.8838","longitude_centre":"1.6502","distance_km":4.33},{"id":0,"code_insee":"09016","nom_standard":"Arnave","nom_a":null,"nom_de":null,"slug_ville":"arnave","departement_id":0,"code_postal":"09400","population":208,"superficie_km2":"835.92","latitude_centre":"42.8518","longitude_centre":"1.648","distance_km":4.8},{"id":0,"code_insee":"09321","nom_standard":"Ussat","nom_a":null,"nom_de":null,"slug_ville":"ussat","departement_id":0,"code_postal":"09400","population":307,"superficie_km2":"434.62","latitude_centre":"42.8338","longitude_centre":"1.6228","distance_km":4.99},{"id":0,"code_insee":"09236","nom_standard":"Prayols","nom_a":null,"nom_de":null,"slug_ville":"prayols","departement_id":0,"code_postal":"09000","population":364,"superficie_km2":"788.77","latitude_centre":"42.922","longitude_centre":"1.5992","distance_km":5.23},{"id":0,"code_insee":"09133","nom_standard":"Génat","nom_a":null,"nom_de":null,"slug_ville":"genat","departement_id":0,"code_postal":"09400","population":24,"superficie_km2":"825.64","latitude_centre":"42.8273","longitude_centre":"1.5669","distance_km":5.89},{"id":0,"code_insee":"09272","nom_standard":"Saint-Paul-de-Jarrat","nom_a":null,"nom_de":null,"slug_ville":"saint-paul-de-jarrat","departement_id":0,"code_postal":"09000","population":1352,"superficie_km2":"2247.54","latitude_centre":"42.8954","longitude_centre":"1.67","distance_km":6.26},{"id":12203,"code_insee":"09006","nom_standard":"Alliat","nom_a":null,"nom_de":null,"slug_ville":"alliat","departement_id":0,"code_postal":"09400","population":57,"superficie_km2":"343.91","latitude_centre":"42.8181","longitude_centre":"1.5778","distance_km":6.55},{"id":0,"code_insee":"09217","nom_standard":"Niaux","nom_a":null,"nom_de":null,"slug_ville":"niaux","departement_id":0,"code_postal":"09400","population":150,"superficie_km2":"394.97","latitude_centre":"42.8152","longitude_centre":"1.6019","distance_km":6.66},{"id":0,"code_insee":"09221","nom_standard":"Ornolac-Ussat-les-Bains","nom_a":null,"nom_de":null,"slug_ville":"ornolac-ussat-les-bains","departement_id":0,"code_postal":"09400","population":247,"superficie_km2":"1209.60","latitude_centre":"42.8236","longitude_centre":"1.6463","distance_km":6.92},{"id":0,"code_insee":"09121","nom_standard":"Ferrières-sur-Ariège","nom_a":null,"nom_de":null,"slug_ville":"ferrieres-sur-ariege","departement_id":0,"code_postal":"09000","population":788,"superficie_km2":"346.50","latitude_centre":"42.9396","longitude_centre":"1.6055","distance_km":7.21},{"id":0,"code_insee":"09130","nom_standard":"Ganac","nom_a":null,"nom_de":null,"slug_ville":"ganac","departement_id":0,"code_postal":"09000","population":759,"superficie_km2":"2027.63","latitude_centre":"42.9327","longitude_centre":"1.5546","distance_km":7.34},{"id":0,"code_insee":"09207","nom_standard":"Montgailhard","nom_a":null,"nom_de":null,"slug_ville":"montgailhard","departement_id":0,"code_postal":"09330","population":1437,"superficie_km2":"805.10","latitude_centre":"42.9387","longitude_centre":"1.6441","distance_km":8.0},{"id":0,"code_insee":"09152","nom_standard":"Lapège","nom_a":null,"nom_de":null,"slug_ville":"lapege","departement_id":0,"code_postal":"09400","population":17,"superficie_km2":"840.67","latitude_centre":"42.8026","longitude_centre":"1.5558","distance_km":8.77},{"id":0,"code_insee":"09156","nom_standard":"Larnat","nom_a":null,"nom_de":null,"slug_ville":"larnat","departement_id":0,"code_postal":"09310","population":19,"superficie_km2":"560.70","latitude_centre":"42.7938","longitude_centre":"1.626","distance_km":9.31}]}