{"ville":{"id":10212,"code_insee":"02023","nom_standard":"Armentières-sur-Ourcq","nom_a":null,"nom_de":null,"slug_ville":"armentieres-sur-ourcq","departement_id":0,"code_postal":"02210","population":96,"superficie_km2":"682.81","latitude_centre":"49.1731","longitude_centre":"3.3916","dep_code":"02","dep_nom":"Aisne","dep_slug":"aisne","reg_code":"32","reg_nom":"Hauts-de-France","reg_slug":"hauts-de-france"},"departement":{"code":"02","nom":"Aisne","slug":"aisne"},"region":{"code":"32","nom":"Hauts-de-France","slug":"hauts-de-france"},"villes_proches":[{"id":0,"code_insee":"02538","nom_standard":"Nanteuil-Notre-Dame","nom_a":null,"nom_de":null,"slug_ville":"nanteuil-notre-dame","departement_id":0,"code_postal":"02210","population":86,"superficie_km2":"373.15","latitude_centre":"49.1912","longitude_centre":"3.4105","distance_km":2.44},{"id":0,"code_insee":"02121","nom_standard":"Breny","nom_a":null,"nom_de":null,"slug_ville":"breny","departement_id":0,"code_postal":"02210","population":210,"superficie_km2":"454.36","latitude_centre":"49.1826","longitude_centre":"3.3513","distance_km":3.11},{"id":0,"code_insee":"02649","nom_standard":"Rocourt-Saint-Martin","nom_a":null,"nom_de":null,"slug_ville":"rocourt-saint-martin","departement_id":0,"code_postal":"02210","population":299,"superficie_km2":"569.17","latitude_centre":"49.1427","longitude_centre":"3.3915","distance_km":3.38},{"id":0,"code_insee":"02241","nom_standard":"La Croix-sur-Ourcq","nom_a":null,"nom_de":null,"slug_ville":"la-croix-sur-ourcq","departement_id":0,"code_postal":"02210","population":87,"superficie_km2":"1057.42","latitude_centre":"49.1589","longitude_centre":"3.3502","distance_km":3.4},{"id":0,"code_insee":"02203","nom_standard":"Coincy","nom_a":null,"nom_de":null,"slug_ville":"coincy","departement_id":0,"code_postal":"02210","population":1308,"superficie_km2":"1724.27","latitude_centre":"49.1548","longitude_centre":"3.4331","distance_km":3.64},{"id":0,"code_insee":"02580","nom_standard":"Oulchy-le-Château","nom_a":null,"nom_de":null,"slug_ville":"oulchy-le-chateau","departement_id":0,"code_postal":"02210","population":785,"superficie_km2":"1508.87","latitude_centre":"49.2085","longitude_centre":"3.3828","distance_km":3.99},{"id":0,"code_insee":"02119","nom_standard":"Brécy","nom_a":null,"nom_de":null,"slug_ville":"brecy","departement_id":0,"code_postal":"02210","population":317,"superficie_km2":"1044.76","latitude_centre":"49.1402","longitude_centre":"3.4263","distance_km":4.44},{"id":0,"code_insee":"02507","nom_standard":"Montgru-Saint-Hilaire","nom_a":null,"nom_de":null,"slug_ville":"montgru-saint-hilaire","departement_id":0,"code_postal":"02210","population":30,"superficie_km2":"326.97","latitude_centre":"49.177","longitude_centre":"3.326","distance_km":4.79},{"id":0,"code_insee":"02127","nom_standard":"Bruyères-sur-Fère","nom_a":null,"nom_de":null,"slug_ville":"bruyeres-sur-fere","departement_id":0,"code_postal":"02130","population":199,"superficie_km2":"901.49","latitude_centre":"49.1994","longitude_centre":"3.445","distance_km":4.86},{"id":0,"code_insee":"02356","nom_standard":"Grisolles","nom_a":null,"nom_de":null,"slug_ville":"grisolles","departement_id":0,"code_postal":"02210","population":227,"superficie_km2":"1086.32","latitude_centre":"49.1298","longitude_centre":"3.3718","distance_km":5.03},{"id":0,"code_insee":"02579","nom_standard":"Oulchy-la-Ville","nom_a":null,"nom_de":null,"slug_ville":"oulchy-la-ville","departement_id":0,"code_postal":"02210","population":131,"superficie_km2":"723.61","latitude_centre":"49.2085","longitude_centre":"3.342","distance_km":5.34},{"id":0,"code_insee":"02082","nom_standard":"Beugneux","nom_a":null,"nom_de":null,"slug_ville":"beugneux","departement_id":0,"code_postal":"02210","population":120,"superficie_km2":"767.75","latitude_centre":"49.2243","longitude_centre":"3.4187","distance_km":6.02},{"id":0,"code_insee":"02411","nom_standard":"Latilly","nom_a":null,"nom_de":null,"slug_ville":"latilly","departement_id":0,"code_postal":"02210","population":198,"superficie_km2":"928.90","latitude_centre":"49.154","longitude_centre":"3.3123","distance_km":6.14},{"id":0,"code_insee":"02806","nom_standard":"Villeneuve-sur-Fère","nom_a":null,"nom_de":null,"slug_ville":"villeneuve-sur-fere","departement_id":0,"code_postal":"02130","population":277,"superficie_km2":"1069.47","latitude_centre":"49.171","longitude_centre":"3.4775","distance_km":6.25},{"id":0,"code_insee":"02099","nom_standard":"Bonnesvalyn","nom_a":null,"nom_de":null,"slug_ville":"bonnesvalyn","departement_id":0,"code_postal":"02400","population":212,"superficie_km2":"633.78","latitude_centre":"49.1235","longitude_centre":"3.3273","distance_km":7.23},{"id":0,"code_insee":"02233","nom_standard":"Cramaille","nom_a":null,"nom_de":null,"slug_ville":"cramaille","departement_id":0,"code_postal":"02130","population":127,"superficie_km2":"816.57","latitude_centre":"49.2269","longitude_centre":"3.4555","distance_km":7.57},{"id":0,"code_insee":"02665","nom_standard":"Grand-Rozoy","nom_a":null,"nom_de":null,"slug_ville":"grand-rozoy","departement_id":0,"code_postal":"02210","population":299,"superficie_km2":"1248.09","latitude_centre":"49.2415","longitude_centre":"3.3813","distance_km":7.64},{"id":0,"code_insee":"02085","nom_standard":"Bézu-Saint-Germain","nom_a":null,"nom_de":null,"slug_ville":"bezu-saint-germain","departement_id":0,"code_postal":"02400","population":991,"superficie_km2":"1104.48","latitude_centre":"49.1045","longitude_centre":"3.4082","distance_km":7.72},{"id":0,"code_insee":"02606","nom_standard":"Le Plessier-Huleu","nom_a":null,"nom_de":null,"slug_ville":"le-plessier-huleu","departement_id":0,"code_postal":"02210","population":93,"superficie_km2":"518.24","latitude_centre":"49.2391","longitude_centre":"3.3481","distance_km":7.99},{"id":0,"code_insee":"02279","nom_standard":"Épaux-Bézu","nom_a":null,"nom_de":null,"slug_ville":"epaux-bezu","departement_id":0,"code_postal":"02400","population":534,"superficie_km2":"1986.38","latitude_centre":"49.1022","longitude_centre":"3.3563","distance_km":8.29}]}