{"ville":{"id":28880,"code_insee":"65028","nom_standard":"Arné","nom_a":null,"nom_de":null,"slug_ville":"arne","departement_id":0,"code_postal":"65670","population":181,"superficie_km2":"833.34","latitude_centre":"43.1747","longitude_centre":"0.4931","dep_code":"65","dep_nom":"Hautes-Pyrénées","dep_slug":"hautes-pyrenees","reg_code":"76","reg_nom":"Occitanie","reg_slug":"occitanie"},"departement":{"code":"65","nom":"Hautes-Pyrénées","slug":"hautes-pyrenees"},"region":{"code":"76","nom":"Occitanie","slug":"occitanie"},"villes_proches":[{"id":18746,"code_insee":"31078","nom_standard":"Boudrac","nom_a":null,"nom_de":null,"slug_ville":"boudrac","departement_id":0,"code_postal":"31580","population":148,"superficie_km2":"1156.07","latitude_centre":"43.179","longitude_centre":"0.5043","distance_km":1.03},{"id":18890,"code_insee":"31289","nom_standard":"Lécussan","nom_a":null,"nom_de":null,"slug_ville":"lecussan","departement_id":0,"code_postal":"31580","population":248,"superficie_km2":"751.78","latitude_centre":"43.1512","longitude_centre":"0.489","distance_km":2.63},{"id":0,"code_insee":"65316","nom_standard":"Monlong","nom_a":null,"nom_de":null,"slug_ville":"monlong","departement_id":0,"code_postal":"65670","population":108,"superficie_km2":"730.65","latitude_centre":"43.196","longitude_centre":"0.468","distance_km":3.12},{"id":0,"code_insee":"65437","nom_standard":"Tajan","nom_a":null,"nom_de":null,"slug_ville":"tajan","departement_id":0,"code_postal":"65300","population":134,"superficie_km2":"497.07","latitude_centre":"43.1785","longitude_centre":"0.4517","distance_km":3.38},{"id":0,"code_insee":"65377","nom_standard":"Réjaumont","nom_a":null,"nom_de":null,"slug_ville":"rejaumont","departement_id":0,"code_postal":"65300","population":146,"superficie_km2":"681.45","latitude_centre":"43.1634","longitude_centre":"0.4511","distance_km":3.63},{"id":0,"code_insee":"65266","nom_standard":"Lassales","nom_a":null,"nom_de":null,"slug_ville":"lassales","departement_id":0,"code_postal":"65670","population":35,"superficie_km2":"250.99","latitude_centre":"43.2096","longitude_centre":"0.4874","distance_km":3.91},{"id":18783,"code_insee":"31130","nom_standard":"Cazaril-Tambourès","nom_a":null,"nom_de":null,"slug_ville":"cazaril-tamboures","departement_id":0,"code_postal":"31580","population":89,"superficie_km2":"690.99","latitude_centre":"43.1783","longitude_centre":"0.5418","distance_km":3.97},{"id":19110,"code_insee":"31586","nom_standard":"Villeneuve-Lécussan","nom_a":null,"nom_de":null,"slug_ville":"villeneuve-lecussan","departement_id":0,"code_postal":"31580","population":544,"superficie_km2":"1623.31","latitude_centre":"43.1344","longitude_centre":"0.4843","distance_km":4.54},{"id":19073,"code_insee":"31539","nom_standard":"Sédeilhac","nom_a":null,"nom_de":null,"slug_ville":"sedeilhac","departement_id":0,"code_postal":"31580","population":63,"superficie_km2":"616.96","latitude_centre":"43.1467","longitude_centre":"0.5404","distance_km":4.94},{"id":18830,"code_insee":"31197","nom_standard":"Franquevielle","nom_a":null,"nom_de":null,"slug_ville":"franquevielle","departement_id":0,"code_postal":"31210","population":339,"superficie_km2":"1089.65","latitude_centre":"43.1333","longitude_centre":"0.5304","distance_km":5.51},{"id":0,"code_insee":"65187","nom_standard":"Gaussan","nom_a":null,"nom_de":null,"slug_ville":"gaussan","departement_id":0,"code_postal":"65670","population":99,"superficie_km2":"773.41","latitude_centre":"43.2231","longitude_centre":"0.4779","distance_km":5.52},{"id":0,"code_insee":"65376","nom_standard":"Recurt","nom_a":null,"nom_de":null,"slug_ville":"recurt","departement_id":0,"code_postal":"65330","population":201,"superficie_km2":"1357.01","latitude_centre":"43.1972","longitude_centre":"0.4324","distance_km":5.52},{"id":0,"code_insee":"65456","nom_standard":"Uglas","nom_a":null,"nom_de":null,"slug_ville":"uglas","departement_id":0,"code_postal":"65300","population":274,"superficie_km2":"861.98","latitude_centre":"43.1417","longitude_centre":"0.4405","distance_km":5.63},{"id":19052,"code_insee":"31513","nom_standard":"Saint-Plancard","nom_a":null,"nom_de":null,"slug_ville":"saint-plancard","departement_id":0,"code_postal":"31580","population":398,"superficie_km2":"1606.89","latitude_centre":"43.169","longitude_centre":"0.5683","distance_km":6.13},{"id":18721,"code_insee":"31043","nom_standard":"Balesta","nom_a":null,"nom_de":null,"slug_ville":"balesta","departement_id":0,"code_postal":"31580","population":169,"superficie_km2":"715.94","latitude_centre":"43.2028","longitude_centre":"0.5644","distance_km":6.57},{"id":0,"code_insee":"65315","nom_standard":"Monléon-Magnoac","nom_a":null,"nom_de":null,"slug_ville":"monleon-magnoac","departement_id":0,"code_postal":"65670","population":405,"superficie_km2":"1967.38","latitude_centre":"43.2305","longitude_centre":"0.5201","distance_km":6.58},{"id":0,"code_insee":"65261","nom_standard":"Laran","nom_a":null,"nom_de":null,"slug_ville":"laran","departement_id":0,"code_postal":"65670","population":46,"superficie_km2":"340.97","latitude_centre":"43.233","longitude_centre":"0.4755","distance_km":6.64},{"id":0,"code_insee":"65074","nom_standard":"Bazordan","nom_a":null,"nom_de":null,"slug_ville":"bazordan","departement_id":0,"code_postal":"65670","population":111,"superficie_km2":"932.04","latitude_centre":"43.2226","longitude_centre":"0.5459","distance_km":6.83},{"id":0,"code_insee":"65136","nom_standard":"Caubous","nom_a":null,"nom_de":null,"slug_ville":"caubous","departement_id":0,"code_postal":"65230","population":32,"superficie_km2":"387.19","latitude_centre":"43.2406","longitude_centre":"0.4706","distance_km":7.55},{"id":18804,"code_insee":"31158","nom_standard":"Cuguron","nom_a":null,"nom_de":null,"slug_ville":"cuguron","departement_id":0,"code_postal":"31210","population":161,"superficie_km2":"706.52","latitude_centre":"43.1063","longitude_centre":"0.5222","distance_km":7.96}]}