{"ville":{"id":28886,"code_insee":"65035","nom_standard":"Artagnan","nom_a":null,"nom_de":null,"slug_ville":"artagnan","departement_id":0,"code_postal":"65500","population":504,"superficie_km2":"501.01","latitude_centre":"43.409","longitude_centre":"0.0812","dep_code":"65","dep_nom":"Hautes-Pyrénées","dep_slug":"hautes-pyrenees","reg_code":"76","reg_nom":"Occitanie","reg_slug":"occitanie"},"departement":{"code":"65","nom":"Hautes-Pyrénées","slug":"hautes-pyrenees"},"region":{"code":"76","nom":"Occitanie","slug":"occitanie"},"villes_proches":[{"id":0,"code_insee":"65273","nom_standard":"Liac","nom_a":null,"nom_de":null,"slug_ville":"liac","departement_id":0,"code_postal":"65140","population":200,"superficie_km2":"419.17","latitude_centre":"43.4146","longitude_centre":"0.1003","distance_km":1.66},{"id":0,"code_insee":"65196","nom_standard":"Gensac","nom_a":null,"nom_de":null,"slug_ville":"gensac","departement_id":0,"code_postal":"65140","population":86,"superficie_km2":"353.05","latitude_centre":"43.4338","longitude_centre":"0.0901","distance_km":2.85},{"id":0,"code_insee":"65460","nom_standard":"Vic-en-Bigorre","nom_a":null,"nom_de":null,"slug_ville":"vic-en-bigorre","departement_id":0,"code_postal":"65500","population":4845,"superficie_km2":"3191.47","latitude_centre":"43.3926","longitude_centre":"0.0481","distance_km":3.24},{"id":28867,"code_insee":"65013","nom_standard":"Ansost","nom_a":null,"nom_de":null,"slug_ville":"ansost","departement_id":0,"code_postal":"65140","population":58,"superficie_km2":"218.65","latitude_centre":"43.4323","longitude_centre":"0.1101","distance_km":3.49},{"id":0,"code_insee":"65330","nom_standard":"Nouilhan","nom_a":null,"nom_de":null,"slug_ville":"nouilhan","departement_id":0,"code_postal":"65500","population":231,"superficie_km2":"458.70","latitude_centre":"43.4257","longitude_centre":"0.0437","distance_km":3.55},{"id":0,"code_insee":"65409","nom_standard":"Sarriac-Bigorre","nom_a":null,"nom_de":null,"slug_ville":"sarriac-bigorre","departement_id":0,"code_postal":"65140","population":271,"superficie_km2":"1083.72","latitude_centre":"43.3882","longitude_centre":"0.1171","distance_km":3.71},{"id":0,"code_insee":"65414","nom_standard":"Ségalas","nom_a":null,"nom_de":null,"slug_ville":"segalas","departement_id":0,"code_postal":"65140","population":81,"superficie_km2":"608.04","latitude_centre":"43.4083","longitude_centre":"0.1286","distance_km":3.83},{"id":0,"code_insee":"65061","nom_standard":"Barbachen","nom_a":null,"nom_de":null,"slug_ville":"barbachen","departement_id":0,"code_postal":"65140","population":41,"superficie_km2":"306.85","latitude_centre":"43.4286","longitude_centre":"0.1267","distance_km":4.27},{"id":0,"code_insee":"65243","nom_standard":"Lafitole","nom_a":null,"nom_de":null,"slug_ville":"lafitole","departement_id":0,"code_postal":"65700","population":433,"superficie_km2":"876.12","latitude_centre":"43.4495","longitude_centre":"0.0775","distance_km":4.51},{"id":0,"code_insee":"65119","nom_standard":"Caixon","nom_a":null,"nom_de":null,"slug_ville":"caixon","departement_id":0,"code_postal":"65500","population":340,"superficie_km2":"858.63","latitude_centre":"43.4107","longitude_centre":"0.0186","distance_km":5.06},{"id":0,"code_insee":"65121","nom_standard":"Camalès","nom_a":null,"nom_de":null,"slug_ville":"camales","departement_id":0,"code_postal":"65500","population":371,"superficie_km2":"467.58","latitude_centre":"43.3599","longitude_centre":"0.0811","distance_km":5.46},{"id":0,"code_insee":"65073","nom_standard":"Bazillac","nom_a":null,"nom_de":null,"slug_ville":"bazillac","departement_id":0,"code_postal":"65140","population":373,"superficie_km2":"1032.97","latitude_centre":"43.3598","longitude_centre":"0.1129","distance_km":6.04},{"id":0,"code_insee":"65314","nom_standard":"Monfaucon","nom_a":null,"nom_de":null,"slug_ville":"monfaucon","departement_id":0,"code_postal":"65140","population":198,"superficie_km2":"1051.42","latitude_centre":"43.4557","longitude_centre":"0.1207","distance_km":6.09},{"id":0,"code_insee":"65262","nom_standard":"Larreule","nom_a":null,"nom_de":null,"slug_ville":"larreule","departement_id":0,"code_postal":"65700","population":379,"superficie_km2":"1019.89","latitude_centre":"43.4416","longitude_centre":"0.018","distance_km":6.26},{"id":0,"code_insee":"65390","nom_standard":"Saint-Lézer","nom_a":null,"nom_de":null,"slug_ville":"saint-lezer","departement_id":0,"code_postal":"65500","population":435,"superficie_km2":"1143.34","latitude_centre":"43.3585","longitude_centre":"0.0278","distance_km":7.08},{"id":0,"code_insee":"65372","nom_standard":"Pujo","nom_a":null,"nom_de":null,"slug_ville":"pujo","departement_id":0,"code_postal":"65500","population":671,"superficie_km2":"528.02","latitude_centre":"43.3427","longitude_centre":"0.0652","distance_km":7.48},{"id":0,"code_insee":"65304","nom_standard":"Maubourguet","nom_a":null,"nom_de":null,"slug_ville":"maubourguet","departement_id":0,"code_postal":"65700","population":2242,"superficie_km2":"2231.25","latitude_centre":"43.4694","longitude_centre":"0.0387","distance_km":7.54},{"id":0,"code_insee":"65457","nom_standard":"Ugnouas","nom_a":null,"nom_de":null,"slug_ville":"ugnouas","departement_id":0,"code_postal":"65140","population":87,"superficie_km2":"159.51","latitude_centre":"43.3421","longitude_centre":"0.1043","distance_km":7.67},{"id":0,"code_insee":"65477","nom_standard":"Villenave-près-Marsac","nom_a":null,"nom_de":null,"slug_ville":"villenave-pres-marsac","departement_id":0,"code_postal":"65500","population":110,"superficie_km2":"112.96","latitude_centre":"43.3399","longitude_centre":"0.0871","distance_km":7.7},{"id":0,"code_insee":"65412","nom_standard":"Sauveterre","nom_a":null,"nom_de":null,"slug_ville":"sauveterre","departement_id":0,"code_postal":"65700","population":157,"superficie_km2":"1039.91","latitude_centre":"43.4769","longitude_centre":"0.1035","distance_km":7.76}]}