{"ville":{"id":6624,"code_insee":"64060","nom_standard":"Artiguelouve","nom_a":null,"nom_de":null,"slug_ville":"artiguelouve","departement_id":665,"code_postal":"64230","population":2005,"superficie_km2":"11.00","latitude_centre":"43.3139992","longitude_centre":"-0.4730000","dep_code":"64","dep_nom":"Pyrénées-Atlantiques","dep_slug":"pyrenees-atlantiques","reg_code":"15","reg_nom":"Nouvelle-Aquitaine","reg_slug":"nouvelle-aquitaine"},"departement":{"code":"64","nom":"Pyrénées-Atlantiques","slug":"pyrenees-atlantiques"},"region":{"code":"15","nom":"Nouvelle-Aquitaine","slug":"nouvelle-aquitaine"},"villes_proches":[{"id":6619,"code_insee":"64037","nom_standard":"Arbus","nom_a":null,"nom_de":null,"slug_ville":"arbus","departement_id":665,"code_postal":"64230","population":1245,"superficie_km2":"14.00","latitude_centre":"43.3240013","longitude_centre":"-0.5060000","distance_km":2.89},{"id":6670,"code_insee":"64315","nom_standard":"Laroin","nom_a":null,"nom_de":null,"slug_ville":"laroin","departement_id":665,"code_postal":"64110","population":1061,"superficie_km2":"7.00","latitude_centre":"43.2970009","longitude_centre":"-0.4370000","distance_km":3.47},{"id":6676,"code_insee":"64335","nom_standard":"Lescar","nom_a":null,"nom_de":null,"slug_ville":"lescar","departement_id":665,"code_postal":"64230","population":9524,"superficie_km2":"27.00","latitude_centre":"43.3400002","longitude_centre":"-0.4280000","distance_km":4.65},{"id":6699,"code_insee":"64448","nom_standard":"Poey-de-Lescar","nom_a":null,"nom_de":null,"slug_ville":"poey-de-lescar","departement_id":665,"code_postal":"64230","population":1821,"superficie_km2":"7.00","latitude_centre":"43.3559990","longitude_centre":"-0.4570000","distance_km":4.85},{"id":6677,"code_insee":"64348","nom_standard":"Lons","nom_a":null,"nom_de":null,"slug_ville":"lons","departement_id":665,"code_postal":"64140","population":13915,"superficie_km2":"12.00","latitude_centre":"43.3209992","longitude_centre":"-0.4020000","distance_km":5.8},{"id":6640,"code_insee":"64129","nom_standard":"Billère","nom_a":null,"nom_de":null,"slug_ville":"billere","departement_id":665,"code_postal":"64140","population":13866,"superficie_km2":"4.00","latitude_centre":"43.3040009","longitude_centre":"-0.3940000","distance_km":6.49},{"id":6653,"code_insee":"64198","nom_standard":"Denguin","nom_a":null,"nom_de":null,"slug_ville":"denguin","departement_id":665,"code_postal":"64230","population":1771,"superficie_km2":"12.00","latitude_centre":"43.3709984","longitude_centre":"-0.5000000","distance_km":6.7},{"id":6667,"code_insee":"64284","nom_standard":"Jurançon","nom_a":null,"nom_de":null,"slug_ville":"jurancon","departement_id":665,"code_postal":"64110","population":7064,"superficie_km2":"19.00","latitude_centre":"43.2700005","longitude_centre":"-0.4070000","distance_km":7.24},{"id":6683,"code_insee":"64393","nom_standard":"Monein","nom_a":null,"nom_de":null,"slug_ville":"monein","departement_id":665,"code_postal":"64360","population":4426,"superficie_km2":"81.00","latitude_centre":"43.2910004","longitude_centre":"-0.5620000","distance_km":7.64},{"id":6720,"code_insee":"64549","nom_standard":"Uzein","nom_a":null,"nom_de":null,"slug_ville":"uzein","departement_id":665,"code_postal":"64230","population":1289,"superficie_km2":"16.00","latitude_centre":"43.3959999","longitude_centre":"-0.4330000","distance_km":9.67},{"id":6698,"code_insee":"64445","nom_standard":"Pau","nom_a":null,"nom_de":null,"slug_ville":"pau","departement_id":665,"code_postal":"64000","population":77066,"superficie_km2":"32.00","latitude_centre":"43.3199997","longitude_centre":"-0.3500000","distance_km":9.97},{"id":6658,"code_insee":"64237","nom_standard":"Gelos","nom_a":null,"nom_de":null,"slug_ville":"gelos","departement_id":665,"code_postal":"64110","population":3609,"superficie_km2":"11.00","latitude_centre":"43.2560005","longitude_centre":"-0.3700000","distance_km":10.54},{"id":6680,"code_insee":"64373","nom_standard":"Mazères-Lezons","nom_a":null,"nom_de":null,"slug_ville":"mazeres-lezons","departement_id":665,"code_postal":"64110","population":1818,"superficie_km2":"4.00","latitude_centre":"43.2729988","longitude_centre":"-0.3550000","distance_km":10.58},{"id":6710,"code_insee":"64511","nom_standard":"Sauvagnon","nom_a":null,"nom_de":null,"slug_ville":"sauvagnon","departement_id":665,"code_postal":"64230","population":3484,"superficie_km2":"17.00","latitude_centre":"43.3930016","longitude_centre":"-0.3890000","distance_km":11.1},{"id":6673,"code_insee":"64324","nom_standard":"Lasseube","nom_a":null,"nom_de":null,"slug_ville":"lasseube","departement_id":665,"code_postal":"64290","population":1741,"superficie_km2":"49.00","latitude_centre":"43.2140007","longitude_centre":"-0.4830000","distance_km":11.15},{"id":6642,"code_insee":"64132","nom_standard":"Bizanos","nom_a":null,"nom_de":null,"slug_ville":"bizanos","departement_id":665,"code_postal":"64320","population":4548,"superficie_km2":"4.00","latitude_centre":"43.2919998","longitude_centre":"-0.3370000","distance_km":11.27},{"id":6713,"code_insee":"64519","nom_standard":"Serres-Castet","nom_a":null,"nom_de":null,"slug_ville":"serres-castet","departement_id":665,"code_postal":"64121","population":4376,"superficie_km2":"14.00","latitude_centre":"43.3800011","longitude_centre":"-0.3670000","distance_km":11.28},{"id":6685,"code_insee":"64399","nom_standard":"Montardon","nom_a":null,"nom_de":null,"slug_ville":"montardon","departement_id":665,"code_postal":"64121","population":2392,"superficie_km2":"8.00","latitude_centre":"43.3650017","longitude_centre":"-0.3500000","distance_km":11.45},{"id":6625,"code_insee":"64061","nom_standard":"Artix","nom_a":null,"nom_de":null,"slug_ville":"artix","departement_id":665,"code_postal":"64170","population":3440,"superficie_km2":"9.00","latitude_centre":"43.3979988","longitude_centre":"-0.5740000","distance_km":12.41},{"id":6656,"code_insee":"64230","nom_standard":"Gan","nom_a":null,"nom_de":null,"slug_ville":"gan","departement_id":665,"code_postal":"64290","population":5622,"superficie_km2":"39.00","latitude_centre":"43.2089996","longitude_centre":"-0.4100000","distance_km":12.74}]}