{"ville":{"id":400,"code_insee":"06006","nom_standard":"Aspremont","nom_a":null,"nom_de":null,"slug_ville":"aspremont","departement_id":606,"code_postal":"06790","population":2300,"superficie_km2":"9.00","latitude_centre":"43.7750015","longitude_centre":"7.2449999","dep_code":"06","dep_nom":"Alpes-Maritimes","dep_slug":"alpes-maritimes","reg_code":"18","reg_nom":"Provence-Alpes-Côte d'Azur","reg_slug":"provence-alpes-cote-d-azur"},"departement":{"code":"06","nom":"Alpes-Maritimes","slug":"alpes-maritimes"},"region":{"code":"18","nom":"Provence-Alpes-Côte d'Azur","slug":"provence-alpes-cote-d-azur"},"villes_proches":[{"id":417,"code_insee":"06034","nom_standard":"Castagniers","nom_a":null,"nom_de":null,"slug_ville":"castagniers","departement_id":606,"code_postal":"06670","population":1687,"superficie_km2":"7.00","latitude_centre":"43.7919998","longitude_centre":"7.2280002","distance_km":2.33},{"id":421,"code_insee":"06046","nom_standard":"Colomars","nom_a":null,"nom_de":null,"slug_ville":"colomars","departement_id":606,"code_postal":"06670","population":3487,"superficie_km2":"6.00","latitude_centre":"43.7589989","longitude_centre":"7.2230001","distance_km":2.51},{"id":467,"code_insee":"06147","nom_standard":"Tourrette-Levens","nom_a":null,"nom_de":null,"slug_ville":"tourrette-levens","departement_id":606,"code_postal":"06690","population":4760,"superficie_km2":"16.00","latitude_centre":"43.7859993","longitude_centre":"7.2729998","distance_km":2.56},{"id":426,"code_insee":"06060","nom_standard":"Falicon","nom_a":null,"nom_de":null,"slug_ville":"falicon","departement_id":606,"code_postal":"06950","population":2111,"superficie_km2":"5.00","latitude_centre":"43.7519989","longitude_centre":"7.2659998","distance_km":3.06},{"id":453,"code_insee":"06117","nom_standard":"Saint-Blaise","nom_a":null,"nom_de":null,"slug_ville":"saint-blaise","departement_id":606,"code_postal":"06670","population":1367,"superficie_km2":"8.00","latitude_centre":"43.8129997","longitude_centre":"7.2300000","distance_km":4.39},{"id":452,"code_insee":"06114","nom_standard":"Saint-André-de-la-Roche","nom_a":null,"nom_de":null,"slug_ville":"saint-andre-de-la-roche","departement_id":606,"code_postal":"06730","population":5782,"superficie_km2":"3.00","latitude_centre":"43.7459984","longitude_centre":"7.2890000","distance_km":4.78},{"id":416,"code_insee":"06033","nom_standard":"Carros","nom_a":null,"nom_de":null,"slug_ville":"carros","departement_id":606,"code_postal":"06510","population":13277,"superficie_km2":"15.00","latitude_centre":"43.7849999","longitude_centre":"7.1840000","distance_km":5.02},{"id":414,"code_insee":"06031","nom_standard":"Cantaron","nom_a":null,"nom_de":null,"slug_ville":"cantaron","departement_id":606,"code_postal":"06340","population":1285,"superficie_km2":"7.00","latitude_centre":"43.7709999","longitude_centre":"7.3130002","distance_km":5.48},{"id":459,"code_insee":"06126","nom_standard":"Saint-Martin-du-Var","nom_a":null,"nom_de":null,"slug_ville":"saint-martin-du-var","departement_id":606,"code_postal":"06670","population":3375,"superficie_km2":"5.00","latitude_centre":"43.8170013","longitude_centre":"7.1989999","distance_km":5.95},{"id":427,"code_insee":"06064","nom_standard":"Gattières","nom_a":null,"nom_de":null,"slug_ville":"gattieres","departement_id":606,"code_postal":"06510","population":4287,"superficie_km2":"10.00","latitude_centre":"43.7649994","longitude_centre":"7.1690001","distance_km":6.2},{"id":439,"code_insee":"06088","nom_standard":"Nice","nom_a":null,"nom_de":null,"slug_ville":"nice","departement_id":606,"code_postal":"06000","population":348085,"superficie_km2":"74.00","latitude_centre":"43.7120018","longitude_centre":"7.2379999","distance_km":7.03},{"id":422,"code_insee":"06048","nom_standard":"Contes","nom_a":null,"nom_de":null,"slug_ville":"contes","departement_id":606,"code_postal":"06390","population":7544,"superficie_km2":"20.00","latitude_centre":"43.8089981","longitude_centre":"7.3239999","distance_km":7.38},{"id":423,"code_insee":"06054","nom_standard":"Drap","nom_a":null,"nom_de":null,"slug_ville":"drap","departement_id":606,"code_postal":"06340","population":5238,"superficie_km2":"5.00","latitude_centre":"43.7579994","longitude_centre":"7.3369999","distance_km":7.63},{"id":409,"code_insee":"06025","nom_standard":"Le Broc","nom_a":null,"nom_de":null,"slug_ville":"le-broc","departement_id":606,"code_postal":"06510","population":1422,"superficie_km2":"19.00","latitude_centre":"43.8149986","longitude_centre":"7.1589999","distance_km":8.21},{"id":433,"code_insee":"06075","nom_standard":"Levens","nom_a":null,"nom_de":null,"slug_ville":"levens","departement_id":606,"code_postal":"06670","population":5165,"superficie_km2":"30.00","latitude_centre":"43.8499985","longitude_centre":"7.2399998","distance_km":8.35},{"id":469,"code_insee":"06149","nom_standard":"La Trinité","nom_a":null,"nom_de":null,"slug_ville":"la-trinite","departement_id":606,"code_postal":"06340","population":10276,"superficie_km2":"15.00","latitude_centre":"43.7430000","longitude_centre":"7.3400002","distance_km":8.42},{"id":457,"code_insee":"06122","nom_standard":"Saint-Jeannet","nom_a":null,"nom_de":null,"slug_ville":"saint-jeannet","departement_id":606,"code_postal":"06640","population":4303,"superficie_km2":"15.00","latitude_centre":"43.7589989","longitude_centre":"7.1409998","distance_km":8.54},{"id":428,"code_insee":"06065","nom_standard":"La Gaude","nom_a":null,"nom_de":null,"slug_ville":"la-gaude","departement_id":606,"code_postal":"06610","population":7133,"superficie_km2":"13.00","latitude_centre":"43.7210007","longitude_centre":"7.1599998","distance_km":9.09},{"id":474,"code_insee":"06159","nom_standard":"Villefranche-sur-Mer","nom_a":null,"nom_de":null,"slug_ville":"villefranche-sur-mer","departement_id":606,"code_postal":"06230","population":4989,"superficie_km2":"5.00","latitude_centre":"43.7120018","longitude_centre":"7.3220000","distance_km":9.35},{"id":407,"code_insee":"06019","nom_standard":"Blausasc","nom_a":null,"nom_de":null,"slug_ville":"blausasc","departement_id":606,"code_postal":"06440","population":1659,"superficie_km2":"10.00","latitude_centre":"43.7939987","longitude_centre":"7.3600001","distance_km":9.47}]}