{"ville":{"id":29776,"code_insee":"68014","nom_standard":"Aubure","nom_a":null,"nom_de":null,"slug_ville":"aubure","departement_id":0,"code_postal":"68150","population":353,"superficie_km2":"489.30","latitude_centre":"48.1989","longitude_centre":"7.209","dep_code":"68","dep_nom":"Haut-Rhin","dep_slug":"haut-rhin","reg_code":"44","reg_nom":"Grand Est","reg_slug":"grand-est"},"departement":{"code":"68","nom":"Haut-Rhin","slug":"haut-rhin"},"region":{"code":"44","nom":"Grand Est","slug":"grand-est"},"villes_proches":[{"id":0,"code_insee":"68097","nom_standard":"Fréland","nom_a":null,"nom_de":null,"slug_ville":"freland","departement_id":0,"code_postal":"68240","population":1288,"superficie_km2":"1931.90","latitude_centre":"48.1821","longitude_centre":"7.1829","distance_km":2.69},{"id":0,"code_insee":"68298","nom_standard":"Sainte-Marie-aux-Mines","nom_a":null,"nom_de":null,"slug_ville":"sainte-marie-aux-mines","departement_id":0,"code_postal":"68160","population":4851,"superficie_km2":"4512.24","latitude_centre":"48.2294","longitude_centre":"7.1683","distance_km":4.54},{"id":0,"code_insee":"68277","nom_standard":"Riquewihr","nom_a":null,"nom_de":null,"slug_ville":"riquewihr","departement_id":0,"code_postal":"68340","population":999,"superficie_km2":"1701.65","latitude_centre":"48.1793","longitude_centre":"7.2689","distance_km":4.95},{"id":0,"code_insee":"68175","nom_standard":"Lapoutroie","nom_a":null,"nom_de":null,"slug_ville":"lapoutroie","departement_id":0,"code_postal":"68650","population":1881,"superficie_km2":"2125.92","latitude_centre":"48.1648","longitude_centre":"7.1632","distance_km":5.09},{"id":0,"code_insee":"68269","nom_standard":"Ribeauvillé","nom_a":null,"nom_de":null,"slug_ville":"ribeauville","departement_id":0,"code_postal":"68150","population":4685,"superficie_km2":"3217.71","latitude_centre":"48.2056","longitude_centre":"7.2942","distance_km":6.36},{"id":0,"code_insee":"68147","nom_standard":"Hunawihr","nom_a":null,"nom_de":null,"slug_ville":"hunawihr","departement_id":0,"code_postal":"68150","population":555,"superficie_km2":"474.15","latitude_centre":"48.1827","longitude_centre":"7.2996","distance_km":6.95},{"id":0,"code_insee":"68162","nom_standard":"Kaysersberg Vignoble","nom_a":null,"nom_de":null,"slug_ville":"kaysersberg-vignoble","departement_id":0,"code_postal":"68240","population":4383,"superficie_km2":"3543.78","latitude_centre":"48.1547","longitude_centre":"7.276","distance_km":6.99},{"id":0,"code_insee":"68335","nom_standard":"Thannenkirch","nom_a":null,"nom_de":null,"slug_ville":"thannenkirch","departement_id":0,"code_postal":"68590","population":451,"superficie_km2":"461.57","latitude_centre":"48.2321","longitude_centre":"7.2936","distance_km":7.27},{"id":0,"code_insee":"68294","nom_standard":"Sainte-Croix-aux-Mines","nom_a":null,"nom_de":null,"slug_ville":"sainte-croix-aux-mines","departement_id":0,"code_postal":"68160","population":1742,"superficie_km2":"2799.01","latitude_centre":"48.2646","longitude_centre":"7.2072","distance_km":7.31},{"id":0,"code_insee":"68280","nom_standard":"Rodern","nom_a":null,"nom_de":null,"slug_ville":"rodern","departement_id":0,"code_postal":"68590","population":401,"superficie_km2":"693.20","latitude_centre":"48.2408","longitude_centre":"7.31","distance_km":8.81},{"id":0,"code_insee":"68044","nom_standard":"Le Bonhomme","nom_a":null,"nom_de":null,"slug_ville":"le-bonhomme","departement_id":0,"code_postal":"68650","population":744,"superficie_km2":"2197.91","latitude_centre":"48.1621","longitude_centre":"7.0991","distance_km":9.12},{"id":0,"code_insee":"68185","nom_standard":"Lièpvre","nom_a":null,"nom_de":null,"slug_ville":"liepvre","departement_id":0,"code_postal":"68660","population":1632,"superficie_km2":"1253.40","latitude_centre":"48.2633","longitude_centre":"7.2874","distance_km":9.22},{"id":0,"code_insee":"88193","nom_standard":"Gemaingoutte","nom_a":null,"nom_de":null,"slug_ville":"gemaingoutte","departement_id":0,"code_postal":"88520","population":150,"superficie_km2":"389.49","latitude_centre":"48.2448","longitude_centre":"7.1046","distance_km":9.27},{"id":0,"code_insee":"68209","nom_standard":"Mittelwihr","nom_a":null,"nom_de":null,"slug_ville":"mittelwihr","departement_id":0,"code_postal":"68630","population":853,"superficie_km2":"238.97","latitude_centre":"48.1503","longitude_centre":"7.3143","distance_km":9.5},{"id":0,"code_insee":"88526","nom_standard":"Wisembach","nom_a":null,"nom_de":null,"slug_ville":"wisembach","departement_id":0,"code_postal":"88520","population":427,"superficie_km2":"1120.45","latitude_centre":"48.2588","longitude_centre":"7.1154","distance_km":9.61},{"id":0,"code_insee":"68173","nom_standard":"Labaroche","nom_a":null,"nom_de":null,"slug_ville":"labaroche","departement_id":0,"code_postal":"68910","population":2231,"superficie_km2":"1353.73","latitude_centre":"48.1113","longitude_centre":"7.1916","distance_km":9.83},{"id":0,"code_insee":"68005","nom_standard":"Ammerschwihr","nom_a":null,"nom_de":null,"slug_ville":"ammerschwihr","departement_id":0,"code_postal":"68410","population":1580,"superficie_km2":"1978.87","latitude_centre":"48.1166","longitude_centre":"7.2669","distance_km":10.11},{"id":0,"code_insee":"68283","nom_standard":"Rombach-le-Franc","nom_a":null,"nom_de":null,"slug_ville":"rombach-le-franc","departement_id":0,"code_postal":"68660","population":775,"superficie_km2":"1782.55","latitude_centre":"48.2926","longitude_centre":"7.2424","distance_km":10.71},{"id":0,"code_insee":"68249","nom_standard":"Orbey","nom_a":null,"nom_de":null,"slug_ville":"orbey","departement_id":0,"code_postal":"68370","population":3429,"superficie_km2":"4582.47","latitude_centre":"48.1158","longitude_centre":"7.1341","distance_km":10.78},{"id":0,"code_insee":"68237","nom_standard":"Niedermorschwihr","nom_a":null,"nom_de":null,"slug_ville":"niedermorschwihr","departement_id":0,"code_postal":"68230","population":537,"superficie_km2":"337.53","latitude_centre":"48.1015","longitude_centre":"7.2582","distance_km":11.43}]}