{"ville":{"id":5241,"code_insee":"56006","nom_standard":"Augan","nom_a":null,"nom_de":null,"slug_ville":"augan","departement_id":657,"code_postal":"56800","population":1513,"superficie_km2":"41.00","latitude_centre":"47.9119988","longitude_centre":"-2.2679999","dep_code":"56","dep_nom":"Morbihan","dep_slug":"morbihan","reg_code":"03","reg_nom":"Bretagne","reg_slug":"bretagne"},"departement":{"code":"56","nom":"Morbihan","slug":"morbihan"},"region":{"code":"03","nom":"Bretagne","slug":"bretagne"},"villes_proches":[{"id":5262,"code_insee":"56032","nom_standard":"Campénéac","nom_a":null,"nom_de":null,"slug_ville":"campeneac","departement_id":657,"code_postal":"56800","population":1891,"superficie_km2":"61.00","latitude_centre":"47.9620018","longitude_centre":"-2.2780001","distance_km":5.61},{"id":5265,"code_insee":"56035","nom_standard":"Caro","nom_a":null,"nom_de":null,"slug_ville":"caro","departement_id":657,"code_postal":"56140","population":1138,"superficie_km2":"38.00","latitude_centre":"47.8619995","longitude_centre":"-2.3280001","distance_km":7.14},{"id":5351,"code_insee":"56165","nom_standard":"Ploërmel","nom_a":null,"nom_de":null,"slug_ville":"ploermel","departement_id":657,"code_postal":"56800","population":9879,"superficie_km2":"51.00","latitude_centre":"47.9220009","longitude_centre":"-2.3829999","distance_km":8.64},{"id":5247,"code_insee":"56012","nom_standard":"Beignon","nom_a":null,"nom_de":null,"slug_ville":"beignon","departement_id":657,"code_postal":"56380","population":1947,"superficie_km2":"25.00","latitude_centre":"47.9659996","longitude_centre":"-2.1800001","distance_km":8.89},{"id":5286,"code_insee":"56075","nom_standard":"Guer","nom_a":null,"nom_de":null,"slug_ville":"guer","departement_id":657,"code_postal":"56380","population":6068,"superficie_km2":"52.00","latitude_centre":"47.9070015","longitude_centre":"-2.1289999","distance_km":10.38},{"id":5378,"code_insee":"56200","nom_standard":"Ruffiac","nom_a":null,"nom_de":null,"slug_ville":"ruffiac","departement_id":657,"code_postal":"56140","population":1370,"superficie_km2":"37.00","latitude_centre":"47.8139992","longitude_centre":"-2.2850001","distance_km":10.97},{"id":5326,"code_insee":"56133","nom_standard":"Missiriac","nom_a":null,"nom_de":null,"slug_ville":"missiriac","departement_id":657,"code_postal":"56140","population":1180,"superficie_km2":"13.00","latitude_centre":"47.8240013","longitude_centre":"-2.3559999","distance_km":11.78},{"id":5315,"code_insee":"56122","nom_standard":"Loyat","nom_a":null,"nom_de":null,"slug_ville":"loyat","departement_id":657,"code_postal":"56800","population":1701,"superficie_km2":"42.00","latitude_centre":"47.9920006","longitude_centre":"-2.3840001","distance_km":12.4},{"id":5333,"code_insee":"56145","nom_standard":"Néant-sur-Yvel","nom_a":null,"nom_de":null,"slug_ville":"neant-sur-yvel","departement_id":657,"code_postal":"56430","population":1094,"superficie_km2":"33.00","latitude_centre":"48.0219994","longitude_centre":"-2.3329999","distance_km":13.15},{"id":5263,"code_insee":"56033","nom_standard":"Carentoir","nom_a":null,"nom_de":null,"slug_ville":"carentoir","departement_id":657,"code_postal":"56910","population":3043,"superficie_km2":"59.00","latitude_centre":"47.8199997","longitude_centre":"-2.1459999","distance_km":13.69},{"id":5405,"code_insee":"56249","nom_standard":"Taupont","nom_a":null,"nom_de":null,"slug_ville":"taupont","departement_id":657,"code_postal":"56800","population":2330,"superficie_km2":"31.00","latitude_centre":"47.9620018","longitude_centre":"-2.4430001","distance_km":14.17},{"id":5317,"code_insee":"56124","nom_standard":"Malestroit","nom_a":null,"nom_de":null,"slug_ville":"malestroit","departement_id":657,"code_postal":"56140","population":2509,"superficie_km2":"6.00","latitude_centre":"47.8079987","longitude_centre":"-2.3870001","distance_km":14.58},{"id":5376,"code_insee":"56197","nom_standard":"Val d'Oust","nom_a":null,"nom_de":null,"slug_ville":"val-d-oust","departement_id":657,"code_postal":"56460","population":2790,"superficie_km2":"10.00","latitude_centre":"47.8689995","longitude_centre":"-2.4560001","distance_km":14.81},{"id":3325,"code_insee":"35211","nom_standard":"Paimpont","nom_a":null,"nom_de":null,"slug_ville":"paimpont","departement_id":636,"code_postal":"35380","population":1781,"superficie_km2":"110.00","latitude_centre":"48.0299988","longitude_centre":"-2.1730001","distance_km":14.91},{"id":5390,"code_insee":"56228","nom_standard":"Saint-Marcel","nom_a":null,"nom_de":null,"slug_ville":"saint-marcel","departement_id":657,"code_postal":"56140","population":1127,"superficie_km2":"13.00","latitude_centre":"47.8110008","longitude_centre":"-2.4159999","distance_km":15.75},{"id":5289,"code_insee":"56079","nom_standard":"Guillac","nom_a":null,"nom_de":null,"slug_ville":"guillac","departement_id":657,"code_postal":"56800","population":1383,"superficie_km2":"22.00","latitude_centre":"47.9239998","longitude_centre":"-2.4800000","distance_km":15.85},{"id":5391,"code_insee":"56229","nom_standard":"Saint-Martin-sur-Oust","nom_a":null,"nom_de":null,"slug_ville":"saint-martin-sur-oust","departement_id":657,"code_postal":"56200","population":1298,"superficie_km2":"28.00","latitude_centre":"47.7630005","longitude_centre":"-2.2639999","distance_km":16.57},{"id":3334,"code_insee":"35223","nom_standard":"Plélan-le-Grand","nom_a":null,"nom_de":null,"slug_ville":"plelan-le-grand","departement_id":636,"code_postal":"35380","population":4048,"superficie_km2":"50.00","latitude_centre":"47.9970017","longitude_centre":"-2.0799999","distance_km":16.89},{"id":5278,"code_insee":"56061","nom_standard":"La Gacilly","nom_a":null,"nom_de":null,"slug_ville":"la-gacilly","departement_id":657,"code_postal":"56200","population":3993,"superficie_km2":"17.00","latitude_centre":"47.7729988","longitude_centre":"-2.1559999","distance_km":17.57},{"id":5345,"code_insee":"56159","nom_standard":"Pleucadeuc","nom_a":null,"nom_de":null,"slug_ville":"pleucadeuc","departement_id":657,"code_postal":"56140","population":1835,"superficie_km2":"35.00","latitude_centre":"47.7700005","longitude_centre":"-2.3870001","distance_km":18.12}]}