{"ville":{"id":22049,"code_insee":"45014","nom_standard":"Aulnay-la-Rivière","nom_a":null,"nom_de":null,"slug_ville":"aulnay-la-riviere","departement_id":0,"code_postal":"45390","population":511,"superficie_km2":"1613.43","latitude_centre":"48.2078","longitude_centre":"2.3753","dep_code":"45","dep_nom":"Loiret","dep_slug":"loiret","reg_code":"24","reg_nom":"Centre-Val de Loire","reg_slug":"centre-val-de-loire"},"departement":{"code":"45","nom":"Loiret","slug":"loiret"},"region":{"code":"24","nom":"Centre-Val de Loire","slug":"centre-val-de-loire"},"villes_proches":[{"id":0,"code_insee":"45225","nom_standard":"La Neuville-sur-Essonne","nom_a":null,"nom_de":null,"slug_ville":"la-neuville-sur-essonne","departement_id":0,"code_postal":"45390","population":359,"superficie_km2":"922.39","latitude_centre":"48.1805","longitude_centre":"2.3798","distance_km":3.05},{"id":0,"code_insee":"45233","nom_standard":"Ondreville-sur-Essonne","nom_a":null,"nom_de":null,"slug_ville":"ondreville-sur-essonne","departement_id":0,"code_postal":"45390","population":400,"superficie_km2":"658.27","latitude_centre":"48.1985","longitude_centre":"2.4176","distance_km":3.3},{"id":0,"code_insee":"45054","nom_standard":"Briarres-sur-Essonne","nom_a":null,"nom_de":null,"slug_ville":"briarres-sur-essonne","departement_id":0,"code_postal":"45390","population":527,"superficie_km2":"825.61","latitude_centre":"48.2241","longitude_centre":"2.4167","distance_km":3.56},{"id":0,"code_insee":"45139","nom_standard":"Estouy","nom_a":null,"nom_de":null,"slug_ville":"estouy","departement_id":0,"code_postal":"45300","population":508,"superficie_km2":"1870.00","latitude_centre":"48.1912","longitude_centre":"2.3238","distance_km":4.24},{"id":0,"code_insee":"45159","nom_standard":"Grangermont","nom_a":null,"nom_de":null,"slug_ville":"grangermont","departement_id":0,"code_postal":"45390","population":175,"superficie_km2":"394.81","latitude_centre":"48.1878","longitude_centre":"2.4279","distance_km":4.49},{"id":0,"code_insee":"45125","nom_standard":"Dimancheville","nom_a":null,"nom_de":null,"slug_ville":"dimancheville","departement_id":0,"code_postal":"45390","population":105,"superficie_km2":"235.51","latitude_centre":"48.2393","longitude_centre":"2.4248","distance_km":5.07},{"id":0,"code_insee":"45260","nom_standard":"Ramoulu","nom_a":null,"nom_de":null,"slug_ville":"ramoulu","departement_id":0,"code_postal":"45300","population":241,"superficie_km2":"1202.18","latitude_centre":"48.2306","longitude_centre":"2.3043","distance_km":5.84},{"id":22048,"code_insee":"45013","nom_standard":"Augerville-la-Rivière","nom_a":null,"nom_de":null,"slug_ville":"augerville-la-riviere","departement_id":0,"code_postal":"45330","population":211,"superficie_km2":"402.16","latitude_centre":"48.2542","longitude_centre":"2.4193","distance_km":6.1},{"id":0,"code_insee":"45157","nom_standard":"Givraines","nom_a":null,"nom_de":null,"slug_ville":"givraines","departement_id":0,"code_postal":"45300","population":423,"superficie_km2":"1125.36","latitude_centre":"48.151","longitude_centre":"2.3851","distance_km":6.36},{"id":0,"code_insee":"45131","nom_standard":"Échilleuses","nom_a":null,"nom_de":null,"slug_ville":"echilleuses","departement_id":0,"code_postal":"45390","population":390,"superficie_km2":"1250.30","latitude_centre":"48.1702","longitude_centre":"2.4444","distance_km":6.61},{"id":0,"code_insee":"45258","nom_standard":"Puiseaux","nom_a":null,"nom_de":null,"slug_ville":"puiseaux","departement_id":0,"code_postal":"45390","population":3299,"superficie_km2":"2028.67","latitude_centre":"48.2084","longitude_centre":"2.4679","distance_km":6.86},{"id":0,"code_insee":"45237","nom_standard":"Orville","nom_a":null,"nom_de":null,"slug_ville":"orville","departement_id":0,"code_postal":"45390","population":128,"superficie_km2":"720.76","latitude_centre":"48.243","longitude_centre":"2.4582","distance_km":7.28},{"id":0,"code_insee":"45038","nom_standard":"Bondaroy","nom_a":null,"nom_de":null,"slug_ville":"bondaroy","departement_id":0,"code_postal":"45300","population":411,"superficie_km2":"700.49","latitude_centre":"48.1853","longitude_centre":"2.28","distance_km":7.49},{"id":0,"code_insee":"45033","nom_standard":"Boësses","nom_a":null,"nom_de":null,"slug_ville":"boesses","departement_id":0,"code_postal":"45390","population":384,"superficie_km2":"1309.64","latitude_centre":"48.1503","longitude_centre":"2.4331","distance_km":7.7},{"id":0,"code_insee":"45191","nom_standard":"Le Malesherbois","nom_a":null,"nom_de":null,"slug_ville":"le-malesherbois","departement_id":0,"code_postal":"45300","population":8016,"superficie_km2":"8521.33","latitude_centre":"48.2745","longitude_centre":"2.3392","distance_km":7.88},{"id":0,"code_insee":"77046","nom_standard":"Boulancourt","nom_a":null,"nom_de":null,"slug_ville":"boulancourt","departement_id":0,"code_postal":"77760","population":350,"superficie_km2":"647.43","latitude_centre":"48.2606","longitude_centre":"2.4483","distance_km":7.98},{"id":0,"code_insee":"45348","nom_standard":"Yèvre-la-Ville","nom_a":null,"nom_de":null,"slug_ville":"yevre-la-ville","departement_id":0,"code_postal":"45300","population":652,"superficie_km2":"2667.11","latitude_centre":"48.1404","longitude_centre":"2.326","distance_km":8.34},{"id":0,"code_insee":"45151","nom_standard":"Gaubertin","nom_a":null,"nom_de":null,"slug_ville":"gaubertin","departement_id":0,"code_postal":"45340","population":251,"superficie_km2":"728.43","latitude_centre":"48.1256","longitude_centre":"2.4283","distance_km":9.95},{"id":0,"code_insee":"45050","nom_standard":"Boynes","nom_a":null,"nom_de":null,"slug_ville":"boynes","departement_id":0,"code_postal":"45300","population":1289,"superficie_km2":"1540.91","latitude_centre":"48.1169","longitude_centre":"2.3603","distance_km":10.17},{"id":0,"code_insee":"45021","nom_standard":"Barville-en-Gâtinais","nom_a":null,"nom_de":null,"slug_ville":"barville-en-gatinais","departement_id":0,"code_postal":"45340","population":304,"superficie_km2":"1030.48","latitude_centre":"48.1116","longitude_centre":"2.401","distance_km":10.87}]}