{"ville":{"id":23891,"code_insee":"52028","nom_standard":"Aulnoy-sur-Aube","nom_a":null,"nom_de":null,"slug_ville":"aulnoy-sur-aube","departement_id":0,"code_postal":"52160","population":51,"superficie_km2":"941.69","latitude_centre":"47.8319","longitude_centre":"5.0321","dep_code":"52","dep_nom":"Haute-Marne","dep_slug":"haute-marne","reg_code":"44","reg_nom":"Grand Est","reg_slug":"grand-est"},"departement":{"code":"52","nom":"Haute-Marne","slug":"haute-marne"},"region":{"code":"44","nom":"Grand Est","slug":"grand-est"},"villes_proches":[{"id":23883,"code_insee":"52016","nom_standard":"Arbot","nom_a":null,"nom_de":null,"slug_ville":"arbot","departement_id":0,"code_postal":"52160","population":60,"superficie_km2":"1320.47","latitude_centre":"47.8468","longitude_centre":"5.0166","distance_km":2.02},{"id":0,"code_insee":"52040","nom_standard":"Bay-sur-Aube","nom_a":null,"nom_de":null,"slug_ville":"bay-sur-aube","departement_id":0,"code_postal":"52160","population":45,"superficie_km2":"970.81","latitude_centre":"47.8253","longitude_centre":"5.0588","distance_km":2.12},{"id":0,"code_insee":"52216","nom_standard":"Germaines","nom_a":null,"nom_de":null,"slug_ville":"germaines","departement_id":0,"code_postal":"52160","population":47,"superficie_km2":"867.89","latitude_centre":"47.7991","longitude_centre":"5.0297","distance_km":3.65},{"id":0,"code_insee":"52439","nom_standard":"Rouvres-sur-Aube","nom_a":null,"nom_de":null,"slug_ville":"rouvres-sur-aube","departement_id":0,"code_postal":"52160","population":72,"superficie_km2":"2045.18","latitude_centre":"47.8563","longitude_centre":"4.9914","distance_km":4.07},{"id":0,"code_insee":"52540","nom_standard":"Vitry-en-Montagne","nom_a":null,"nom_de":null,"slug_ville":"vitry-en-montagne","departement_id":0,"code_postal":"52160","population":33,"superficie_km2":"973.02","latitude_centre":"47.8211","longitude_centre":"5.0919","distance_km":4.62},{"id":0,"code_insee":"52437","nom_standard":"Rouelles","nom_a":null,"nom_de":null,"slug_ville":"rouelles","departement_id":0,"code_postal":"52160","population":25,"superficie_km2":"660.52","latitude_centre":"47.8041","longitude_centre":"5.0891","distance_km":5.26},{"id":0,"code_insee":"52138","nom_standard":"Colmier-le-Haut","nom_a":null,"nom_de":null,"slug_ville":"colmier-le-haut","departement_id":0,"code_postal":"52160","population":61,"superficie_km2":"1961.49","latitude_centre":"47.7896","longitude_centre":"4.9801","distance_km":6.1},{"id":0,"code_insee":"52431","nom_standard":"Rochetaillée","nom_a":null,"nom_de":null,"slug_ville":"rochetaillee","departement_id":0,"code_postal":"52210","population":151,"superficie_km2":"2823.35","latitude_centre":"47.8435","longitude_centre":"5.1185","distance_km":6.58},{"id":15281,"code_insee":"21123","nom_standard":"Buxerolles","nom_a":null,"nom_de":null,"slug_ville":"buxerolles","departement_id":0,"code_postal":"21290","population":34,"superficie_km2":"1181.98","latitude_centre":"47.8074","longitude_centre":"4.9511","distance_km":6.63},{"id":0,"code_insee":"52450","nom_standard":"Saint-Loup-sur-Aujon","nom_a":null,"nom_de":null,"slug_ville":"saint-loup-sur-aujon","departement_id":0,"code_postal":"52210","population":128,"superficie_km2":"1957.42","latitude_centre":"47.881","longitude_centre":"5.0881","distance_km":6.87},{"id":23888,"code_insee":"52023","nom_standard":"Auberive","nom_a":null,"nom_de":null,"slug_ville":"auberive","departement_id":0,"code_postal":"52160","population":166,"superficie_km2":"7076.27","latitude_centre":"47.7843","longitude_centre":"5.0948","distance_km":7.07},{"id":15454,"code_insee":"21313","nom_standard":"Gurgy-le-Château","nom_a":null,"nom_de":null,"slug_ville":"gurgy-le-chateau","departement_id":0,"code_postal":"21290","population":45,"superficie_km2":"1767.50","latitude_centre":"47.8349","longitude_centre":"4.936","distance_km":7.18},{"id":15453,"code_insee":"21312","nom_standard":"Gurgy-la-Ville","nom_a":null,"nom_de":null,"slug_ville":"gurgy-la-ville","departement_id":0,"code_postal":"21290","population":26,"superficie_km2":"1275.58","latitude_centre":"47.8503","longitude_centre":"4.939","distance_km":7.24},{"id":0,"code_insee":"52220","nom_standard":"Giey-sur-Aujon","nom_a":null,"nom_de":null,"slug_ville":"giey-sur-aujon","departement_id":0,"code_postal":"52210","population":139,"superficie_km2":"3050.22","latitude_centre":"47.9053","longitude_centre":"5.0587","distance_km":8.4},{"id":15287,"code_insee":"21129","nom_standard":"Chambain","nom_a":null,"nom_de":null,"slug_ville":"chambain","departement_id":0,"code_postal":"21290","population":36,"superficie_km2":"973.45","latitude_centre":"47.7958","longitude_centre":"4.9241","distance_km":9.01},{"id":0,"code_insee":"52137","nom_standard":"Colmier-le-Bas","nom_a":null,"nom_de":null,"slug_ville":"colmier-le-bas","departement_id":0,"code_postal":"52160","population":22,"superficie_km2":"607.66","latitude_centre":"47.7723","longitude_centre":"4.9412","distance_km":9.49},{"id":0,"code_insee":"52526","nom_standard":"Villars-Santenoge","nom_a":null,"nom_de":null,"slug_ville":"villars-santenoge","departement_id":0,"code_postal":"52160","population":82,"superficie_km2":"1977.38","latitude_centre":"47.7451","longitude_centre":"5.0017","distance_km":9.92},{"id":0,"code_insee":"52542","nom_standard":"Vivey","nom_a":null,"nom_de":null,"slug_ville":"vivey","departement_id":0,"code_postal":"52160","population":51,"superficie_km2":"1299.33","latitude_centre":"47.7377","longitude_centre":"5.0608","distance_km":10.69},{"id":23887,"code_insee":"52022","nom_standard":"Aubepierre-sur-Aube","nom_a":null,"nom_de":null,"slug_ville":"aubepierre-sur-aube","departement_id":0,"code_postal":"52210","population":180,"superficie_km2":"4314.08","latitude_centre":"47.9145","longitude_centre":"4.9552","distance_km":10.83},{"id":23884,"code_insee":"52017","nom_standard":"Arc-en-Barrois","nom_a":null,"nom_de":null,"slug_ville":"arc-en-barrois","departement_id":0,"code_postal":"52210","population":671,"superficie_km2":"5038.95","latitude_centre":"47.9485","longitude_centre":"5.0179","distance_km":13.01}]}