{"ville":{"id":18710,"code_insee":"31024","nom_standard":"Auragne","nom_a":null,"nom_de":null,"slug_ville":"auragne","departement_id":0,"code_postal":"31190","population":480,"superficie_km2":"1372.62","latitude_centre":"43.3922","longitude_centre":"1.51","dep_code":"31","dep_nom":"Haute-Garonne","dep_slug":"haute-garonne","reg_code":"76","reg_nom":"Occitanie","reg_slug":"occitanie"},"departement":{"code":"31","nom":"Haute-Garonne","slug":"haute-garonne"},"region":{"code":"76","nom":"Occitanie","slug":"occitanie"},"villes_proches":[{"id":0,"code_insee":"31401","nom_standard":"Noueilles","nom_a":null,"nom_de":null,"slug_ville":"noueilles","departement_id":0,"code_postal":"31450","population":387,"superficie_km2":"557.22","latitude_centre":"43.4135","longitude_centre":"1.5279","distance_km":2.78},{"id":0,"code_insee":"31256","nom_standard":"Labruyère-Dorsa","nom_a":null,"nom_de":null,"slug_ville":"labruyere-dorsa","departement_id":0,"code_postal":"31190","population":317,"superficie_km2":"221.74","latitude_centre":"43.4056","longitude_centre":"1.4712","distance_km":3.47},{"id":0,"code_insee":"31240","nom_standard":"Issus","nom_a":null,"nom_de":null,"slug_ville":"issus","departement_id":0,"code_postal":"31450","population":655,"superficie_km2":"720.68","latitude_centre":"43.4232","longitude_centre":"1.5001","distance_km":3.54},{"id":0,"code_insee":"31332","nom_standard":"Mauvaisin","nom_a":null,"nom_de":null,"slug_ville":"mauvaisin","departement_id":0,"code_postal":"31190","population":233,"superficie_km2":"1110.39","latitude_centre":"43.3587","longitude_centre":"1.5339","distance_km":4.2},{"id":0,"code_insee":"31033","nom_standard":"Auterive","nom_a":null,"nom_de":null,"slug_ville":"auterive","departement_id":0,"code_postal":"31190","population":10456,"superficie_km2":"3733.47","latitude_centre":"43.3579","longitude_centre":"1.4822","distance_km":4.43},{"id":0,"code_insee":"31495","nom_standard":"Saint-Léon","nom_a":null,"nom_de":null,"slug_ville":"saint-leon","departement_id":0,"code_postal":"31560","population":1265,"superficie_km2":"2430.76","latitude_centre":"43.3962","longitude_centre":"1.5645","distance_km":4.43},{"id":0,"code_insee":"31233","nom_standard":"Grépiac","nom_a":null,"nom_de":null,"slug_ville":"grepiac","departement_id":0,"code_postal":"31190","population":1017,"superficie_km2":"818.77","latitude_centre":"43.4053","longitude_centre":"1.4539","distance_km":4.76},{"id":0,"code_insee":"31437","nom_standard":"Pouze","nom_a":null,"nom_de":null,"slug_ville":"pouze","departement_id":0,"code_postal":"31450","population":89,"superficie_km2":"387.09","latitude_centre":"43.4341","longitude_centre":"1.5353","distance_km":5.09},{"id":0,"code_insee":"31572","nom_standard":"Venerque","nom_a":null,"nom_de":null,"slug_ville":"venerque","departement_id":0,"code_postal":"31810","population":2974,"superficie_km2":"1448.51","latitude_centre":"43.4363","longitude_centre":"1.4629","distance_km":6.21},{"id":0,"code_insee":"31058","nom_standard":"Belbèze-de-Lauragais","nom_a":null,"nom_de":null,"slug_ville":"belbeze-de-lauragais","departement_id":0,"code_postal":"31450","population":125,"superficie_km2":"368.19","latitude_centre":"43.4375","longitude_centre":"1.5556","distance_km":6.24},{"id":0,"code_insee":"31171","nom_standard":"Espanès","nom_a":null,"nom_de":null,"slug_ville":"espanes","departement_id":0,"code_postal":"31450","population":273,"superficie_km2":"358.43","latitude_centre":"43.4513","longitude_centre":"1.4885","distance_km":6.8},{"id":0,"code_insee":"31366","nom_standard":"Montbrun-Lauragais","nom_a":null,"nom_de":null,"slug_ville":"montbrun-lauragais","departement_id":0,"code_postal":"31450","population":730,"superficie_km2":"1095.99","latitude_centre":"43.4555","longitude_centre":"1.5219","distance_km":7.1},{"id":0,"code_insee":"31345","nom_standard":"Miremont","nom_a":null,"nom_de":null,"slug_ville":"miremont","departement_id":0,"code_postal":"31190","population":2838,"superficie_km2":"2258.48","latitude_centre":"43.3733","longitude_centre":"1.4177","distance_km":7.75},{"id":0,"code_insee":"31004","nom_standard":"Ayguesvives","nom_a":null,"nom_de":null,"slug_ville":"ayguesvives","departement_id":0,"code_postal":"31450","population":2812,"superficie_km2":"1331.01","latitude_centre":"43.4236","longitude_centre":"1.5965","distance_km":7.81},{"id":0,"code_insee":"31381","nom_standard":"Montgiscard","nom_a":null,"nom_de":null,"slug_ville":"montgiscard","departement_id":0,"code_postal":"31450","population":2587,"superficie_km2":"1321.91","latitude_centre":"43.4507","longitude_centre":"1.5687","distance_km":8.05},{"id":0,"code_insee":"31151","nom_standard":"Corronsac","nom_a":null,"nom_de":null,"slug_ville":"corronsac","departement_id":0,"code_postal":"31450","population":901,"superficie_km2":"633.89","latitude_centre":"43.4707","longitude_centre":"1.4907","distance_km":8.87},{"id":0,"code_insee":"31148","nom_standard":"Clermont-le-Fort","nom_a":null,"nom_de":null,"slug_ville":"clermont-le-fort","departement_id":0,"code_postal":"31810","population":531,"superficie_km2":"1018.11","latitude_centre":"43.4584","longitude_centre":"1.4453","distance_km":9.03},{"id":0,"code_insee":"31162","nom_standard":"Donneville","nom_a":null,"nom_de":null,"slug_ville":"donneville","departement_id":0,"code_postal":"31450","population":1139,"superficie_km2":"271.62","latitude_centre":"43.4728","longitude_centre":"1.5506","distance_km":9.54},{"id":0,"code_insee":"31161","nom_standard":"Deyme","nom_a":null,"nom_de":null,"slug_ville":"deyme","departement_id":0,"code_postal":"31450","population":1468,"superficie_km2":"706.20","latitude_centre":"43.4841","longitude_centre":"1.5311","distance_km":10.36},{"id":0,"code_insee":"31145","nom_standard":"Cintegabelle","nom_a":null,"nom_de":null,"slug_ville":"cintegabelle","departement_id":0,"code_postal":"31550","population":3006,"superficie_km2":"5341.61","latitude_centre":"43.3","longitude_centre":"1.5375","distance_km":10.49}]}