{"ville":{"id":835,"code_insee":"13006","nom_standard":"Aureille","nom_a":null,"nom_de":null,"slug_ville":"aureille","departement_id":613,"code_postal":"13930","population":1541,"superficie_km2":"22.00","latitude_centre":"43.7000008","longitude_centre":"4.9450002","dep_code":"13","dep_nom":"Bouches-du-Rhône","dep_slug":"bouches-du-rhone","reg_code":"18","reg_nom":"Provence-Alpes-Côte d'Azur","reg_slug":"provence-alpes-cote-d-azur"},"departement":{"code":"13","nom":"Bouches-du-Rhône","slug":"bouches-du-rhone"},"region":{"code":"18","nom":"Provence-Alpes-Côte d'Azur","slug":"provence-alpes-cote-d-azur"},"villes_proches":[{"id":888,"code_insee":"13065","nom_standard":"Mouriès","nom_a":null,"nom_de":null,"slug_ville":"mouries","departement_id":613,"code_postal":"13890","population":3414,"superficie_km2":"38.00","latitude_centre":"43.7010002","longitude_centre":"4.8899999","distance_km":4.42},{"id":860,"code_insee":"13035","nom_standard":"Eyguières","nom_a":null,"nom_de":null,"slug_ville":"eyguieres","departement_id":613,"code_postal":"13430","population":6887,"superficie_km2":"69.00","latitude_centre":"43.7029991","longitude_centre":"5.0159998","distance_km":5.72},{"id":859,"code_insee":"13034","nom_standard":"Eygalières","nom_a":null,"nom_de":null,"slug_ville":"eygalieres","departement_id":613,"code_postal":"13810","population":1733,"superficie_km2":"34.00","latitude_centre":"43.7620010","longitude_centre":"4.9520001","distance_km":6.92},{"id":882,"code_insee":"13058","nom_standard":"Maussane-les-Alpilles","nom_a":null,"nom_de":null,"slug_ville":"maussane-les-alpilles","departement_id":613,"code_postal":"13520","population":2396,"superficie_km2":"32.00","latitude_centre":"43.7140007","longitude_centre":"4.8330002","distance_km":9.14},{"id":890,"code_insee":"13067","nom_standard":"Orgon","nom_a":null,"nom_de":null,"slug_ville":"orgon","departement_id":613,"code_postal":"13660","population":2698,"superficie_km2":"35.00","latitude_centre":"43.7799988","longitude_centre":"5.0229998","distance_km":10.88},{"id":923,"code_insee":"13103","nom_standard":"Salon-de-Provence","nom_a":null,"nom_de":null,"slug_ville":"salon-de-provence","departement_id":613,"code_postal":"13300","population":44731,"superficie_km2":"71.00","latitude_centre":"43.6459999","longitude_centre":"5.0679998","distance_km":11.57},{"id":874,"code_insee":"13049","nom_standard":"Lamanon","nom_a":null,"nom_de":null,"slug_ville":"lamanon","departement_id":613,"code_postal":"13113","population":2046,"superficie_km2":"19.00","latitude_centre":"43.7050018","longitude_centre":"5.0890002","distance_km":11.59},{"id":887,"code_insee":"13064","nom_standard":"Mollégès","nom_a":null,"nom_de":null,"slug_ville":"molleges","departement_id":613,"code_postal":"13940","population":2666,"superficie_km2":"14.00","latitude_centre":"43.8050003","longitude_centre":"4.9489999","distance_km":11.68},{"id":920,"code_insee":"13100","nom_standard":"Saint-Rémy-de-Provence","nom_a":null,"nom_de":null,"slug_ville":"saint-remy-de-provence","departement_id":613,"code_postal":"13210","population":9619,"superficie_km2":"90.00","latitude_centre":"43.7830010","longitude_centre":"4.8540001","distance_km":11.77},{"id":918,"code_insee":"13097","nom_standard":"Saint-Martin-de-Crau","nom_a":null,"nom_de":null,"slug_ville":"saint-martin-de-crau","departement_id":613,"code_postal":"13310","population":13729,"superficie_km2":"215.00","latitude_centre":"43.6119995","longitude_centre":"4.8569999","distance_km":12.08},{"id":925,"code_insee":"13105","nom_standard":"Sénas","nom_a":null,"nom_de":null,"slug_ville":"senas","departement_id":613,"code_postal":"13560","population":6838,"superficie_km2":"31.00","latitude_centre":"43.7449989","longitude_centre":"5.0869999","distance_km":12.46},{"id":869,"code_insee":"13044","nom_standard":"Grans","nom_a":null,"nom_de":null,"slug_ville":"grans","departement_id":613,"code_postal":"13450","population":5274,"superficie_km2":"28.00","latitude_centre":"43.6139984","longitude_centre":"5.0450001","distance_km":12.5},{"id":891,"code_insee":"13068","nom_standard":"Paradou","nom_a":null,"nom_de":null,"slug_ville":"paradou","departement_id":613,"code_postal":"13520","population":2200,"superficie_km2":"16.00","latitude_centre":"43.7080002","longitude_centre":"4.7779999","distance_km":13.45},{"id":899,"code_insee":"13076","nom_standard":"Plan-d'Orgon","nom_a":null,"nom_de":null,"slug_ville":"plan-d-orgon","departement_id":613,"code_postal":"13750","population":3552,"superficie_km2":"15.00","latitude_centre":"43.8180008","longitude_centre":"5.0019999","distance_km":13.9},{"id":886,"code_insee":"13063","nom_standard":"Miramas","nom_a":null,"nom_de":null,"slug_ville":"miramas","departement_id":613,"code_postal":"13140","population":26405,"superficie_km2":"26.00","latitude_centre":"43.5839996","longitude_centre":"5.0139999","distance_km":14.04},{"id":912,"code_insee":"13089","nom_standard":"Saint-Andiol","nom_a":null,"nom_de":null,"slug_ville":"saint-andiol","departement_id":613,"code_postal":"13670","population":3380,"superficie_km2":"16.00","latitude_centre":"43.8310013","longitude_centre":"4.9499998","distance_km":14.57},{"id":832,"code_insee":"13003","nom_standard":"Alleins","nom_a":null,"nom_de":null,"slug_ville":"alleins","departement_id":613,"code_postal":"13980","population":2764,"superficie_km2":"17.00","latitude_centre":"43.7070007","longitude_centre":"5.1510000","distance_km":16.58},{"id":872,"code_insee":"13047","nom_standard":"Istres","nom_a":null,"nom_de":null,"slug_ville":"istres","departement_id":613,"code_postal":"13118","population":44577,"superficie_km2":"114.00","latitude_centre":"43.5499992","longitude_centre":"4.9510002","distance_km":16.69},{"id":854,"code_insee":"13029","nom_standard":"Cornillon-Confoux","nom_a":null,"nom_de":null,"slug_ville":"cornillon-confoux","departement_id":613,"code_postal":"13250","population":1571,"superficie_km2":"15.00","latitude_centre":"43.5779991","longitude_centre":"5.0770001","distance_km":17.23},{"id":8917,"code_insee":"84038","nom_standard":"Cheval-Blanc","nom_a":null,"nom_de":null,"slug_ville":"cheval-blanc","departement_id":685,"code_postal":"84460","population":4317,"superficie_km2":"59.00","latitude_centre":"43.7890015","longitude_centre":"5.1240001","distance_km":17.46}]}