{"ville":{"id":18715,"code_insee":"31031","nom_standard":"Ausson","nom_a":null,"nom_de":null,"slug_ville":"ausson","departement_id":0,"code_postal":"31210","population":596,"superficie_km2":"440.28","latitude_centre":"43.0916","longitude_centre":"0.5894","dep_code":"31","dep_nom":"Haute-Garonne","dep_slug":"haute-garonne","reg_code":"76","reg_nom":"Occitanie","reg_slug":"occitanie"},"departement":{"code":"31","nom":"Haute-Garonne","slug":"haute-garonne"},"region":{"code":"76","nom":"Occitanie","slug":"occitanie"},"villes_proches":[{"id":0,"code_insee":"31430","nom_standard":"Ponlat-Taillebourg","nom_a":null,"nom_de":null,"slug_ville":"ponlat-taillebourg","departement_id":0,"code_postal":"31210","population":633,"superficie_km2":"867.07","latitude_centre":"43.1097","longitude_centre":"0.5943","distance_km":2.05},{"id":0,"code_insee":"31390","nom_standard":"Montréjeau","nom_a":null,"nom_de":null,"slug_ville":"montrejeau","departement_id":0,"code_postal":"31210","population":2648,"superficie_km2":"797.10","latitude_centre":"43.0876","longitude_centre":"0.5588","distance_km":2.52},{"id":0,"code_insee":"31224","nom_standard":"Gourdan-Polignan","nom_a":null,"nom_de":null,"slug_ville":"gourdan-polignan","departement_id":0,"code_postal":"31210","population":1177,"superficie_km2":"525.66","latitude_centre":"43.0708","longitude_centre":"0.5745","distance_km":2.61},{"id":0,"code_insee":"31238","nom_standard":"Huos","nom_a":null,"nom_de":null,"slug_ville":"huos","departement_id":0,"code_postal":"31210","population":491,"superficie_km2":"405.56","latitude_centre":"43.0673","longitude_centre":"0.6","distance_km":2.84},{"id":0,"code_insee":"31426","nom_standard":"Pointis-de-Rivière","nom_a":null,"nom_de":null,"slug_ville":"pointis-de-riviere","departement_id":0,"code_postal":"31210","population":825,"superficie_km2":"665.90","latitude_centre":"43.0909","longitude_centre":"0.626","distance_km":2.97},{"id":0,"code_insee":"31147","nom_standard":"Clarac","nom_a":null,"nom_de":null,"slug_ville":"clarac","departement_id":0,"code_postal":"31210","population":672,"superficie_km2":"471.67","latitude_centre":"43.1113","longitude_centre":"0.615","distance_km":3.02},{"id":0,"code_insee":"65307","nom_standard":"Mazères-de-Neste","nom_a":null,"nom_de":null,"slug_ville":"mazeres-de-neste","departement_id":0,"code_postal":"65150","population":350,"superficie_km2":"339.95","latitude_centre":"43.0798","longitude_centre":"0.5432","distance_km":3.97},{"id":0,"code_insee":"31556","nom_standard":"Les Tourreilles","nom_a":null,"nom_de":null,"slug_ville":"les-tourreilles","departement_id":0,"code_postal":"31210","population":376,"superficie_km2":"1236.37","latitude_centre":"43.1127","longitude_centre":"0.5498","distance_km":3.98},{"id":0,"code_insee":"31323","nom_standard":"Martres-de-Rivière","nom_a":null,"nom_de":null,"slug_ville":"martres-de-riviere","departement_id":0,"code_postal":"31210","population":418,"superficie_km2":"360.25","latitude_centre":"43.0834","longitude_centre":"0.6422","distance_km":4.38},{"id":0,"code_insee":"31542","nom_standard":"Seilhan","nom_a":null,"nom_de":null,"slug_ville":"seilhan","departement_id":0,"code_postal":"31510","population":207,"superficie_km2":"475.58","latitude_centre":"43.0517","longitude_centre":"0.581","distance_km":4.49},{"id":0,"code_insee":"31143","nom_standard":"Cier-de-Rivière","nom_a":null,"nom_de":null,"slug_ville":"cier-de-riviere","departement_id":0,"code_postal":"31510","population":266,"superficie_km2":"938.43","latitude_centre":"43.0605","longitude_centre":"0.6295","distance_km":4.75},{"id":0,"code_insee":"31076","nom_standard":"Bordes-de-Rivière","nom_a":null,"nom_de":null,"slug_ville":"bordes-de-riviere","departement_id":0,"code_postal":"31210","population":461,"superficie_km2":"846.15","latitude_centre":"43.1241","longitude_centre":"0.6347","distance_km":5.16},{"id":18701,"code_insee":"31013","nom_standard":"Ardiège","nom_a":null,"nom_de":null,"slug_ville":"ardiege","departement_id":0,"code_postal":"31210","population":381,"superficie_km2":"394.94","latitude_centre":"43.0647","longitude_centre":"0.6424","distance_km":5.24},{"id":0,"code_insee":"31255","nom_standard":"Labroquère","nom_a":null,"nom_de":null,"slug_ville":"labroquere","departement_id":0,"code_postal":"31510","population":324,"superficie_km2":"442.04","latitude_centre":"43.0433","longitude_centre":"0.5874","distance_km":5.37},{"id":0,"code_insee":"65444","nom_standard":"Tibiran-Jaunac","nom_a":null,"nom_de":null,"slug_ville":"tibiran-jaunac","departement_id":0,"code_postal":"65150","population":327,"superficie_km2":"638.37","latitude_centre":"43.0539","longitude_centre":"0.5481","distance_km":5.37},{"id":0,"code_insee":"31305","nom_standard":"Loudet","nom_a":null,"nom_de":null,"slug_ville":"loudet","departement_id":0,"code_postal":"31580","population":191,"superficie_km2":"518.51","latitude_centre":"43.1397","longitude_centre":"0.5755","distance_km":5.47},{"id":0,"code_insee":"31159","nom_standard":"Le Cuing","nom_a":null,"nom_de":null,"slug_ville":"le-cuing","departement_id":0,"code_postal":"31210","population":482,"superficie_km2":"1304.18","latitude_centre":"43.1479","longitude_centre":"0.6205","distance_km":6.75},{"id":0,"code_insee":"31564","nom_standard":"Valcabrère","nom_a":null,"nom_de":null,"slug_ville":"valcabrere","departement_id":0,"code_postal":"31510","population":151,"superficie_km2":"161.27","latitude_centre":"43.03","longitude_centre":"0.5828","distance_km":6.87},{"id":0,"code_insee":"31045","nom_standard":"Barbazan","nom_a":null,"nom_de":null,"slug_ville":"barbazan","departement_id":0,"code_postal":"31510","population":512,"superficie_km2":"612.54","latitude_centre":"43.0344","longitude_centre":"0.6223","distance_km":6.9},{"id":0,"code_insee":"65287","nom_standard":"Loures-Barousse","nom_a":null,"nom_de":null,"slug_ville":"loures-barousse","departement_id":0,"code_postal":"65370","population":683,"superficie_km2":"219.40","latitude_centre":"43.0265","longitude_centre":"0.604","distance_km":7.34}]}