{"ville":{"id":11822,"code_insee":"08033","nom_standard":"Authe","nom_a":null,"nom_de":null,"slug_ville":"authe","departement_id":0,"code_postal":"08240","population":94,"superficie_km2":"957.93","latitude_centre":"49.4615","longitude_centre":"4.8789","dep_code":"08","dep_nom":"Ardennes","dep_slug":"ardennes","reg_code":"44","reg_nom":"Grand Est","reg_slug":"grand-est"},"departement":{"code":"08","nom":"Ardennes","slug":"ardennes"},"region":{"code":"44","nom":"Grand Est","slug":"grand-est"},"villes_proches":[{"id":0,"code_insee":"08035","nom_standard":"Autruche","nom_a":null,"nom_de":null,"slug_ville":"autruche","departement_id":0,"code_postal":"08240","population":49,"superficie_km2":"833.21","latitude_centre":"49.4525","longitude_centre":"4.9067","distance_km":2.24},{"id":0,"code_insee":"08085","nom_standard":"Brieulles-sur-Bar","nom_a":null,"nom_de":null,"slug_ville":"brieulles-sur-bar","departement_id":0,"code_postal":"08240","population":224,"superficie_km2":"1314.26","latitude_centre":"49.4802","longitude_centre":"4.865","distance_km":2.31},{"id":0,"code_insee":"08186","nom_standard":"Germont","nom_a":null,"nom_de":null,"slug_ville":"germont","departement_id":0,"code_postal":"08240","population":51,"superficie_km2":"488.97","latitude_centre":"49.4338","longitude_centre":"4.8778","distance_km":3.08},{"id":0,"code_insee":"08471","nom_standard":"Verrières","nom_a":null,"nom_de":null,"slug_ville":"verrieres","departement_id":0,"code_postal":"08390","population":33,"superficie_km2":"635.87","latitude_centre":"49.4944","longitude_centre":"4.8854","distance_km":3.69},{"id":0,"code_insee":"08215","nom_standard":"Harricourt","nom_a":null,"nom_de":null,"slug_ville":"harricourt","departement_id":0,"code_postal":"08240","population":46,"superficie_km2":"796.32","latitude_centre":"49.4389","longitude_centre":"4.9248","distance_km":4.16},{"id":0,"code_insee":"08057","nom_standard":"Belleville-et-Châtillon-sur-Bar","nom_a":null,"nom_de":null,"slug_ville":"belleville-et-chatillon-sur-bar","departement_id":0,"code_postal":"08240","population":240,"superficie_km2":"2142.22","latitude_centre":"49.4624","longitude_centre":"4.8178","distance_km":4.42},{"id":11811,"code_insee":"08020","nom_standard":"Les Petites-Armoises","nom_a":null,"nom_de":null,"slug_ville":"les-petites-armoises","departement_id":0,"code_postal":"08390","population":58,"superficie_km2":"442.11","latitude_centre":"49.5004","longitude_centre":"4.8292","distance_km":5.62},{"id":0,"code_insee":"08075","nom_standard":"Boult-aux-Bois","nom_a":null,"nom_de":null,"slug_ville":"boult-aux-bois","departement_id":0,"code_postal":"08240","population":157,"superficie_km2":"1516.49","latitude_centre":"49.4171","longitude_centre":"4.8365","distance_km":5.81},{"id":0,"code_insee":"08049","nom_standard":"Bar-lès-Buzancy","nom_a":null,"nom_de":null,"slug_ville":"bar-les-buzancy","departement_id":0,"code_postal":"08240","population":115,"superficie_km2":"925.88","latitude_centre":"49.4433","longitude_centre":"4.9562","distance_km":5.94},{"id":0,"code_insee":"08434","nom_standard":"Sy","nom_a":null,"nom_de":null,"slug_ville":"sy","departement_id":0,"code_postal":"08390","population":58,"superficie_km2":"795.11","latitude_centre":"49.515","longitude_centre":"4.8742","distance_km":5.96},{"id":0,"code_insee":"08325","nom_standard":"Noirval","nom_a":null,"nom_de":null,"slug_ville":"noirval","departement_id":0,"code_postal":"08400","population":28,"superficie_km2":"492.14","latitude_centre":"49.4573","longitude_centre":"4.7948","distance_km":6.1},{"id":0,"code_insee":"08394","nom_standard":"Saint-Pierremont","nom_a":null,"nom_de":null,"slug_ville":"saint-pierremont","departement_id":0,"code_postal":"08240","population":70,"superficie_km2":"1991.37","latitude_centre":"49.4938","longitude_centre":"4.949","distance_km":6.21},{"id":0,"code_insee":"08332","nom_standard":"Oches","nom_a":null,"nom_de":null,"slug_ville":"oches","departement_id":0,"code_postal":"08240","population":33,"superficie_km2":"677.30","latitude_centre":"49.509","longitude_centre":"4.9265","distance_km":6.3},{"id":0,"code_insee":"08086","nom_standard":"Briquenay","nom_a":null,"nom_de":null,"slug_ville":"briquenay","departement_id":0,"code_postal":"08240","population":89,"superficie_km2":"1451.16","latitude_centre":"49.4029","longitude_centre":"4.8699","distance_km":6.55},{"id":0,"code_insee":"08446","nom_standard":"Thénorgues","nom_a":null,"nom_de":null,"slug_ville":"thenorgues","departement_id":0,"code_postal":"08240","population":85,"superficie_km2":"928.48","latitude_centre":"49.4059","longitude_centre":"4.9251","distance_km":7.03},{"id":11810,"code_insee":"08019","nom_standard":"Les Grandes-Armoises","nom_a":null,"nom_de":null,"slug_ville":"les-grandes-armoises","departement_id":0,"code_postal":"08390","population":53,"superficie_km2":"451.23","latitude_centre":"49.5292","longitude_centre":"4.8978","distance_km":7.65},{"id":0,"code_insee":"08061","nom_standard":"La Berlière","nom_a":null,"nom_de":null,"slug_ville":"la-berliere","departement_id":0,"code_postal":"08240","population":38,"superficie_km2":"1043.30","latitude_centre":"49.5265","longitude_centre":"4.943","distance_km":8.58},{"id":0,"code_insee":"08439","nom_standard":"Tannay-le-Mont-Dieu","nom_a":null,"nom_de":null,"slug_ville":"tannay-le-mont-dieu","departement_id":0,"code_postal":"08390","population":163,"superficie_km2":"3266.01","latitude_centre":"49.5379","longitude_centre":"4.8499","distance_km":8.75},{"id":0,"code_insee":"08470","nom_standard":"Verpel","nom_a":null,"nom_de":null,"slug_ville":"verpel","departement_id":0,"code_postal":"08240","population":62,"superficie_km2":"1528.20","latitude_centre":"49.3811","longitude_centre":"4.9266","distance_km":9.58},{"id":0,"code_insee":"08056","nom_standard":"Beffu-et-le-Morthomme","nom_a":null,"nom_de":null,"slug_ville":"beffu-et-le-morthomme","departement_id":0,"code_postal":"08250","population":43,"superficie_km2":"555.01","latitude_centre":"49.3731","longitude_centre":"4.8933","distance_km":9.88}]}