{"ville":{"id":6271,"code_insee":"62060","nom_standard":"Auxi-le-Château","nom_a":null,"nom_de":null,"slug_ville":"auxi-le-chateau","departement_id":663,"code_postal":"62390","population":2556,"superficie_km2":"27.00","latitude_centre":"50.2309990","longitude_centre":"2.1170001","dep_code":"62","dep_nom":"Pas-de-Calais","dep_slug":"pas-de-calais","reg_code":"09","reg_nom":"Hauts-de-France","reg_slug":"hauts-de-france"},"departement":{"code":"62","nom":"Pas-de-Calais","slug":"pas-de-calais"},"region":{"code":"09","nom":"Hauts-de-France","slug":"hauts-de-france"},"villes_proches":[{"id":8557,"code_insee":"80086","nom_standard":"Bernaville","nom_a":null,"nom_de":null,"slug_ville":"bernaville","departement_id":681,"code_postal":"80370","population":1051,"superficie_km2":"17.00","latitude_centre":"50.1349983","longitude_centre":"2.1760001","distance_km":11.47},{"id":6350,"code_insee":"62361","nom_standard":"Frévent","nom_a":null,"nom_de":null,"slug_ville":"frevent","departement_id":663,"code_postal":"62270","population":3318,"superficie_km2":"15.00","latitude_centre":"50.2709999","longitude_centre":"2.2930000","distance_km":13.28},{"id":6405,"code_insee":"62549","nom_standard":"Marconne","nom_a":null,"nom_de":null,"slug_ville":"marconne","departement_id":663,"code_postal":"62140","population":1061,"superficie_km2":"4.00","latitude_centre":"50.3660011","longitude_centre":"2.0320001","distance_km":16.18},{"id":6371,"code_insee":"62447","nom_standard":"Hesdin","nom_a":null,"nom_de":null,"slug_ville":"hesdin","departement_id":663,"code_postal":"62140","population":2222,"superficie_km2":"1.00","latitude_centre":"50.3740006","longitude_centre":"2.0380001","distance_km":16.86},{"id":8630,"code_insee":"80716","nom_standard":"Saint-Riquier","nom_a":null,"nom_de":null,"slug_ville":"saint-riquier","departement_id":681,"code_postal":"80135","population":1257,"superficie_km2":"15.00","latitude_centre":"50.1279984","longitude_centre":"1.9430000","distance_km":16.87},{"id":8573,"code_insee":"80241","nom_standard":"Domart-en-Ponthieu","nom_a":null,"nom_de":null,"slug_ville":"domart-en-ponthieu","departement_id":681,"code_postal":"80620","population":1052,"superficie_km2":"18.00","latitude_centre":"50.0760002","longitude_centre":"2.1229999","distance_km":17.24},{"id":6406,"code_insee":"62550","nom_standard":"Marconnelle","nom_a":null,"nom_de":null,"slug_ville":"marconnelle","departement_id":663,"code_postal":"62140","population":1085,"superficie_km2":"6.00","latitude_centre":"50.3699989","longitude_centre":"2.0070000","distance_km":17.32},{"id":8574,"code_insee":"80253","nom_standard":"Doullens","nom_a":null,"nom_de":null,"slug_ville":"doullens","departement_id":681,"code_postal":"80600","population":5835,"superficie_km2":"33.00","latitude_centre":"50.1629982","longitude_centre":"2.3469999","distance_km":18.03},{"id":8563,"code_insee":"80168","nom_standard":"Candas","nom_a":null,"nom_de":null,"slug_ville":"candas","departement_id":681,"code_postal":"80750","population":1066,"superficie_km2":"17.00","latitude_centre":"50.0999985","longitude_centre":"2.2800000","distance_km":18.63},{"id":8547,"code_insee":"80009","nom_standard":"Ailly-le-Haut-Clocher","nom_a":null,"nom_de":null,"slug_ville":"ailly-le-haut-clocher","departement_id":681,"code_postal":"80690","population":1016,"superficie_km2":"11.00","latitude_centre":"50.0810013","longitude_centre":"1.9960001","distance_km":18.77},{"id":8569,"code_insee":"80222","nom_standard":"Crécy-en-Ponthieu","nom_a":null,"nom_de":null,"slug_ville":"crecy-en-ponthieu","departement_id":681,"code_postal":"80150","population":1359,"superficie_km2":"57.00","latitude_centre":"50.2400017","longitude_centre":"1.8450000","distance_km":19.37},{"id":8627,"code_insee":"80706","nom_standard":"Saint-Léger-lès-Domart","nom_a":null,"nom_de":null,"slug_ville":"saint-leger-les-domart","departement_id":681,"code_postal":"80780","population":1827,"superficie_km2":"7.00","latitude_centre":"50.0559998","longitude_centre":"2.1400001","distance_km":19.53},{"id":6268,"code_insee":"62050","nom_standard":"Auchy-lès-Hesdin","nom_a":null,"nom_de":null,"slug_ville":"auchy-les-hesdin","departement_id":663,"code_postal":"62770","population":1531,"superficie_km2":"10.00","latitude_centre":"50.4090004","longitude_centre":"2.0950000","distance_km":19.85},{"id":8556,"code_insee":"80071","nom_standard":"Beauval","nom_a":null,"nom_de":null,"slug_ville":"beauval","departement_id":681,"code_postal":"80630","population":1984,"superficie_km2":"23.00","latitude_centre":"50.1080017","longitude_centre":"2.3290000","distance_km":20.37},{"id":8558,"code_insee":"80093","nom_standard":"Berteaucourt-les-Dames","nom_a":null,"nom_de":null,"slug_ville":"berteaucourt-les-dames","departement_id":681,"code_postal":"80850","population":1089,"superficie_km2":"5.00","latitude_centre":"50.0419998","longitude_centre":"2.1570001","distance_km":21.21},{"id":8628,"code_insee":"80711","nom_standard":"Saint-Ouen","nom_a":null,"nom_de":null,"slug_ville":"saint-ouen","departement_id":681,"code_postal":"80610","population":1781,"superficie_km2":"4.00","latitude_centre":"50.0340004","longitude_centre":"2.1310000","distance_km":21.93},{"id":6407,"code_insee":"62552","nom_standard":"Maresquel-Ecquemicourt","nom_a":null,"nom_de":null,"slug_ville":"maresquel-ecquemicourt","departement_id":663,"code_postal":"62990","population":1048,"superficie_km2":"8.00","latitude_centre":"50.4000015","longitude_centre":"1.9349999","distance_km":22.81},{"id":8579,"code_insee":"80296","nom_standard":"L'Étoile","nom_a":null,"nom_de":null,"slug_ville":"l-etoile","departement_id":681,"code_postal":"80830","population":1156,"superficie_km2":"8.00","latitude_centre":"50.0260010","longitude_centre":"2.0380001","distance_km":23.48},{"id":8614,"code_insee":"80635","nom_standard":"Pont-Remy","nom_a":null,"nom_de":null,"slug_ville":"pont-remy","departement_id":681,"code_postal":"80580","population":1464,"superficie_km2":"10.00","latitude_centre":"50.0620003","longitude_centre":"1.9150000","distance_km":23.67},{"id":8604,"code_insee":"80584","nom_standard":"Naours","nom_a":null,"nom_de":null,"slug_ville":"naours","departement_id":681,"code_postal":"80260","population":1063,"superficie_km2":"17.00","latitude_centre":"50.0449982","longitude_centre":"2.2839999","distance_km":23.86}]}