{"ville":{"id":19133,"code_insee":"32021","nom_standard":"Avensac","nom_a":null,"nom_de":null,"slug_ville":"avensac","departement_id":0,"code_postal":"32120","population":73,"superficie_km2":"485.49","latitude_centre":"43.83","longitude_centre":"0.9007","dep_code":"32","dep_nom":"Gers","dep_slug":"gers","reg_code":"76","reg_nom":"Occitanie","reg_slug":"occitanie"},"departement":{"code":"32","nom":"Gers","slug":"gers"},"region":{"code":"76","nom":"Occitanie","slug":"occitanie"},"villes_proches":[{"id":0,"code_insee":"82103","nom_standard":"Marignac","nom_a":null,"nom_de":null,"slug_ville":"marignac","departement_id":0,"code_postal":"82500","population":101,"superficie_km2":"507.39","latitude_centre":"43.8411","longitude_centre":"0.9191","distance_km":1.92},{"id":0,"code_insee":"82106","nom_standard":"Maubec","nom_a":null,"nom_de":null,"slug_ville":"maubec","departement_id":0,"code_postal":"82500","population":160,"superficie_km2":"1282.51","latitude_centre":"43.8091","longitude_centre":"0.9266","distance_km":3.12},{"id":0,"code_insee":"32436","nom_standard":"Solomiac","nom_a":null,"nom_de":null,"slug_ville":"solomiac","departement_id":0,"code_postal":"32120","population":496,"superficie_km2":"1387.70","latitude_centre":"43.8036","longitude_centre":"0.8867","distance_km":3.14},{"id":0,"code_insee":"32313","nom_standard":"Pessoulens","nom_a":null,"nom_de":null,"slug_ville":"pessoulens","departement_id":0,"code_postal":"32380","population":137,"superficie_km2":"1266.70","latitude_centre":"43.8617","longitude_centre":"0.885","distance_km":3.74},{"id":0,"code_insee":"32129","nom_standard":"Estramiac","nom_a":null,"nom_de":null,"slug_ville":"estramiac","departement_id":0,"code_postal":"32380","population":119,"superficie_km2":"976.82","latitude_centre":"43.8355","longitude_centre":"0.8481","distance_km":4.26},{"id":0,"code_insee":"82047","nom_standard":"Cumont","nom_a":null,"nom_de":null,"slug_ville":"cumont","departement_id":0,"code_postal":"82500","population":50,"superficie_km2":"738.84","latitude_centre":"43.8722","longitude_centre":"0.9041","distance_km":4.7},{"id":0,"code_insee":"32154","nom_standard":"Homps","nom_a":null,"nom_de":null,"slug_ville":"homps","departement_id":0,"code_postal":"32120","population":109,"superficie_km2":"936.99","latitude_centre":"43.8103","longitude_centre":"0.845","distance_km":4.98},{"id":0,"code_insee":"82068","nom_standard":"Gimat","nom_a":null,"nom_de":null,"slug_ville":"gimat","departement_id":0,"code_postal":"82500","population":213,"superficie_km2":"1016.47","latitude_centre":"43.8654","longitude_centre":"0.9398","distance_km":5.03},{"id":0,"code_insee":"82071","nom_standard":"Goas","nom_a":null,"nom_de":null,"slug_ville":"goas","departement_id":0,"code_postal":"82500","population":36,"superficie_km2":"270.64","latitude_centre":"43.8158","longitude_centre":"0.9619","distance_km":5.16},{"id":0,"code_insee":"82059","nom_standard":"Faudoas","nom_a":null,"nom_de":null,"slug_ville":"faudoas","departement_id":0,"code_postal":"82500","population":291,"superficie_km2":"1911.26","latitude_centre":"43.8354","longitude_centre":"0.9689","distance_km":5.5},{"id":0,"code_insee":"82091","nom_standard":"Lamothe-Cumont","nom_a":null,"nom_de":null,"slug_ville":"lamothe-cumont","departement_id":0,"code_postal":"82500","population":126,"superficie_km2":"540.87","latitude_centre":"43.8818","longitude_centre":"0.915","distance_km":5.87},{"id":0,"code_insee":"82006","nom_standard":"Auterive","nom_a":null,"nom_de":null,"slug_ville":"auterive","departement_id":0,"code_postal":"82500","population":65,"superficie_km2":"368.52","latitude_centre":"43.8555","longitude_centre":"0.968","distance_km":6.1},{"id":0,"code_insee":"82036","nom_standard":"Le Causé","nom_a":null,"nom_de":null,"slug_ville":"le-cause","departement_id":0,"code_postal":"82500","population":131,"superficie_km2":"939.69","latitude_centre":"43.802","longitude_centre":"0.9714","distance_km":6.47},{"id":0,"code_insee":"32452","nom_standard":"Tournecoupe","nom_a":null,"nom_de":null,"slug_ville":"tournecoupe","departement_id":0,"code_postal":"32380","population":262,"superficie_km2":"1917.68","latitude_centre":"43.8615","longitude_centre":"0.8302","distance_km":6.65},{"id":0,"code_insee":"32416","nom_standard":"Sarrant","nom_a":null,"nom_de":null,"slug_ville":"sarrant","departement_id":0,"code_postal":"32120","population":358,"superficie_km2":"2009.60","latitude_centre":"43.7698","longitude_centre":"0.9317","distance_km":7.14},{"id":0,"code_insee":"82070","nom_standard":"Glatens","nom_a":null,"nom_de":null,"slug_ville":"glatens","departement_id":0,"code_postal":"82500","population":68,"superficie_km2":"233.54","latitude_centre":"43.8943","longitude_centre":"0.9202","distance_km":7.32},{"id":0,"code_insee":"32173","nom_standard":"Labrihe","nom_a":null,"nom_de":null,"slug_ville":"labrihe","departement_id":0,"code_postal":"32120","population":212,"superficie_km2":"955.86","latitude_centre":"43.7652","longitude_centre":"0.8752","distance_km":7.49},{"id":0,"code_insee":"32139","nom_standard":"Gaudonville","nom_a":null,"nom_de":null,"slug_ville":"gaudonville","departement_id":0,"code_postal":"32380","population":101,"superficie_km2":"741.59","latitude_centre":"43.8844","longitude_centre":"0.8446","distance_km":7.54},{"id":0,"code_insee":"32084","nom_standard":"Castéron","nom_a":null,"nom_de":null,"slug_ville":"casteron","departement_id":0,"code_postal":"32380","population":54,"superficie_km2":"1112.30","latitude_centre":"43.9044","longitude_centre":"0.8741","distance_km":8.54},{"id":0,"code_insee":"82107","nom_standard":"Maumusson","nom_a":null,"nom_de":null,"slug_ville":"maumusson","departement_id":0,"code_postal":"82120","population":51,"superficie_km2":"510.26","latitude_centre":"43.9121","longitude_centre":"0.9064","distance_km":9.14}]}