{"ville":{"id":31302,"code_insee":"73026","nom_standard":"Avrieux","nom_a":null,"nom_de":null,"slug_ville":"avrieux","departement_id":0,"code_postal":"73500","population":386,"superficie_km2":"3854.49","latitude_centre":"45.186","longitude_centre":"6.7526","dep_code":"73","dep_nom":"Savoie","dep_slug":"savoie","reg_code":"84","reg_nom":"Auvergne-Rhône-Alpes","reg_slug":"auvergne-rhone-alpes"},"departement":{"code":"73","nom":"Savoie","slug":"savoie"},"region":{"code":"84","nom":"Auvergne-Rhône-Alpes","slug":"auvergne-rhone-alpes"},"villes_proches":[{"id":0,"code_insee":"73322","nom_standard":"Villarodin-Bourget","nom_a":null,"nom_de":null,"slug_ville":"villarodin-bourget","departement_id":0,"code_postal":"73500","population":499,"superficie_km2":"3305.26","latitude_centre":"45.2169","longitude_centre":"6.6923","distance_km":5.84},{"id":31299,"code_insee":"73023","nom_standard":"Aussois","nom_a":null,"nom_de":null,"slug_ville":"aussois","departement_id":0,"code_postal":"73500","population":676,"superficie_km2":"4278.61","latitude_centre":"45.248","longitude_centre":"6.7266","distance_km":7.19},{"id":0,"code_insee":"73157","nom_standard":"Modane","nom_a":null,"nom_de":null,"slug_ville":"modane","departement_id":0,"code_postal":"73500","population":2849,"superficie_km2":"7450.51","latitude_centre":"45.1963","longitude_centre":"6.6462","distance_km":8.42},{"id":0,"code_insee":"73117","nom_standard":"Fourneaux","nom_a":null,"nom_de":null,"slug_ville":"fourneaux","departement_id":0,"code_postal":"73500","population":701,"superficie_km2":"504.18","latitude_centre":"45.1778","longitude_centre":"6.6369","distance_km":9.11},{"id":0,"code_insee":"73119","nom_standard":"Freney","nom_a":null,"nom_de":null,"slug_ville":"freney","departement_id":0,"code_postal":"73500","population":116,"superficie_km2":"1117.49","latitude_centre":"45.1822","longitude_centre":"6.6115","distance_km":11.07},{"id":0,"code_insee":"73223","nom_standard":"Saint-André","nom_a":null,"nom_de":null,"slug_ville":"saint-andre","departement_id":0,"code_postal":"73500","population":449,"superficie_km2":"3044.96","latitude_centre":"45.229","longitude_centre":"6.614","distance_km":11.86},{"id":0,"code_insee":"73290","nom_standard":"Val-Cenis","nom_a":null,"nom_de":null,"slug_ville":"val-cenis","departement_id":0,"code_postal":"73480","population":2112,"superficie_km2":"45605.19","latitude_centre":"45.2764","longitude_centre":"6.8916","distance_km":14.82},{"id":0,"code_insee":"73194","nom_standard":"Orelle","nom_a":null,"nom_de":null,"slug_ville":"orelle","departement_id":0,"code_postal":"73140","population":324,"superficie_km2":"7324.75","latitude_centre":"45.1903","longitude_centre":"6.5609","distance_km":15.03},{"id":0,"code_insee":"73206","nom_standard":"Pralognan-la-Vanoise","nom_a":null,"nom_de":null,"slug_ville":"pralognan-la-vanoise","departement_id":0,"code_postal":"73710","population":689,"superficie_km2":"10626.26","latitude_centre":"45.3431","longitude_centre":"6.7305","distance_km":17.55},{"id":11394,"code_insee":"05093","nom_standard":"Névache","nom_a":null,"nom_de":null,"slug_ville":"nevache","departement_id":0,"code_postal":"05100","population":362,"superficie_km2":"19107.05","latitude_centre":"45.0487","longitude_centre":"6.616","distance_km":18.65},{"id":0,"code_insee":"73307","nom_standard":"Valmeinier","nom_a":null,"nom_de":null,"slug_ville":"valmeinier","departement_id":0,"code_postal":"73450","population":593,"superficie_km2":"5492.38","latitude_centre":"45.1509","longitude_centre":"6.5088","distance_km":19.51},{"id":0,"code_insee":"73261","nom_standard":"Saint-Michel-de-Maurienne","nom_a":null,"nom_de":null,"slug_ville":"saint-michel-de-maurienne","departement_id":0,"code_postal":"73140","population":2395,"superficie_km2":"3631.41","latitude_centre":"45.2401","longitude_centre":"6.4951","distance_km":21.05},{"id":0,"code_insee":"73015","nom_standard":"Les Allues","nom_a":null,"nom_de":null,"slug_ville":"les-allues","departement_id":0,"code_postal":"73550","population":1736,"superficie_km2":"8600.19","latitude_centre":"45.3644","longitude_centre":"6.5929","distance_km":23.45},{"id":0,"code_insee":"73227","nom_standard":"Courchevel","nom_a":null,"nom_de":null,"slug_ville":"courchevel","departement_id":0,"code_postal":"73120","population":2290,"superficie_km2":"6896.78","latitude_centre":"45.3895","longitude_centre":"6.6267","distance_km":24.68},{"id":0,"code_insee":"73201","nom_standard":"Planay","nom_a":null,"nom_de":null,"slug_ville":"planay","departement_id":0,"code_postal":"73350","population":442,"superficie_km2":"2321.31","latitude_centre":"45.424","longitude_centre":"6.714","distance_km":26.64},{"id":11387,"code_insee":"05085","nom_standard":"Montgenèvre","nom_a":null,"nom_de":null,"slug_ville":"montgenevre","departement_id":0,"code_postal":"05100","population":461,"superficie_km2":"3970.58","latitude_centre":"44.9403","longitude_centre":"6.7216","distance_km":27.43},{"id":11456,"code_insee":"05174","nom_standard":"Val-des-Prés","nom_a":null,"nom_de":null,"slug_ville":"val-des-pres","departement_id":0,"code_postal":"05100","population":593,"superficie_km2":"4476.74","latitude_centre":"44.9399","longitude_centre":"6.657","distance_km":28.38},{"id":0,"code_insee":"73071","nom_standard":"Champagny-en-Vanoise","nom_a":null,"nom_de":null,"slug_ville":"champagny-en-vanoise","departement_id":0,"code_postal":"73350","population":540,"superficie_km2":"9763.43","latitude_centre":"45.4517","longitude_centre":"6.7812","distance_km":29.63},{"id":0,"code_insee":"05133","nom_standard":"Saint-Chaffrey","nom_a":null,"nom_de":null,"slug_ville":"saint-chaffrey","departement_id":0,"code_postal":"05330","population":1494,"superficie_km2":"2574.40","latitude_centre":"44.9373","longitude_centre":"6.5989","distance_km":30.17},{"id":0,"code_insee":"73055","nom_standard":"Bozel","nom_a":null,"nom_de":null,"slug_ville":"bozel","departement_id":0,"code_postal":"73350","population":2098,"superficie_km2":"2879.00","latitude_centre":"45.4576","longitude_centre":"6.6537","distance_km":31.17}]}