{"ville":{"id":21221,"code_insee":"40021","nom_standard":"Azur","nom_a":null,"nom_de":null,"slug_ville":"azur","departement_id":0,"code_postal":"40140","population":988,"superficie_km2":"1693.89","latitude_centre":"43.7996","longitude_centre":"-1.2919","dep_code":"40","dep_nom":"Landes","dep_slug":"landes","reg_code":"75","reg_nom":"Nouvelle-Aquitaine","reg_slug":"nouvelle-aquitaine"},"departement":{"code":"40","nom":"Landes","slug":"landes"},"region":{"code":"75","nom":"Nouvelle-Aquitaine","slug":"nouvelle-aquitaine"},"villes_proches":[{"id":0,"code_insee":"40150","nom_standard":"Léon","nom_a":null,"nom_de":null,"slug_ville":"leon","departement_id":0,"code_postal":"40550","population":2306,"superficie_km2":"6676.62","latitude_centre":"43.8474","longitude_centre":"-1.2768","distance_km":5.45},{"id":0,"code_insee":"40181","nom_standard":"Messanges","nom_a":null,"nom_de":null,"slug_ville":"messanges","departement_id":0,"code_postal":"40660","population":1086,"superficie_km2":"3413.81","latitude_centre":"43.8086","longitude_centre":"-1.3629","distance_km":5.79},{"id":0,"code_insee":"40310","nom_standard":"Soustons","nom_a":null,"nom_de":null,"slug_ville":"soustons","departement_id":0,"code_postal":"40140","population":8701,"superficie_km2":"10795.55","latitude_centre":"43.754","longitude_centre":"-1.3305","distance_km":5.94},{"id":0,"code_insee":"40328","nom_standard":"Vieux-Boucau-les-Bains","nom_a":null,"nom_de":null,"slug_ville":"vieux-boucau-les-bains","departement_id":0,"code_postal":"40480","population":1685,"superficie_km2":"437.96","latitude_centre":"43.7885","longitude_centre":"-1.3946","distance_km":8.34},{"id":0,"code_insee":"40187","nom_standard":"Moliets-et-Maa","nom_a":null,"nom_de":null,"slug_ville":"moliets-et-maa","departement_id":0,"code_postal":"40660","population":1299,"superficie_km2":"2792.21","latitude_centre":"43.8626","longitude_centre":"-1.3589","distance_km":8.83},{"id":0,"code_insee":"40168","nom_standard":"Magescq","nom_a":null,"nom_de":null,"slug_ville":"magescq","departement_id":0,"code_postal":"40140","population":2698,"superficie_km2":"7718.60","latitude_centre":"43.7753","longitude_centre":"-1.1841","distance_km":9.07},{"id":0,"code_insee":"40276","nom_standard":"Saint-Michel-Escalus","nom_a":null,"nom_de":null,"slug_ville":"saint-michel-escalus","departement_id":0,"code_postal":"40550","population":332,"superficie_km2":"1770.48","latitude_centre":"43.8752","longitude_centre":"-1.2475","distance_km":9.13},{"id":0,"code_insee":"40317","nom_standard":"Tosse","nom_a":null,"nom_de":null,"slug_ville":"tosse","departement_id":0,"code_postal":"40230","population":3556,"superficie_km2":"1796.50","latitude_centre":"43.6952","longitude_centre":"-1.316","distance_km":11.77},{"id":0,"code_insee":"40123","nom_standard":"Herm","nom_a":null,"nom_de":null,"slug_ville":"herm","departement_id":0,"code_postal":"40990","population":1185,"superficie_km2":"5237.36","latitude_centre":"43.8013","longitude_centre":"-1.1332","distance_km":12.74},{"id":0,"code_insee":"40296","nom_standard":"Seignosse","nom_a":null,"nom_de":null,"slug_ville":"seignosse","departement_id":0,"code_postal":"40510","population":4056,"superficie_km2":"3660.14","latitude_centre":"43.7055","longitude_centre":"-1.3939","distance_km":13.29},{"id":0,"code_insee":"40261","nom_standard":"Saint-Geours-de-Maremne","nom_a":null,"nom_de":null,"slug_ville":"saint-geours-de-maremne","departement_id":0,"code_postal":"40230","population":3089,"superficie_km2":"4318.13","latitude_centre":"43.6854","longitude_centre":"-1.2348","distance_km":13.5},{"id":0,"code_insee":"40291","nom_standard":"Saubion","nom_a":null,"nom_de":null,"slug_ville":"saubion","departement_id":0,"code_postal":"40230","population":1826,"superficie_km2":"772.40","latitude_centre":"43.673","longitude_centre":"-1.3323","distance_km":14.45},{"id":0,"code_insee":"40075","nom_standard":"Castets","nom_a":null,"nom_de":null,"slug_ville":"castets","departement_id":0,"code_postal":"40260","population":2516,"superficie_km2":"9092.48","latitude_centre":"43.8806","longitude_centre":"-1.1487","distance_km":14.6},{"id":0,"code_insee":"40244","nom_standard":"Rivière-Saas-et-Gourby","nom_a":null,"nom_de":null,"slug_ville":"riviere-saas-et-gourby","departement_id":0,"code_postal":"40180","population":1476,"superficie_km2":"2745.71","latitude_centre":"43.6963","longitude_centre":"-1.1756","distance_km":14.81},{"id":0,"code_insee":"40284","nom_standard":"Saint-Vincent-de-Tyrosse","nom_a":null,"nom_de":null,"slug_ville":"saint-vincent-de-tyrosse","departement_id":0,"code_postal":"40230","population":8014,"superficie_km2":"2085.08","latitude_centre":"43.663","longitude_centre":"-1.3013","distance_km":15.21},{"id":0,"code_insee":"40155","nom_standard":"Linxe","nom_a":null,"nom_de":null,"slug_ville":"linxe","departement_id":0,"code_postal":"40260","population":1552,"superficie_km2":"8138.38","latitude_centre":"43.9287","longitude_centre":"-1.2195","distance_km":15.48},{"id":0,"code_insee":"40326","nom_standard":"Vielle-Saint-Girons","nom_a":null,"nom_de":null,"slug_ville":"vielle-saint-girons","departement_id":0,"code_postal":"40560","population":1518,"superficie_km2":"7464.97","latitude_centre":"43.9429","longitude_centre":"-1.3219","distance_km":16.11},{"id":0,"code_insee":"40293","nom_standard":"Saubusse","nom_a":null,"nom_de":null,"slug_ville":"saubusse","departement_id":0,"code_postal":"40180","population":1093,"superficie_km2":"1039.25","latitude_centre":"43.6737","longitude_centre":"-1.1815","distance_km":16.57},{"id":0,"code_insee":"40004","nom_standard":"Angresse","nom_a":null,"nom_de":null,"slug_ville":"angresse","departement_id":0,"code_postal":"40150","population":2277,"superficie_km2":"771.86","latitude_centre":"43.6591","longitude_centre":"-1.3624","distance_km":16.62},{"id":0,"code_insee":"40129","nom_standard":"Josse","nom_a":null,"nom_de":null,"slug_ville":"josse","departement_id":0,"code_postal":"40230","population":1018,"superficie_km2":"938.94","latitude_centre":"43.6419","longitude_centre":"-1.2373","distance_km":18.08}]}