{"ville":{"id":26600,"code_insee":"60037","nom_standard":"Babœuf","nom_a":null,"nom_de":null,"slug_ville":"baboeuf","departement_id":0,"code_postal":"60400","population":508,"superficie_km2":"722.58","latitude_centre":"49.5853","longitude_centre":"3.0915","dep_code":"60","dep_nom":"Oise","dep_slug":"oise","reg_code":"32","reg_nom":"Hauts-de-France","reg_slug":"hauts-de-france"},"departement":{"code":"60","nom":"Oise","slug":"oise"},"region":{"code":"32","nom":"Hauts-de-France","slug":"hauts-de-france"},"villes_proches":[{"id":26587,"code_insee":"60021","nom_standard":"Appilly","nom_a":null,"nom_de":null,"slug_ville":"appilly","departement_id":0,"code_postal":"60400","population":498,"superficie_km2":"446.82","latitude_centre":"49.583","longitude_centre":"3.1225","distance_km":2.25},{"id":0,"code_insee":"60410","nom_standard":"Mondescourt","nom_a":null,"nom_de":null,"slug_ville":"mondescourt","departement_id":0,"code_postal":"60400","population":247,"superficie_km2":"320.18","latitude_centre":"49.6018","longitude_centre":"3.1113","distance_km":2.32},{"id":0,"code_insee":"60059","nom_standard":"Béhéricourt","nom_a":null,"nom_de":null,"slug_ville":"behericourt","departement_id":0,"code_postal":"60400","population":192,"superficie_km2":"529.48","latitude_centre":"49.5948","longitude_centre":"3.0617","distance_km":2.39},{"id":0,"code_insee":"60287","nom_standard":"Grandrû","nom_a":null,"nom_de":null,"slug_ville":"grandru","departement_id":0,"code_postal":"60400","population":371,"superficie_km2":"738.64","latitude_centre":"49.6109","longitude_centre":"3.0717","distance_km":3.18},{"id":0,"code_insee":"60603","nom_standard":"Salency","nom_a":null,"nom_de":null,"slug_ville":"salency","departement_id":0,"code_postal":"60400","population":897,"superficie_km2":"776.75","latitude_centre":"49.5873","longitude_centre":"3.046","distance_km":3.29},{"id":0,"code_insee":"60105","nom_standard":"Brétigny","nom_a":null,"nom_de":null,"slug_ville":"bretigny","departement_id":0,"code_postal":"60400","population":435,"superficie_km2":"517.76","latitude_centre":"49.5575","longitude_centre":"3.1123","distance_km":3.44},{"id":0,"code_insee":"60655","nom_standard":"Varesnes","nom_a":null,"nom_de":null,"slug_ville":"varesnes","departement_id":0,"code_postal":"60400","population":367,"superficie_km2":"914.97","latitude_centre":"49.5553","longitude_centre":"3.0772","distance_km":3.49},{"id":0,"code_insee":"60431","nom_standard":"Morlincourt","nom_a":null,"nom_de":null,"slug_ville":"morlincourt","departement_id":0,"code_postal":"60400","population":500,"superficie_km2":"330.62","latitude_centre":"49.5675","longitude_centre":"3.0443","distance_km":3.94},{"id":10309,"code_insee":"02139","nom_standard":"Caillouël-Crépigny","nom_a":null,"nom_de":null,"slug_ville":"caillouel-crepigny","departement_id":0,"code_postal":"02300","population":459,"superficie_km2":"671.82","latitude_centre":"49.6174","longitude_centre":"3.1226","distance_km":4.21},{"id":10577,"code_insee":"02461","nom_standard":"Marest-Dampcourt","nom_a":null,"nom_de":null,"slug_ville":"marest-dampcourt","departement_id":0,"code_postal":"02300","population":341,"superficie_km2":"836.22","latitude_centre":"49.5942","longitude_centre":"3.1488","distance_km":4.25},{"id":10725,"code_insee":"02631","nom_standard":"Quierzy","nom_a":null,"nom_de":null,"slug_ville":"quierzy","departement_id":0,"code_postal":"02300","population":428,"superficie_km2":"825.66","latitude_centre":"49.5638","longitude_centre":"3.1466","distance_km":4.64},{"id":0,"code_insee":"60389","nom_standard":"Maucourt","nom_a":null,"nom_de":null,"slug_ville":"maucourt","departement_id":0,"code_postal":"60640","population":221,"superficie_km2":"314.97","latitude_centre":"49.6327","longitude_centre":"3.0809","distance_km":5.33},{"id":0,"code_insee":"60189","nom_standard":"Cuts","nom_a":null,"nom_de":null,"slug_ville":"cuts","departement_id":0,"code_postal":"60400","population":949,"superficie_km2":"1083.89","latitude_centre":"49.5352","longitude_centre":"3.0994","distance_km":5.6},{"id":0,"code_insee":"60507","nom_standard":"Pontoise-lès-Noyon","nom_a":null,"nom_de":null,"slug_ville":"pontoise-les-noyon","departement_id":0,"code_postal":"60400","population":427,"superficie_km2":"660.97","latitude_centre":"49.5442","longitude_centre":"3.0461","distance_km":5.62},{"id":10262,"code_insee":"02081","nom_standard":"Béthancourt-en-Vaux","nom_a":null,"nom_de":null,"slug_ville":"bethancourt-en-vaux","departement_id":0,"code_postal":"02300","population":421,"superficie_km2":"430.27","latitude_centre":"49.6274","longitude_centre":"3.1376","distance_km":5.74},{"id":0,"code_insee":"60052","nom_standard":"Beaugies-sous-Bois","nom_a":null,"nom_de":null,"slug_ville":"beaugies-sous-bois","departement_id":0,"code_postal":"60640","population":104,"superficie_km2":"389.54","latitude_centre":"49.6369","longitude_centre":"3.0993","distance_km":5.77},{"id":0,"code_insee":"60519","nom_standard":"Quesmy","nom_a":null,"nom_de":null,"slug_ville":"quesmy","departement_id":0,"code_postal":"60640","population":171,"superficie_km2":"484.65","latitude_centre":"49.6329","longitude_centre":"3.0538","distance_km":5.95},{"id":10310,"code_insee":"02140","nom_standard":"Camelin","nom_a":null,"nom_de":null,"slug_ville":"camelin","departement_id":0,"code_postal":"02300","population":426,"superficie_km2":"918.43","latitude_centre":"49.5244","longitude_centre":"3.1243","distance_km":7.17},{"id":0,"code_insee":"60118","nom_standard":"Caisnes","nom_a":null,"nom_de":null,"slug_ville":"caisnes","departement_id":0,"code_postal":"60400","population":518,"superficie_km2":"622.09","latitude_centre":"49.5198","longitude_centre":"3.0671","distance_km":7.49},{"id":10491,"code_insee":"02362","nom_standard":"Guivry","nom_a":null,"nom_de":null,"slug_ville":"guivry","departement_id":0,"code_postal":"02300","population":238,"superficie_km2":"721.38","latitude_centre":"49.6504","longitude_centre":"3.1196","distance_km":7.52}]}