{"ville":{"id":10917,"code_insee":"03015","nom_standard":"Bagneux","nom_a":null,"nom_de":null,"slug_ville":"bagneux","departement_id":0,"code_postal":"03460","population":329,"superficie_km2":"2544.74","latitude_centre":"46.6477","longitude_centre":"3.2071","dep_code":"03","dep_nom":"Allier","dep_slug":"allier","reg_code":"84","reg_nom":"Auvergne-Rhône-Alpes","reg_slug":"auvergne-rhone-alpes"},"departement":{"code":"03","nom":"Allier","slug":"allier"},"region":{"code":"84","nom":"Auvergne-Rhône-Alpes","slug":"auvergne-rhone-alpes"},"villes_proches":[{"id":0,"code_insee":"03316","nom_standard":"Villeneuve-sur-Allier","nom_a":null,"nom_de":null,"slug_ville":"villeneuve-sur-allier","departement_id":0,"code_postal":"03460","population":1024,"superficie_km2":"2620.90","latitude_centre":"46.6753","longitude_centre":"3.2486","distance_km":4.41},{"id":10912,"code_insee":"03009","nom_standard":"Aubigny","nom_a":null,"nom_de":null,"slug_ville":"aubigny","departement_id":0,"code_postal":"03460","population":146,"superficie_km2":"1708.70","latitude_centre":"46.6774","longitude_centre":"3.1669","distance_km":4.51},{"id":0,"code_insee":"03184","nom_standard":"Montilly","nom_a":null,"nom_de":null,"slug_ville":"montilly","departement_id":0,"code_postal":"03000","population":488,"superficie_km2":"2225.66","latitude_centre":"46.6112","longitude_centre":"3.2351","distance_km":4.59},{"id":10905,"code_insee":"03002","nom_standard":"Agonges","nom_a":null,"nom_de":null,"slug_ville":"agonges","departement_id":0,"code_postal":"03210","population":300,"superficie_km2":"2423.89","latitude_centre":"46.6238","longitude_centre":"3.149","distance_km":5.17},{"id":0,"code_insee":"58296","nom_standard":"Tresnay","nom_a":null,"nom_de":null,"slug_ville":"tresnay","departement_id":0,"code_postal":"58240","population":131,"superficie_km2":"1794.39","latitude_centre":"46.7","longitude_centre":"3.1915","distance_km":5.94},{"id":0,"code_insee":"03090","nom_standard":"Couzon","nom_a":null,"nom_de":null,"slug_ville":"couzon","departement_id":0,"code_postal":"03160","population":328,"superficie_km2":"2019.36","latitude_centre":"46.6427","longitude_centre":"3.1192","distance_km":6.73},{"id":0,"code_insee":"03162","nom_standard":"Marigny","nom_a":null,"nom_de":null,"slug_ville":"marigny","departement_id":0,"code_postal":"03210","population":200,"superficie_km2":"1730.15","latitude_centre":"46.5781","longitude_centre":"3.2122","distance_km":7.75},{"id":0,"code_insee":"03290","nom_standard":"Trévol","nom_a":null,"nom_de":null,"slug_ville":"trevol","departement_id":0,"code_postal":"03460","population":1643,"superficie_km2":"4075.35","latitude_centre":"46.6363","longitude_centre":"3.3144","distance_km":8.29},{"id":0,"code_insee":"03247","nom_standard":"Saint-Menoux","nom_a":null,"nom_de":null,"slug_ville":"saint-menoux","departement_id":0,"code_postal":"03210","population":1116,"superficie_km2":"2758.02","latitude_centre":"46.5829","longitude_centre":"3.1477","distance_km":8.51},{"id":10914,"code_insee":"03011","nom_standard":"Aurouër","nom_a":null,"nom_de":null,"slug_ville":"aurouer","departement_id":0,"code_postal":"03460","population":400,"superficie_km2":"2581.39","latitude_centre":"46.6873","longitude_centre":"3.3123","distance_km":9.16},{"id":0,"code_insee":"03241","nom_standard":"Saint-Léopardin-d'Augy","nom_a":null,"nom_de":null,"slug_ville":"saint-leopardin-d-augy","departement_id":0,"code_postal":"03160","population":354,"superficie_km2":"3993.44","latitude_centre":"46.6968","longitude_centre":"3.1063","distance_km":9.43},{"id":0,"code_insee":"58294","nom_standard":"Toury-sur-Jour","nom_a":null,"nom_de":null,"slug_ville":"toury-sur-jour","departement_id":0,"code_postal":"58240","population":125,"superficie_km2":"2463.53","latitude_centre":"46.7271","longitude_centre":"3.2562","distance_km":9.59},{"id":0,"code_insee":"03200","nom_standard":"Neuvy","nom_a":null,"nom_de":null,"slug_ville":"neuvy","departement_id":0,"code_postal":"03000","population":1475,"superficie_km2":"1897.97","latitude_centre":"46.5709","longitude_centre":"3.276","distance_km":10.03},{"id":0,"code_insee":"03013","nom_standard":"Avermes","nom_a":null,"nom_de":null,"slug_ville":"avermes","departement_id":0,"code_postal":"03000","population":4074,"superficie_km2":"1560.50","latitude_centre":"46.5961","longitude_centre":"3.3164","distance_km":10.13},{"id":0,"code_insee":"03085","nom_standard":"Coulandon","nom_a":null,"nom_de":null,"slug_ville":"coulandon","departement_id":0,"code_postal":"03000","population":645,"superficie_km2":"1698.00","latitude_centre":"46.5559","longitude_centre":"3.2412","distance_km":10.53},{"id":0,"code_insee":"58057","nom_standard":"Chantenay-Saint-Imbert","nom_a":null,"nom_de":null,"slug_ville":"chantenay-saint-imbert","departement_id":0,"code_postal":"58240","population":1073,"superficie_km2":"4193.18","latitude_centre":"46.7394","longitude_centre":"3.1681","distance_km":10.62},{"id":10915,"code_insee":"03012","nom_standard":"Autry-Issards","nom_a":null,"nom_de":null,"slug_ville":"autry-issards","departement_id":0,"code_postal":"03210","population":313,"superficie_km2":"1944.32","latitude_centre":"46.5444","longitude_centre":"3.1202","distance_km":13.27},{"id":0,"code_insee":"03275","nom_standard":"Souvigny","nom_a":null,"nom_de":null,"slug_ville":"souvigny","departement_id":0,"code_postal":"03210","population":1698,"superficie_km2":"4467.18","latitude_centre":"46.522","longitude_centre":"3.1946","distance_km":14.01},{"id":0,"code_insee":"03040","nom_standard":"Bressolles","nom_a":null,"nom_de":null,"slug_ville":"bressolles","departement_id":0,"code_postal":"03000","population":1143,"superficie_km2":"2360.57","latitude_centre":"46.5296","longitude_centre":"3.2879","distance_km":14.51},{"id":0,"code_insee":"58021","nom_standard":"Azy-le-Vif","nom_a":null,"nom_de":null,"slug_ville":"azy-le-vif","departement_id":0,"code_postal":"58240","population":188,"superficie_km2":"4709.79","latitude_centre":"46.7873","longitude_centre":"3.2268","distance_km":15.6}]}