{"ville":{"id":27466,"code_insee":"62076","nom_standard":"Bainghen","nom_a":null,"nom_de":null,"slug_ville":"bainghen","departement_id":0,"code_postal":"62850","population":208,"superficie_km2":"680.71","latitude_centre":"50.7518","longitude_centre":"1.9021","dep_code":"62","dep_nom":"Pas-de-Calais","dep_slug":"pas-de-calais","reg_code":"32","reg_nom":"Hauts-de-France","reg_slug":"hauts-de-france"},"departement":{"code":"62","nom":"Pas-de-Calais","slug":"pas-de-calais"},"region":{"code":"32","nom":"Hauts-de-France","slug":"hauts-de-france"},"villes_proches":[{"id":0,"code_insee":"62432","nom_standard":"Herbinghen","nom_a":null,"nom_de":null,"slug_ville":"herbinghen","departement_id":0,"code_postal":"62850","population":415,"superficie_km2":"436.43","latitude_centre":"50.7629","longitude_centre":"1.8973","distance_km":1.28},{"id":0,"code_insee":"62803","nom_standard":"Surques","nom_a":null,"nom_de":null,"slug_ville":"surques","departement_id":0,"code_postal":"62850","population":624,"superficie_km2":"691.36","latitude_centre":"50.7444","longitude_centre":"1.9226","distance_km":1.66},{"id":0,"code_insee":"62775","nom_standard":"Sanghen","nom_a":null,"nom_de":null,"slug_ville":"sanghen","departement_id":0,"code_postal":"62850","population":315,"superficie_km2":"621.58","latitude_centre":"50.7722","longitude_centre":"1.892","distance_km":2.38},{"id":0,"code_insee":"62455","nom_standard":"Hocquinghen","nom_a":null,"nom_de":null,"slug_ville":"hocquinghen","departement_id":0,"code_postal":"62850","population":118,"superficie_km2":"196.68","latitude_centre":"50.7658","longitude_centre":"1.9328","distance_km":2.66},{"id":0,"code_insee":"62526","nom_standard":"Longueville","nom_a":null,"nom_de":null,"slug_ville":"longueville","departement_id":0,"code_postal":"62142","population":149,"superficie_km2":"353.30","latitude_centre":"50.7281","longitude_centre":"1.8811","distance_km":3.02},{"id":0,"code_insee":"62599","nom_standard":"Nabringhen","nom_a":null,"nom_de":null,"slug_ville":"nabringhen","departement_id":0,"code_postal":"62142","population":225,"superficie_km2":"416.74","latitude_centre":"50.7428","longitude_centre":"1.8612","distance_km":3.05},{"id":0,"code_insee":"62692","nom_standard":"Rebergues","nom_a":null,"nom_de":null,"slug_ville":"rebergues","departement_id":0,"code_postal":"62850","population":403,"superficie_km2":"479.86","latitude_centre":"50.7526","longitude_centre":"1.9527","distance_km":3.56},{"id":27433,"code_insee":"62020","nom_standard":"Alembon","nom_a":null,"nom_de":null,"slug_ville":"alembon","departement_id":0,"code_postal":"62850","population":624,"superficie_km2":"922.67","latitude_centre":"50.7805","longitude_centre":"1.8719","distance_km":3.83},{"id":0,"code_insee":"62308","nom_standard":"Esc≈ìuilles","nom_a":null,"nom_de":null,"slug_ville":"escoeuilles","departement_id":0,"code_postal":"62850","population":461,"superficie_km2":"589.04","latitude_centre":"50.7257","longitude_centre":"1.9376","distance_km":3.83},{"id":0,"code_insee":"62179","nom_standard":"Brunembert","nom_a":null,"nom_de":null,"slug_ville":"brunembert","departement_id":0,"code_postal":"62240","population":387,"superficie_km2":"619.31","latitude_centre":"50.7165","longitude_centre":"1.8856","distance_km":4.09},{"id":0,"code_insee":"62419","nom_standard":"Haut-Loquin","nom_a":null,"nom_de":null,"slug_ville":"haut-loquin","departement_id":0,"code_postal":"62850","population":189,"superficie_km2":"544.44","latitude_centre":"50.7379","longitude_centre":"1.9649","distance_km":4.68},{"id":0,"code_insee":"62429","nom_standard":"Henneveux","nom_a":null,"nom_de":null,"slug_ville":"henneveux","departement_id":0,"code_postal":"62142","population":272,"superficie_km2":"553.48","latitude_centre":"50.7264","longitude_centre":"1.8425","distance_km":5.06},{"id":0,"code_insee":"62506","nom_standard":"Licques","nom_a":null,"nom_de":null,"slug_ville":"licques","departement_id":0,"code_postal":"62850","population":1679,"superficie_km2":"1845.83","latitude_centre":"50.7962","longitude_centre":"1.9296","distance_km":5.3},{"id":0,"code_insee":"62230","nom_standard":"Colembert","nom_a":null,"nom_de":null,"slug_ville":"colembert","departement_id":0,"code_postal":"62142","population":907,"superficie_km2":"999.51","latitude_centre":"50.748","longitude_centre":"1.8231","distance_km":5.57},{"id":27451,"code_insee":"62055","nom_standard":"Audrehem","nom_a":null,"nom_de":null,"slug_ville":"audrehem","departement_id":0,"code_postal":"62890","population":521,"superficie_km2":"926.61","latitude_centre":"50.7713","longitude_centre":"1.983","distance_km":6.09},{"id":0,"code_insee":"62678","nom_standard":"Quesques","nom_a":null,"nom_de":null,"slug_ville":"quesques","departement_id":0,"code_postal":"62240","population":720,"superficie_km2":"1397.44","latitude_centre":"50.7022","longitude_centre":"1.9433","distance_km":6.23},{"id":0,"code_insee":"62786","nom_standard":"Selles","nom_a":null,"nom_de":null,"slug_ville":"selles","departement_id":0,"code_postal":"62240","population":299,"superficie_km2":"635.00","latitude_centre":"50.6963","longitude_centre":"1.888","distance_km":6.25},{"id":0,"code_insee":"62439","nom_standard":"Hermelinghen","nom_a":null,"nom_de":null,"slug_ville":"hermelinghen","departement_id":0,"code_postal":"62132","population":407,"superficie_km2":"645.26","latitude_centre":"50.8035","longitude_centre":"1.8609","distance_km":6.44},{"id":0,"code_insee":"62161","nom_standard":"Bouquehault","nom_a":null,"nom_de":null,"slug_ville":"bouquehault","departement_id":0,"code_postal":"62340","population":788,"superficie_km2":"810.08","latitude_centre":"50.8148","longitude_centre":"1.9005","distance_km":7.01},{"id":0,"code_insee":"62165","nom_standard":"Bournonville","nom_a":null,"nom_de":null,"slug_ville":"bournonville","departement_id":0,"code_postal":"62240","population":223,"superficie_km2":"877.80","latitude_centre":"50.6971","longitude_centre":"1.8415","distance_km":7.43}]}