{"ville":{"id":11565,"code_insee":"07024","nom_standard":"Banne","nom_a":null,"nom_de":null,"slug_ville":"banne","departement_id":0,"code_postal":"07460","population":648,"superficie_km2":"3288.26","latitude_centre":"44.3598","longitude_centre":"4.1463","dep_code":"07","dep_nom":"Ardèche","dep_slug":"ardeche","reg_code":"84","reg_nom":"Auvergne-Rhône-Alpes","reg_slug":"auvergne-rhone-alpes"},"departement":{"code":"07","nom":"Ardèche","slug":"ardeche"},"region":{"code":"84","nom":"Auvergne-Rhône-Alpes","slug":"auvergne-rhone-alpes"},"villes_proches":[{"id":0,"code_insee":"07280","nom_standard":"Saint-Paul-le-Jeune","nom_a":null,"nom_de":null,"slug_ville":"saint-paul-le-jeune","departement_id":0,"code_postal":"07460","population":968,"superficie_km2":"1459.15","latitude_centre":"44.3332","longitude_centre":"4.1573","distance_km":3.08},{"id":0,"code_insee":"07334","nom_standard":"Les Vans","nom_a":null,"nom_de":null,"slug_ville":"les-vans","departement_id":0,"code_postal":"07140","population":2662,"superficie_km2":"3118.34","latitude_centre":"44.3884","longitude_centre":"4.1145","distance_km":4.06},{"id":0,"code_insee":"07031","nom_standard":"Berrias-et-Casteljau","nom_a":null,"nom_de":null,"slug_ville":"berrias-et-casteljau","departement_id":0,"code_postal":"07460","population":793,"superficie_km2":"2666.66","latitude_centre":"44.3791","longitude_centre":"4.2056","distance_km":5.18},{"id":0,"code_insee":"30120","nom_standard":"Gagnières","nom_a":null,"nom_de":null,"slug_ville":"gagnieres","departement_id":0,"code_postal":"30160","population":1102,"superficie_km2":"1123.10","latitude_centre":"44.3157","longitude_centre":"4.1175","distance_km":5.41},{"id":0,"code_insee":"07148","nom_standard":"Malbosc","nom_a":null,"nom_de":null,"slug_ville":"malbosc","departement_id":0,"code_postal":"07140","population":146,"superficie_km2":"2169.44","latitude_centre":"44.3484","longitude_centre":"4.0729","distance_km":5.97},{"id":0,"code_insee":"30097","nom_standard":"Courry","nom_a":null,"nom_de":null,"slug_ville":"courry","departement_id":0,"code_postal":"30500","population":281,"superficie_km2":"831.09","latitude_centre":"44.303","longitude_centre":"4.1622","distance_km":6.44},{"id":0,"code_insee":"30045","nom_standard":"Bordezac","nom_a":null,"nom_de":null,"slug_ville":"bordezac","departement_id":0,"code_postal":"30160","population":387,"superficie_km2":"937.13","latitude_centre":"44.3161","longitude_centre":"4.0843","distance_km":6.92},{"id":0,"code_insee":"07211","nom_standard":"Saint-André-de-Cruzières","nom_a":null,"nom_de":null,"slug_ville":"saint-andre-de-cruzieres","departement_id":0,"code_postal":"07460","population":467,"superficie_km2":"2035.42","latitude_centre":"44.3158","longitude_centre":"4.2147","distance_km":7.32},{"id":0,"code_insee":"07050","nom_standard":"Chambonas","nom_a":null,"nom_de":null,"slug_ville":"chambonas","departement_id":0,"code_postal":"07140","population":992,"superficie_km2":"1219.75","latitude_centre":"44.4253","longitude_centre":"4.1301","distance_km":7.4},{"id":11561,"code_insee":"07017","nom_standard":"Les Assions","nom_a":null,"nom_de":null,"slug_ville":"les-assions","departement_id":0,"code_postal":"07140","population":767,"superficie_km2":"1399.90","latitude_centre":"44.4243","longitude_centre":"4.1882","distance_km":7.91},{"id":0,"code_insee":"30037","nom_standard":"Bessèges","nom_a":null,"nom_de":null,"slug_ville":"besseges","departement_id":0,"code_postal":"30160","population":2606,"superficie_km2":"1035.86","latitude_centre":"44.2889","longitude_centre":"4.107","distance_km":8.48},{"id":0,"code_insee":"07100","nom_standard":"Gravières","nom_a":null,"nom_de":null,"slug_ville":"gravieres","departement_id":0,"code_postal":"07140","population":508,"superficie_km2":"1880.42","latitude_centre":"44.4199","longitude_centre":"4.0715","distance_km":8.94},{"id":0,"code_insee":"07305","nom_standard":"Les Salelles","nom_a":null,"nom_de":null,"slug_ville":"les-salelles","departement_id":0,"code_postal":"07140","population":414,"superficie_km2":"567.56","latitude_centre":"44.4355","longitude_centre":"4.0989","distance_km":9.22},{"id":0,"code_insee":"30167","nom_standard":"Meyrannes","nom_a":null,"nom_de":null,"slug_ville":"meyrannes","departement_id":0,"code_postal":"30410","population":792,"superficie_km2":"664.92","latitude_centre":"44.2766","longitude_centre":"4.1611","distance_km":9.33},{"id":0,"code_insee":"30237","nom_standard":"Saint-Brès","nom_a":null,"nom_de":null,"slug_ville":"saint-bres","departement_id":0,"code_postal":"30500","population":702,"superficie_km2":"1135.45","latitude_centre":"44.2829","longitude_centre":"4.2","distance_km":9.56},{"id":0,"code_insee":"30194","nom_standard":"Peyremale","nom_a":null,"nom_de":null,"slug_ville":"peyremale","departement_id":0,"code_postal":"30160","population":272,"superficie_km2":"870.20","latitude_centre":"44.2989","longitude_centre":"4.0581","distance_km":9.75},{"id":0,"code_insee":"07238","nom_standard":"Saint-Genest-de-Beauzon","nom_a":null,"nom_de":null,"slug_ville":"saint-genest-de-beauzon","departement_id":0,"code_postal":"07230","population":332,"superficie_km2":"535.51","latitude_centre":"44.4459","longitude_centre":"4.1951","distance_km":10.33},{"id":0,"code_insee":"07171","nom_standard":"Payzac","nom_a":null,"nom_de":null,"slug_ville":"payzac","departement_id":0,"code_postal":"07230","population":539,"superficie_km2":"1320.95","latitude_centre":"44.4543","longitude_centre":"4.1474","distance_km":10.51},{"id":0,"code_insee":"30171","nom_standard":"Molières-sur-Cèze","nom_a":null,"nom_de":null,"slug_ville":"molieres-sur-ceze","departement_id":0,"code_postal":"30410","population":1176,"superficie_km2":"867.63","latitude_centre":"44.2617","longitude_centre":"4.1534","distance_km":10.92},{"id":0,"code_insee":"30216","nom_standard":"Robiac-Rochessadoule","nom_a":null,"nom_de":null,"slug_ville":"robiac-rochessadoule","departement_id":0,"code_postal":"30160","population":832,"superficie_km2":"1056.46","latitude_centre":"44.2672","longitude_centre":"4.0931","distance_km":11.13}]}