{"ville":{"id":655,"code_insee":"10034","nom_standard":"Bar-sur-Seine","nom_a":null,"nom_de":null,"slug_ville":"bar-sur-seine","departement_id":610,"code_postal":"10110","population":2877,"superficie_km2":"28.00","latitude_centre":"48.1129990","longitude_centre":"4.3790002","dep_code":"10","dep_nom":"Aube","dep_slug":"aube","reg_code":"06","reg_nom":"Grand Est","reg_slug":"grand-est"},"departement":{"code":"10","nom":"Aube","slug":"aube"},"region":{"code":"06","nom":"Grand Est","slug":"grand-est"},"villes_proches":[{"id":688,"code_insee":"10358","nom_standard":"Saint-Parres-lès-Vaudes","nom_a":null,"nom_de":null,"slug_ville":"saint-parres-les-vaudes","departement_id":610,"code_postal":"10260","population":1066,"superficie_km2":"3.00","latitude_centre":"48.1739998","longitude_centre":"4.2160001","distance_km":13.87},{"id":678,"code_insee":"10317","nom_standard":"Les Riceys","nom_a":null,"nom_de":null,"slug_ville":"les-riceys","departement_id":610,"code_postal":"10340","population":1197,"superficie_km2":"43.00","latitude_centre":"47.9879990","longitude_centre":"4.3699999","distance_km":13.92},{"id":694,"code_insee":"10401","nom_standard":"Vendeuvre-sur-Barse","nom_a":null,"nom_de":null,"slug_ville":"vendeuvre-sur-barse","departement_id":610,"code_postal":"10140","population":2287,"superficie_km2":"52.00","latitude_centre":"48.2459984","longitude_centre":"4.4610000","distance_km":15.99},{"id":663,"code_insee":"10100","nom_standard":"Clérey","nom_a":null,"nom_de":null,"slug_ville":"clerey","departement_id":610,"code_postal":"10390","population":1142,"superficie_km2":"19.00","latitude_centre":"48.2080002","longitude_centre":"4.1939998","distance_km":17.32},{"id":667,"code_insee":"10209","nom_standard":"Lusigny-sur-Barse","nom_a":null,"nom_de":null,"slug_ville":"lusigny-sur-barse","departement_id":610,"code_postal":"10270","population":2244,"superficie_km2":"38.00","latitude_centre":"48.2630005","longitude_centre":"4.2760000","distance_km":18.34},{"id":660,"code_insee":"10080","nom_standard":"Chaource","nom_a":null,"nom_de":null,"slug_ville":"chaource","departement_id":610,"code_postal":"10210","population":1015,"superficie_km2":"31.00","latitude_centre":"48.0550003","longitude_centre":"4.1399999","distance_km":18.89},{"id":695,"code_insee":"10406","nom_standard":"Verrières","nom_a":null,"nom_de":null,"slug_ville":"verrieres","departement_id":610,"code_postal":"10390","population":1854,"superficie_km2":"10.00","latitude_centre":"48.2350006","longitude_centre":"4.1539998","distance_km":21.5},{"id":659,"code_insee":"10067","nom_standard":"Buchères","nom_a":null,"nom_de":null,"slug_ville":"bucheres","departement_id":610,"code_postal":"10800","population":1895,"superficie_km2":"7.00","latitude_centre":"48.2360001","longitude_centre":"4.1139998","distance_km":23.94},{"id":675,"code_insee":"10287","nom_standard":"Piney","nom_a":null,"nom_de":null,"slug_ville":"piney","departement_id":610,"code_postal":"10220","population":1447,"superficie_km2":"72.00","latitude_centre":"48.3320007","longitude_centre":"4.3590002","distance_km":24.4},{"id":657,"code_insee":"10060","nom_standard":"Bréviandes","nom_a":null,"nom_de":null,"slug_ville":"breviandes","departement_id":610,"code_postal":"10450","population":3034,"superficie_km2":"6.00","latitude_centre":"48.2560005","longitude_centre":"4.1079998","distance_km":25.62},{"id":687,"code_insee":"10357","nom_standard":"Saint-Parres-aux-Tertres","nom_a":null,"nom_de":null,"slug_ville":"saint-parres-aux-tertres","departement_id":610,"code_postal":"10410","population":3201,"superficie_km2":"12.00","latitude_centre":"48.2910004","longitude_centre":"4.1329999","distance_km":26.91},{"id":684,"code_insee":"10343","nom_standard":"Saint-Julien-les-Villas","nom_a":null,"nom_de":null,"slug_ville":"saint-julien-les-villas","departement_id":610,"code_postal":"10800","population":6745,"superficie_km2":"5.00","latitude_centre":"48.2739983","longitude_centre":"4.1030002","distance_km":27.19},{"id":654,"code_insee":"10033","nom_standard":"Bar-sur-Aube","nom_a":null,"nom_de":null,"slug_ville":"bar-sur-aube","departement_id":610,"code_postal":"10200","population":4753,"superficie_km2":"16.00","latitude_centre":"48.2340012","longitude_centre":"4.7160001","distance_km":28.38},{"id":681,"code_insee":"10325","nom_standard":"Rosières-près-Troyes","nom_a":null,"nom_de":null,"slug_ville":"rosieres-pres-troyes","departement_id":610,"code_postal":"10430","population":4749,"superficie_km2":"6.00","latitude_centre":"48.2630005","longitude_centre":"4.0640001","distance_km":28.7},{"id":656,"code_insee":"10051","nom_standard":"Bouilly","nom_a":null,"nom_de":null,"slug_ville":"bouilly","departement_id":610,"code_postal":"10320","population":1076,"superficie_km2":"16.00","latitude_centre":"48.1860008","longitude_centre":"3.9909999","distance_km":29.91},{"id":693,"code_insee":"10387","nom_standard":"Troyes","nom_a":null,"nom_de":null,"slug_ville":"troyes","departement_id":610,"code_postal":"10000","population":62782,"superficie_km2":"13.00","latitude_centre":"48.2970009","longitude_centre":"4.0780001","distance_km":30.27},{"id":682,"code_insee":"10333","nom_standard":"Saint-André-les-Vergers","nom_a":null,"nom_de":null,"slug_ville":"saint-andre-les-vergers","departement_id":610,"code_postal":"10120","population":12775,"superficie_km2":"6.00","latitude_centre":"48.2779999","longitude_centre":"4.0479999","distance_km":30.64},{"id":676,"code_insee":"10297","nom_standard":"Pont-Sainte-Marie","nom_a":null,"nom_de":null,"slug_ville":"pont-sainte-marie","departement_id":610,"code_postal":"10150","population":5143,"superficie_km2":"4.00","latitude_centre":"48.3190002","longitude_centre":"4.0999999","distance_km":30.85},{"id":664,"code_insee":"10115","nom_standard":"Creney-près-Troyes","nom_a":null,"nom_de":null,"slug_ville":"creney-pres-troyes","departement_id":610,"code_postal":"10150","population":1997,"superficie_km2":"16.00","latitude_centre":"48.3429985","longitude_centre":"4.1389999","distance_km":31.15},{"id":683,"code_insee":"10340","nom_standard":"Saint-Germain","nom_a":null,"nom_de":null,"slug_ville":"saint-germain","departement_id":610,"code_postal":"10120","population":2348,"superficie_km2":"14.00","latitude_centre":"48.2540016","longitude_centre":"4.0110002","distance_km":31.47}]}