{"ville":{"id":20792,"code_insee":"39038","nom_standard":"Barésia-sur-l'Ain","nom_a":null,"nom_de":null,"slug_ville":"baresia-sur-l-ain","departement_id":0,"code_postal":"39130","population":163,"superficie_km2":"1110.19","latitude_centre":"46.5438","longitude_centre":"5.7001","dep_code":"39","dep_nom":"Jura","dep_slug":"jura","reg_code":"27","reg_nom":"Bourgogne-Franche-Comté","reg_slug":"bourgogne-franche-comte"},"departement":{"code":"39","nom":"Jura","slug":"jura"},"region":{"code":"27","nom":"Bourgogne-Franche-Comté","slug":"bourgogne-franche-comte"},"villes_proches":[{"id":0,"code_insee":"39278","nom_standard":"Largillay-Marsonnay","nom_a":null,"nom_de":null,"slug_ville":"largillay-marsonnay","departement_id":0,"code_postal":"39130","population":128,"superficie_km2":"754.89","latitude_centre":"46.5557","longitude_centre":"5.6699","distance_km":2.66},{"id":0,"code_insee":"39435","nom_standard":"Pont-de-Poitte","nom_a":null,"nom_de":null,"slug_ville":"pont-de-poitte","departement_id":0,"code_postal":"39130","population":624,"superficie_km2":"763.32","latitude_centre":"46.5724","longitude_centre":"5.6874","distance_km":3.33},{"id":0,"code_insee":"39534","nom_standard":"La Tour-du-Meix","nom_a":null,"nom_de":null,"slug_ville":"la-tour-du-meix","departement_id":0,"code_postal":"39270","population":261,"superficie_km2":"1426.62","latitude_centre":"46.5219","longitude_centre":"5.6695","distance_km":3.38},{"id":0,"code_insee":"39175","nom_standard":"Coyron","nom_a":null,"nom_de":null,"slug_ville":"coyron","departement_id":0,"code_postal":"39260","population":68,"superficie_km2":"747.50","latitude_centre":"46.5108","longitude_centre":"5.697","distance_km":3.68},{"id":0,"code_insee":"39519","nom_standard":"Soucia","nom_a":null,"nom_de":null,"slug_ville":"soucia","departement_id":0,"code_postal":"39130","population":175,"superficie_km2":"1246.82","latitude_centre":"46.5374","longitude_centre":"5.7557","distance_km":4.31},{"id":0,"code_insee":"39061","nom_standard":"Boissia","nom_a":null,"nom_de":null,"slug_ville":"boissia","departement_id":0,"code_postal":"39130","population":119,"superficie_km2":"591.04","latitude_centre":"46.58","longitude_centre":"5.7233","distance_km":4.4},{"id":0,"code_insee":"39531","nom_standard":"Thoiria","nom_a":null,"nom_de":null,"slug_ville":"thoiria","departement_id":0,"code_postal":"39130","population":183,"superficie_km2":"1236.25","latitude_centre":"46.5195","longitude_centre":"5.7466","distance_km":4.47},{"id":0,"code_insee":"39154","nom_standard":"Clairvaux-les-Lacs","nom_a":null,"nom_de":null,"slug_ville":"clairvaux-les-lacs","departement_id":0,"code_postal":"39130","population":1426,"superficie_km2":"1231.26","latitude_centre":"46.5629","longitude_centre":"5.756","distance_km":4.77},{"id":0,"code_insee":"39408","nom_standard":"Patornay","nom_a":null,"nom_de":null,"slug_ville":"patornay","departement_id":0,"code_postal":"39130","population":154,"superficie_km2":"185.86","latitude_centre":"46.5879","longitude_centre":"5.7093","distance_km":4.95},{"id":0,"code_insee":"39324","nom_standard":"Mérona","nom_a":null,"nom_de":null,"slug_ville":"merona","departement_id":0,"code_postal":"39270","population":9,"superficie_km2":"291.41","latitude_centre":"46.5561","longitude_centre":"5.6351","distance_km":5.16},{"id":0,"code_insee":"39423","nom_standard":"Plaisia","nom_a":null,"nom_de":null,"slug_ville":"plaisia","departement_id":0,"code_postal":"39270","population":96,"superficie_km2":"532.68","latitude_centre":"46.5201","longitude_centre":"5.6367","distance_km":5.52},{"id":0,"code_insee":"39326","nom_standard":"Mesnois","nom_a":null,"nom_de":null,"slug_ville":"mesnois","departement_id":0,"code_postal":"39130","population":162,"superficie_km2":"1148.36","latitude_centre":"46.592","longitude_centre":"5.6803","distance_km":5.57},{"id":0,"code_insee":"39328","nom_standard":"Meussia","nom_a":null,"nom_de":null,"slug_ville":"meussia","departement_id":0,"code_postal":"39260","population":438,"superficie_km2":"1366.65","latitude_centre":"46.497","longitude_centre":"5.7379","distance_km":5.95},{"id":0,"code_insee":"39314","nom_standard":"Marnézia","nom_a":null,"nom_de":null,"slug_ville":"marnezia","departement_id":0,"code_postal":"39270","population":65,"superficie_km2":"498.27","latitude_centre":"46.576","longitude_centre":"5.635","distance_km":6.13},{"id":0,"code_insee":"39265","nom_standard":"Hautecour","nom_a":null,"nom_de":null,"slug_ville":"hautecour","departement_id":0,"code_postal":"39130","population":196,"superficie_km2":"517.84","latitude_centre":"46.5587","longitude_centre":"5.7808","distance_km":6.39},{"id":0,"code_insee":"39207","nom_standard":"Écrille","nom_a":null,"nom_de":null,"slug_ville":"ecrille","departement_id":0,"code_postal":"39270","population":89,"superficie_km2":"524.73","latitude_centre":"46.4997","longitude_centre":"5.6322","distance_km":7.14},{"id":0,"code_insee":"39556","nom_standard":"Vertamboz","nom_a":null,"nom_de":null,"slug_ville":"vertamboz","departement_id":0,"code_postal":"39130","population":83,"superficie_km2":"675.10","latitude_centre":"46.6007","longitude_centre":"5.7438","distance_km":7.15},{"id":0,"code_insee":"39307","nom_standard":"Maisod","nom_a":null,"nom_de":null,"slug_ville":"maisod","departement_id":0,"code_postal":"39260","population":326,"superficie_km2":"1039.38","latitude_centre":"46.4754","longitude_centre":"5.6938","distance_km":7.62},{"id":0,"code_insee":"39109","nom_standard":"Charézier","nom_a":null,"nom_de":null,"slug_ville":"charezier","departement_id":0,"code_postal":"39130","population":166,"superficie_km2":"932.13","latitude_centre":"46.6142","longitude_centre":"5.7361","distance_km":8.3},{"id":0,"code_insee":"39106","nom_standard":"Charchilla","nom_a":null,"nom_de":null,"slug_ville":"charchilla","departement_id":0,"code_postal":"39260","population":302,"superficie_km2":"692.89","latitude_centre":"46.4667","longitude_centre":"5.7147","distance_km":8.65}]}