{"ville":{"id":4822,"code_insee":"50029","nom_standard":"Barenton","nom_a":null,"nom_de":null,"slug_ville":"barenton","departement_id":651,"code_postal":"50720","population":1171,"superficie_km2":"36.00","latitude_centre":"48.6080017","longitude_centre":"-0.8310000","dep_code":"50","dep_nom":"Manche","dep_slug":"manche","reg_code":"14","reg_nom":"Normandie","reg_slug":"normandie"},"departement":{"code":"50","nom":"Manche","slug":"manche"},"region":{"code":"14","nom":"Normandie","slug":"normandie"},"villes_proches":[{"id":4911,"code_insee":"50591","nom_standard":"Le Teilleul","nom_a":null,"nom_de":null,"slug_ville":"le-teilleul","departement_id":651,"code_postal":"50640","population":1677,"superficie_km2":"31.00","latitude_centre":"48.5410004","longitude_centre":"-0.8780000","distance_km":8.21},{"id":4872,"code_insee":"50359","nom_standard":"Mortain-Bocage","nom_a":null,"nom_de":null,"slug_ville":"mortain-bocage","departement_id":651,"code_postal":"50140","population":2943,"superficie_km2":"7.00","latitude_centre":"48.6479988","longitude_centre":"-0.9320000","distance_km":8.65},{"id":6215,"code_insee":"61232","nom_standard":"Lonlay-l'Abbaye","nom_a":null,"nom_de":null,"slug_ville":"lonlay-l-abbaye","departement_id":662,"code_postal":"61700","population":1116,"superficie_km2":"53.00","latitude_centre":"48.6500015","longitude_centre":"-0.7050000","distance_km":10.37},{"id":4889,"code_insee":"50436","nom_standard":"Romagny Fontenay","nom_a":null,"nom_de":null,"slug_ville":"romagny-fontenay","departement_id":651,"code_postal":"50140","population":1259,"superficie_km2":"29.00","latitude_centre":"48.6370010","longitude_centre":"-0.9810000","distance_km":11.49},{"id":6222,"code_insee":"61324","nom_standard":"Passais Villages","nom_a":null,"nom_de":null,"slug_ville":"passais-villages","departement_id":662,"code_postal":"61350","population":1162,"superficie_km2":"17.00","latitude_centre":"48.5139999","longitude_centre":"-0.7600000","distance_km":11.69},{"id":4909,"code_insee":"50582","nom_standard":"Sourdeval","nom_a":null,"nom_de":null,"slug_ville":"sourdeval","departement_id":651,"code_postal":"50150","population":3077,"superficie_km2":"37.00","latitude_centre":"48.7130013","longitude_centre":"-0.8920000","distance_km":12.51},{"id":6228,"code_insee":"61369","nom_standard":"Saint-Bômer-les-Forges","nom_a":null,"nom_de":null,"slug_ville":"saint-bomer-les-forges","departement_id":662,"code_postal":"61700","population":1024,"superficie_km2":"31.00","latitude_centre":"48.6450005","longitude_centre":"-0.6230000","distance_km":15.83},{"id":6203,"code_insee":"61145","nom_standard":"Domfront en Poiraie","nom_a":null,"nom_de":null,"slug_ville":"domfront-en-poiraie","departement_id":662,"code_postal":"61700","population":4155,"superficie_km2":"35.00","latitude_centre":"48.5820007","longitude_centre":"-0.6140000","distance_km":16.22},{"id":5039,"code_insee":"53100","nom_standard":"Fougerolles-du-Plessis","nom_a":null,"nom_de":null,"slug_ville":"fougerolles-du-plessis","departement_id":654,"code_postal":"53190","population":1156,"superficie_km2":"34.00","latitude_centre":"48.4830017","longitude_centre":"-0.9460000","distance_km":16.27},{"id":6198,"code_insee":"61093","nom_standard":"Chanu","nom_a":null,"nom_de":null,"slug_ville":"chanu","departement_id":662,"code_postal":"61800","population":1253,"superficie_km2":"16.00","latitude_centre":"48.7220001","longitude_centre":"-0.6730000","distance_km":17.18},{"id":4861,"code_insee":"50260","nom_standard":"Juvigny les Vallées","nom_a":null,"nom_de":null,"slug_ville":"juvigny-les-vallees","departement_id":651,"code_postal":"50520","population":1681,"superficie_km2":"8.00","latitude_centre":"48.6790009","longitude_centre":"-1.0430000","distance_km":17.46},{"id":6243,"code_insee":"61486","nom_standard":"Tinchebray-Bocage","nom_a":null,"nom_de":null,"slug_ville":"tinchebray-bocage","departement_id":662,"code_postal":"61800","population":4884,"superficie_km2":"26.00","latitude_centre":"48.7560005","longitude_centre":"-0.7360000","distance_km":17.87},{"id":4875,"code_insee":"50391","nom_standard":"Grandparigny","nom_a":null,"nom_de":null,"slug_ville":"grandparigny","departement_id":651,"code_postal":"50600","population":2629,"superficie_km2":"12.00","latitude_centre":"48.5940018","longitude_centre":"-1.0820000","distance_km":18.52},{"id":4891,"code_insee":"50484","nom_standard":"Saint-Hilaire-du-Harcouët","nom_a":null,"nom_de":null,"slug_ville":"saint-hilaire-du-harcouet","departement_id":651,"code_postal":"50600","population":5747,"superficie_km2":"10.00","latitude_centre":"48.5719986","longitude_centre":"-1.0829999","distance_km":18.96},{"id":6196,"code_insee":"61075","nom_standard":"Ceaucé","nom_a":null,"nom_de":null,"slug_ville":"ceauce","departement_id":662,"code_postal":"61330","population":1162,"superficie_km2":"42.00","latitude_centre":"48.4939995","longitude_centre":"-0.6350000","distance_km":19.2},{"id":4865,"code_insee":"50274","nom_standard":"Les Loges-Marchis","nom_a":null,"nom_de":null,"slug_ville":"les-loges-marchis","departement_id":651,"code_postal":"50600","population":1025,"superficie_km2":"20.00","latitude_centre":"48.5340004","longitude_centre":"-1.0860000","distance_km":20.49},{"id":5042,"code_insee":"53107","nom_standard":"Gorron","nom_a":null,"nom_de":null,"slug_ville":"gorron","departement_id":654,"code_postal":"53120","population":2511,"superficie_km2":"15.00","latitude_centre":"48.4220009","longitude_centre":"-0.8020000","distance_km":20.79},{"id":5047,"code_insee":"53125","nom_standard":"Landivy","nom_a":null,"nom_de":null,"slug_ville":"landivy","departement_id":654,"code_postal":"53190","population":1118,"superficie_km2":"29.00","latitude_centre":"48.4790001","longitude_centre":"-1.0390000","distance_km":20.98},{"id":6213,"code_insee":"61218","nom_standard":"La Lande-Patry","nom_a":null,"nom_de":null,"slug_ville":"la-lande-patry","departement_id":662,"code_postal":"61100","population":1774,"superficie_km2":"6.00","latitude_centre":"48.7540016","longitude_centre":"-0.5980000","distance_km":23.58},{"id":6205,"code_insee":"61163","nom_standard":"La Ferrière-aux-Étangs","nom_a":null,"nom_de":null,"slug_ville":"la-ferriere-aux-etangs","departement_id":662,"code_postal":"61450","population":1556,"superficie_km2":"11.00","latitude_centre":"48.6520004","longitude_centre":"-0.5090000","distance_km":24.16}]}