{"ville":{"id":22991,"code_insee":"50034","nom_standard":"Baudre","nom_a":null,"nom_de":null,"slug_ville":"baudre","departement_id":0,"code_postal":"50000","population":613,"superficie_km2":"380.07","latitude_centre":"49.0866","longitude_centre":"-1.0675","dep_code":"50","dep_nom":"Manche","dep_slug":"manche","reg_code":"28","reg_nom":"Normandie","reg_slug":"normandie"},"departement":{"code":"50","nom":"Manche","slug":"manche"},"region":{"code":"28","nom":"Normandie","slug":"normandie"},"villes_proches":[{"id":0,"code_insee":"50556","nom_standard":"Sainte-Suzanne-sur-Vire","nom_a":null,"nom_de":null,"slug_ville":"sainte-suzanne-sur-vire","departement_id":0,"code_postal":"50750","population":685,"superficie_km2":"506.67","latitude_centre":"49.0734","longitude_centre":"-1.0594","distance_km":1.58},{"id":0,"code_insee":"50502","nom_standard":"Saint-Lô","nom_a":null,"nom_de":null,"slug_ville":"saint-lo","departement_id":0,"code_postal":"50000","population":19471,"superficie_km2":"2322.77","latitude_centre":"49.1123","longitude_centre":"-1.0812","distance_km":3.03},{"id":0,"code_insee":"50139","nom_standard":"Condé-sur-Vire","nom_a":null,"nom_de":null,"slug_ville":"conde-sur-vire","departement_id":0,"code_postal":"50420","population":4137,"superficie_km2":"3669.90","latitude_centre":"49.0503","longitude_centre":"-1.0409","distance_km":4.48},{"id":0,"code_insee":"50032","nom_standard":"La Barre-de-Semilly","nom_a":null,"nom_de":null,"slug_ville":"la-barre-de-semilly","departement_id":0,"code_postal":"50810","population":1029,"superficie_km2":"775.49","latitude_centre":"49.1053","longitude_centre":"-1.0127","distance_km":4.5},{"id":0,"code_insee":"50002","nom_standard":"Agneaux","nom_a":null,"nom_de":null,"slug_ville":"agneaux","departement_id":0,"code_postal":"50180","population":4286,"superficie_km2":"656.30","latitude_centre":"49.1153","longitude_centre":"-1.1272","distance_km":5.39},{"id":0,"code_insee":"50321","nom_standard":"Le Mesnil-Rouxelin","nom_a":null,"nom_de":null,"slug_ville":"le-mesnil-rouxelin","departement_id":0,"code_postal":"50000","population":469,"superficie_km2":"479.04","latitude_centre":"49.1395","longitude_centre":"-1.0758","distance_km":5.91},{"id":0,"code_insee":"50283","nom_standard":"La Luzerne","nom_a":null,"nom_de":null,"slug_ville":"la-luzerne","departement_id":0,"code_postal":"50680","population":87,"superficie_km2":"195.61","latitude_centre":"49.1399","longitude_centre":"-1.0457","distance_km":6.14},{"id":0,"code_insee":"50538","nom_standard":"Saint-Pierre-de-Semilly","nom_a":null,"nom_de":null,"slug_ville":"saint-pierre-de-semilly","departement_id":0,"code_postal":"50810","population":421,"superficie_km2":"457.48","latitude_centre":"49.1234","longitude_centre":"-1.0026","distance_km":6.25},{"id":0,"code_insee":"50475","nom_standard":"Saint-Georges-Montcocq","nom_a":null,"nom_de":null,"slug_ville":"saint-georges-montcocq","departement_id":0,"code_postal":"50000","population":988,"superficie_km2":"907.65","latitude_centre":"49.1374","longitude_centre":"-1.1069","distance_km":6.33},{"id":0,"code_insee":"50446","nom_standard":"Saint-André-de-l'Épine","nom_a":null,"nom_de":null,"slug_ville":"saint-andre-de-l-epine","departement_id":0,"code_postal":"50680","population":555,"superficie_km2":"727.12","latitude_centre":"49.1357","longitude_centre":"-1.0232","distance_km":6.34},{"id":0,"code_insee":"50095","nom_standard":"Canisy","nom_a":null,"nom_de":null,"slug_ville":"canisy","departement_id":0,"code_postal":"50750","population":1707,"superficie_km2":"1836.09","latitude_centre":"49.0706","longitude_centre":"-1.1583","distance_km":6.85},{"id":0,"code_insee":"50483","nom_standard":"Saint-Gilles","nom_a":null,"nom_de":null,"slug_ville":"saint-gilles","departement_id":0,"code_postal":"50180","population":1030,"superficie_km2":"789.86","latitude_centre":"49.0953","longitude_centre":"-1.1615","distance_km":6.91},{"id":0,"code_insee":"50546","nom_standard":"Bourgvallées","nom_a":null,"nom_de":null,"slug_ville":"bourgvallees","departement_id":0,"code_postal":"50750","population":3326,"superficie_km2":"4892.67","latitude_centre":"49.0365","longitude_centre":"-1.132","distance_km":7.29},{"id":0,"code_insee":"50423","nom_standard":"Rampan","nom_a":null,"nom_de":null,"slug_ville":"rampan","departement_id":0,"code_postal":"50000","population":230,"superficie_km2":"414.67","latitude_centre":"49.1465","longitude_centre":"-1.1314","distance_km":8.12},{"id":0,"code_insee":"50641","nom_standard":"Villiers-Fossard","nom_a":null,"nom_de":null,"slug_ville":"villiers-fossard","departement_id":0,"code_postal":"50680","population":646,"superficie_km2":"868.81","latitude_centre":"49.1612","longitude_centre":"-1.0605","distance_km":8.31},{"id":0,"code_insee":"50148","nom_standard":"Couvains","nom_a":null,"nom_de":null,"slug_ville":"couvains","departement_id":0,"code_postal":"50680","population":562,"superficie_km2":"1510.27","latitude_centre":"49.1618","longitude_centre":"-1.0099","distance_km":9.35},{"id":0,"code_insee":"50297","nom_standard":"La Meauffe","nom_a":null,"nom_de":null,"slug_ville":"la-meauffe","departement_id":0,"code_postal":"50880","population":993,"superficie_km2":"1018.37","latitude_centre":"49.1697","longitude_centre":"-1.0985","distance_km":9.51},{"id":0,"code_insee":"50473","nom_standard":"Saint-Georges-d'Elle","nom_a":null,"nom_de":null,"slug_ville":"saint-georges-d-elle","departement_id":0,"code_postal":"50680","population":380,"superficie_km2":"904.55","latitude_centre":"49.1511","longitude_centre":"-0.9792","distance_km":9.63},{"id":0,"code_insee":"50164","nom_standard":"Domjean","nom_a":null,"nom_de":null,"slug_ville":"domjean","departement_id":0,"code_postal":"50420","population":999,"superficie_km2":"1675.94","latitude_centre":"48.9937","longitude_centre":"-1.0293","distance_km":10.7},{"id":0,"code_insee":"50455","nom_standard":"Saint-Clair-sur-l'Elle","nom_a":null,"nom_de":null,"slug_ville":"saint-clair-sur-l-elle","departement_id":0,"code_postal":"50680","population":959,"superficie_km2":"803.29","latitude_centre":"49.1871","longitude_centre":"-1.0448","distance_km":11.3}]}