{"ville":{"id":7526,"code_insee":"72025","nom_standard":"Bazouges Cré sur Loir","nom_a":null,"nom_de":null,"slug_ville":"bazouges-cre-sur-loir","departement_id":673,"code_postal":"72200","population":1951,"superficie_km2":"30.00","latitude_centre":"47.6860008","longitude_centre":"-0.1720000","dep_code":"72","dep_nom":"Sarthe","dep_slug":"sarthe","reg_code":"17","reg_nom":"Pays de la Loire","reg_slug":"pays-de-la-loire"},"departement":{"code":"72","nom":"Sarthe","slug":"sarthe"},"region":{"code":"17","nom":"Pays de la Loire","slug":"pays-de-la-loire"},"villes_proches":[{"id":4770,"code_insee":"49257","nom_standard":"Les Rairies","nom_a":null,"nom_de":null,"slug_ville":"les-rairies","departement_id":650,"code_postal":"49430","population":1038,"superficie_km2":"8.00","latitude_centre":"47.6520004","longitude_centre":"-0.2170000","distance_km":5.06},{"id":7551,"code_insee":"72110","nom_standard":"Crosmières","nom_a":null,"nom_de":null,"slug_ville":"crosmieres","departement_id":673,"code_postal":"72200","population":1012,"superficie_km2":"21.00","latitude_centre":"47.7360001","longitude_centre":"-0.1550000","distance_km":5.7},{"id":4733,"code_insee":"49127","nom_standard":"Durtal","nom_a":null,"nom_de":null,"slug_ville":"durtal","departement_id":650,"code_postal":"49430","population":3351,"superficie_km2":"61.00","latitude_centre":"47.6780014","longitude_centre":"-0.2550000","distance_km":6.28},{"id":7540,"code_insee":"72061","nom_standard":"La Chapelle-d'Aligné","nom_a":null,"nom_de":null,"slug_ville":"la-chapelle-d-aligne","departement_id":673,"code_postal":"72300","population":1714,"superficie_km2":"33.00","latitude_centre":"47.7360001","longitude_centre":"-0.2390000","distance_km":7.49},{"id":7566,"code_insee":"72154","nom_standard":"La Flèche","nom_a":null,"nom_de":null,"slug_ville":"la-fleche","departement_id":673,"code_postal":"72200","population":14937,"superficie_km2":"79.00","latitude_centre":"47.6889992","longitude_centre":"-0.0650000","distance_km":8.02},{"id":7634,"code_insee":"72377","nom_standard":"Villaines-sous-Malicorne","nom_a":null,"nom_de":null,"slug_ville":"villaines-sous-malicorne","departement_id":673,"code_postal":"72270","population":1034,"superficie_km2":"19.00","latitude_centre":"47.7570000","longitude_centre":"-0.1050000","distance_km":9.35},{"id":7523,"code_insee":"72022","nom_standard":"Le Bailleul","nom_a":null,"nom_de":null,"slug_ville":"le-bailleul","departement_id":673,"code_postal":"72200","population":1214,"superficie_km2":"28.00","latitude_centre":"47.7719994","longitude_centre":"-0.1800000","distance_km":9.58},{"id":4743,"code_insee":"49174","nom_standard":"Huillé-Lézigné","nom_a":null,"nom_de":null,"slug_ville":"huille-lezigne","departement_id":650,"code_postal":"49430","population":1311,"superficie_km2":"9.00","latitude_centre":"47.6370010","longitude_centre":"-0.2930000","distance_km":10.57},{"id":7546,"code_insee":"72084","nom_standard":"Clermont-Créans","nom_a":null,"nom_de":null,"slug_ville":"clermont-creans","departement_id":673,"code_postal":"72200","population":1274,"superficie_km2":"18.00","latitude_centre":"47.7330017","longitude_centre":"-0.0240000","distance_km":12.24},{"id":7597,"code_insee":"72244","nom_standard":"Précigné","nom_a":null,"nom_de":null,"slug_ville":"precigne","departement_id":673,"code_postal":"72300","population":2924,"superficie_km2":"58.00","latitude_centre":"47.7639999","longitude_centre":"-0.3180000","distance_km":13.95},{"id":7592,"code_insee":"72228","nom_standard":"Parcé-sur-Sarthe","nom_a":null,"nom_de":null,"slug_ville":"parce-sur-sarthe","departement_id":673,"code_postal":"72300","population":2046,"superficie_km2":"41.00","latitude_centre":"47.8209992","longitude_centre":"-0.1930000","distance_km":15.09},{"id":4741,"code_insee":"49163","nom_standard":"Jarzé Villages","nom_a":null,"nom_de":null,"slug_ville":"jarze-villages","departement_id":650,"code_postal":"49140","population":2785,"superficie_km2":"33.00","latitude_centre":"47.5579987","longitude_centre":"-0.2400000","distance_km":15.12},{"id":7575,"code_insee":"72179","nom_standard":"Malicorne-sur-Sarthe","nom_a":null,"nom_de":null,"slug_ville":"malicorne-sur-sarthe","departement_id":673,"code_postal":"72270","population":1882,"superficie_km2":"15.00","latitude_centre":"47.8129997","longitude_centre":"-0.0880000","distance_km":15.46},{"id":7635,"code_insee":"72378","nom_standard":"Vion","nom_a":null,"nom_de":null,"slug_ville":"vion","departement_id":673,"code_postal":"72300","population":1405,"superficie_km2":"20.00","latitude_centre":"47.8149986","longitude_centre":"-0.2640000","distance_km":15.91},{"id":4704,"code_insee":"49018","nom_standard":"Baugé-en-Anjou","nom_a":null,"nom_de":null,"slug_ville":"bauge-en-anjou","departement_id":650,"code_postal":"49150","population":11757,"superficie_km2":"9.00","latitude_centre":"47.5470009","longitude_centre":"-0.1090000","distance_km":16.16},{"id":4797,"code_insee":"49333","nom_standard":"Seiches-sur-le-Loir","nom_a":null,"nom_de":null,"slug_ville":"seiches-sur-le-loir","departement_id":650,"code_postal":"49140","population":2866,"superficie_km2":"29.00","latitude_centre":"47.6040001","longitude_centre":"-0.3590000","distance_km":16.71},{"id":4758,"code_insee":"49220","nom_standard":"Morannes sur Sarthe-Daumeray","nom_a":null,"nom_de":null,"slug_ville":"morannes-sur-sarthe-daumeray","departement_id":650,"code_postal":"49640","population":3682,"superficie_km2":"41.00","latitude_centre":"47.7260017","longitude_centre":"-0.4030000","distance_km":17.85},{"id":7622,"code_insee":"72336","nom_standard":"Solesmes","nom_a":null,"nom_de":null,"slug_ville":"solesmes","departement_id":673,"code_postal":"72300","population":1221,"superficie_km2":"12.00","latitude_centre":"47.8440018","longitude_centre":"-0.2810000","distance_km":19.37},{"id":7583,"code_insee":"72195","nom_standard":"Mézeray","nom_a":null,"nom_de":null,"slug_ville":"mezeray","departement_id":673,"code_postal":"72270","population":1852,"superficie_km2":"33.00","latitude_centre":"47.8300018","longitude_centre":"-0.0160000","distance_km":19.81},{"id":7590,"code_insee":"72223","nom_standard":"Noyen-sur-Sarthe","nom_a":null,"nom_de":null,"slug_ville":"noyen-sur-sarthe","departement_id":673,"code_postal":"72430","population":2613,"superficie_km2":"43.00","latitude_centre":"47.8590012","longitude_centre":"-0.1000000","distance_km":19.98}]}