{"ville":{"id":7527,"code_insee":"72026","nom_standard":"Beaufay","nom_a":null,"nom_de":null,"slug_ville":"beaufay","departement_id":673,"code_postal":"72110","population":1514,"superficie_km2":"24.00","latitude_centre":"48.1419983","longitude_centre":"0.3420000","dep_code":"72","dep_nom":"Sarthe","dep_slug":"sarthe","reg_code":"17","reg_nom":"Pays de la Loire","reg_slug":"pays-de-la-loire"},"departement":{"code":"72","nom":"Sarthe","slug":"sarthe"},"region":{"code":"17","nom":"Pays de la Loire","slug":"pays-de-la-loire"},"villes_proches":[{"id":7629,"code_insee":"72359","nom_standard":"Torcé-en-Vallée","nom_a":null,"nom_de":null,"slug_ville":"torce-en-vallee","departement_id":673,"code_postal":"72110","population":1436,"superficie_km2":"17.00","latitude_centre":"48.1320000","longitude_centre":"0.3920000","distance_km":3.87},{"id":7621,"code_insee":"72335","nom_standard":"Sillé-le-Philippe","nom_a":null,"nom_de":null,"slug_ville":"sille-le-philippe","departement_id":673,"code_postal":"72460","population":1073,"superficie_km2":"11.00","latitude_centre":"48.1059990","longitude_centre":"0.3490000","distance_km":4.04},{"id":7606,"code_insee":"72275","nom_standard":"Saint-Corneille","nom_a":null,"nom_de":null,"slug_ville":"saint-corneille","departement_id":673,"code_postal":"72460","population":1518,"superficie_km2":"11.00","latitude_centre":"48.0769997","longitude_centre":"0.3420000","distance_km":7.23},{"id":7619,"code_insee":"72329","nom_standard":"Savigné-l'Évêque","nom_a":null,"nom_de":null,"slug_ville":"savigne-l-eveque","departement_id":673,"code_postal":"72460","population":4054,"superficie_km2":"28.00","latitude_centre":"48.0830002","longitude_centre":"0.2880000","distance_km":7.69},{"id":7623,"code_insee":"72340","nom_standard":"Souligné-sous-Ballon","nom_a":null,"nom_de":null,"slug_ville":"souligne-sous-ballon","departement_id":673,"code_postal":"72290","population":1238,"superficie_km2":"13.00","latitude_centre":"48.1370010","longitude_centre":"0.2380000","distance_km":7.74},{"id":7568,"code_insee":"72165","nom_standard":"Lombron","nom_a":null,"nom_de":null,"slug_ville":"lombron","departement_id":673,"code_postal":"72450","population":1900,"superficie_km2":"24.00","latitude_centre":"48.0859985","longitude_centre":"0.4130000","distance_km":8.16},{"id":7564,"code_insee":"72150","nom_standard":"Joué-l'Abbé","nom_a":null,"nom_de":null,"slug_ville":"joue-l-abbe","departement_id":673,"code_postal":"72380","population":1270,"superficie_km2":"10.00","latitude_centre":"48.1080017","longitude_centre":"0.2300000","distance_km":9.13},{"id":7524,"code_insee":"72023","nom_standard":"Ballon-Saint Mars","nom_a":null,"nom_de":null,"slug_ville":"ballon-saint-mars","departement_id":673,"code_postal":"72290","population":2266,"superficie_km2":"14.00","latitude_centre":"48.1720009","longitude_centre":"0.2260000","distance_km":9.23},{"id":7530,"code_insee":"72039","nom_standard":"Bonnétable","nom_a":null,"nom_de":null,"slug_ville":"bonnetable","departement_id":673,"code_postal":"72110","population":3735,"superficie_km2":"40.00","latitude_centre":"48.1850014","longitude_centre":"0.4520000","distance_km":9.46},{"id":7595,"code_insee":"72241","nom_standard":"Montfort-le-Gesnois","nom_a":null,"nom_de":null,"slug_ville":"montfort-le-gesnois","departement_id":673,"code_postal":"72450","population":2917,"superficie_km2":"19.00","latitude_centre":"48.0579987","longitude_centre":"0.4020000","distance_km":10.35},{"id":7563,"code_insee":"72147","nom_standard":"La Guierche","nom_a":null,"nom_de":null,"slug_ville":"la-guierche","departement_id":673,"code_postal":"72380","population":1231,"superficie_km2":"8.00","latitude_centre":"48.1180000","longitude_centre":"0.2010000","distance_km":10.8},{"id":7586,"code_insee":"72205","nom_standard":"Montbizot","nom_a":null,"nom_de":null,"slug_ville":"montbizot","departement_id":673,"code_postal":"72380","population":1826,"superficie_km2":"11.00","latitude_centre":"48.1529999","longitude_centre":"0.1820000","distance_km":11.93},{"id":7589,"code_insee":"72217","nom_standard":"Neuville-sur-Sarthe","nom_a":null,"nom_de":null,"slug_ville":"neuville-sur-sarthe","departement_id":673,"code_postal":"72190","population":2462,"superficie_km2":"23.00","latitude_centre":"48.0760002","longitude_centre":"0.2140000","distance_km":12.01},{"id":7631,"code_insee":"72363","nom_standard":"Tuffé Val de la Chéronne","nom_a":null,"nom_de":null,"slug_ville":"tuffe-val-de-la-cheronne","departement_id":673,"code_postal":"72160","population":1667,"superficie_km2":"25.00","latitude_centre":"48.1209984","longitude_centre":"0.5080000","distance_km":12.54},{"id":7581,"code_insee":"72189","nom_standard":"Marolles-les-Braults","nom_a":null,"nom_de":null,"slug_ville":"marolles-les-braults","departement_id":673,"code_postal":"72260","population":2061,"superficie_km2":"21.00","latitude_centre":"48.2540016","longitude_centre":"0.3200000","distance_km":12.56},{"id":7618,"code_insee":"72328","nom_standard":"Sargé-lès-le-Mans","nom_a":null,"nom_de":null,"slug_ville":"sarge-les-le-mans","departement_id":673,"code_postal":"72190","population":3813,"superficie_km2":"14.00","latitude_centre":"48.0419998","longitude_centre":"0.2470000","distance_km":13.17},{"id":7610,"code_insee":"72289","nom_standard":"Sainte-Jamme-sur-Sarthe","nom_a":null,"nom_de":null,"slug_ville":"sainte-jamme-sur-sarthe","departement_id":673,"code_postal":"72380","population":1987,"superficie_km2":"9.00","latitude_centre":"48.1380005","longitude_centre":"0.1580000","distance_km":13.66},{"id":7548,"code_insee":"72090","nom_standard":"Connerré","nom_a":null,"nom_de":null,"slug_ville":"connerre","departement_id":673,"code_postal":"72160","population":2895,"superficie_km2":"17.00","latitude_centre":"48.0509987","longitude_centre":"0.4680000","distance_km":13.78},{"id":7638,"code_insee":"72386","nom_standard":"Yvré-l'Évêque","nom_a":null,"nom_de":null,"slug_ville":"yvre-l-eveque","departement_id":673,"code_postal":"72530","population":4192,"superficie_km2":"28.00","latitude_centre":"48.0229988","longitude_centre":"0.2820000","distance_km":13.96},{"id":7537,"code_insee":"72054","nom_standard":"Champagné","nom_a":null,"nom_de":null,"slug_ville":"champagne","departement_id":673,"code_postal":"72470","population":3683,"superficie_km2":"14.00","latitude_centre":"48.0159988","longitude_centre":"0.3340000","distance_km":14.02}]}