{"ville":{"id":17119,"code_insee":"26040","nom_standard":"Beaurières","nom_a":null,"nom_de":null,"slug_ville":"beaurieres","departement_id":0,"code_postal":"26310","population":82,"superficie_km2":"2442.51","latitude_centre":"44.5544","longitude_centre":"5.552","dep_code":"26","dep_nom":"Drôme","dep_slug":"drome","reg_code":"84","reg_nom":"Auvergne-Rhône-Alpes","reg_slug":"auvergne-rhone-alpes"},"departement":{"code":"26","nom":"Drôme","slug":"drome"},"region":{"code":"84","nom":"Auvergne-Rhône-Alpes","slug":"auvergne-rhone-alpes"},"villes_proches":[{"id":0,"code_insee":"26255","nom_standard":"Les Prés","nom_a":null,"nom_de":null,"slug_ville":"les-pres","departement_id":0,"code_postal":"26310","population":31,"superficie_km2":"1624.64","latitude_centre":"44.5363","longitude_centre":"5.5784","distance_km":2.9},{"id":0,"code_insee":"26076","nom_standard":"Charens","nom_a":null,"nom_de":null,"slug_ville":"charens","departement_id":0,"code_postal":"26310","population":32,"superficie_km2":"1301.97","latitude_centre":"44.5432","longitude_centre":"5.5096","distance_km":3.58},{"id":0,"code_insee":"26136","nom_standard":"Val-Maravel","nom_a":null,"nom_de":null,"slug_ville":"val-maravel","departement_id":0,"code_postal":"26310","population":55,"superficie_km2":"2101.53","latitude_centre":"44.59","longitude_centre":"5.5877","distance_km":4.86},{"id":0,"code_insee":"26164","nom_standard":"Lesches-en-Diois","nom_a":null,"nom_de":null,"slug_ville":"lesches-en-diois","departement_id":0,"code_postal":"26310","population":57,"superficie_km2":"1991.73","latitude_centre":"44.5924","longitude_centre":"5.5178","distance_km":5.02},{"id":11373,"code_insee":"05066","nom_standard":"La Haute-Beaume","nom_a":null,"nom_de":null,"slug_ville":"la-haute-beaume","departement_id":0,"code_postal":"05140","population":7,"superficie_km2":"718.25","latitude_centre":"44.5707","longitude_centre":"5.6299","distance_km":6.43},{"id":0,"code_insee":"26361","nom_standard":"Valdrôme","nom_a":null,"nom_de":null,"slug_ville":"valdrome","departement_id":0,"code_postal":"26310","population":133,"superficie_km2":"4117.28","latitude_centre":"44.4969","longitude_centre":"5.5672","distance_km":6.51},{"id":17117,"code_insee":"26036","nom_standard":"Beaumont-en-Diois","nom_a":null,"nom_de":null,"slug_ville":"beaumont-en-diois","departement_id":0,"code_postal":"26310","population":103,"superficie_km2":"1761.50","latitude_centre":"44.5634","longitude_centre":"5.4697","distance_km":6.6},{"id":0,"code_insee":"26300","nom_standard":"Saint-Dizier-en-Diois","nom_a":null,"nom_de":null,"slug_ville":"saint-dizier-en-diois","departement_id":0,"code_postal":"26310","population":45,"superficie_km2":"1391.49","latitude_centre":"44.5133","longitude_centre":"5.4847","distance_km":7.02},{"id":17112,"code_insee":"26030","nom_standard":"La Bâtie-des-Fonds","nom_a":null,"nom_de":null,"slug_ville":"la-batie-des-fonds","departement_id":0,"code_postal":"26310","population":6,"superficie_km2":"1157.52","latitude_centre":"44.5169","longitude_centre":"5.6331","distance_km":7.66},{"id":11339,"code_insee":"05019","nom_standard":"La Beaume","nom_a":null,"nom_de":null,"slug_ville":"la-beaume","departement_id":0,"code_postal":"05140","population":153,"superficie_km2":"2965.42","latitude_centre":"44.5477","longitude_centre":"5.6518","distance_km":7.94},{"id":0,"code_insee":"26186","nom_standard":"Miscon","nom_a":null,"nom_de":null,"slug_ville":"miscon","departement_id":0,"code_postal":"26310","population":73,"superficie_km2":"1217.78","latitude_centre":"44.6256","longitude_centre":"5.5143","distance_km":8.46},{"id":0,"code_insee":"26047","nom_standard":"Bellegarde-en-Diois","nom_a":null,"nom_de":null,"slug_ville":"bellegarde-en-diois","departement_id":0,"code_postal":"26470","population":96,"superficie_km2":"2568.24","latitude_centre":"44.5394","longitude_centre":"5.4383","distance_km":9.16},{"id":0,"code_insee":"26055","nom_standard":"Boulc","nom_a":null,"nom_de":null,"slug_ville":"boulc","departement_id":0,"code_postal":"26410","population":154,"superficie_km2":"5728.93","latitude_centre":"44.636","longitude_centre":"5.5849","distance_km":9.44},{"id":0,"code_insee":"26167","nom_standard":"Luc-en-Diois","nom_a":null,"nom_de":null,"slug_ville":"luc-en-diois","departement_id":0,"code_postal":"26310","population":614,"superficie_km2":"2313.61","latitude_centre":"44.6132","longitude_centre":"5.4562","distance_km":10.02},{"id":11342,"code_insee":"05024","nom_standard":"Valdoule","nom_a":null,"nom_de":null,"slug_ville":"valdoule","departement_id":0,"code_postal":"05150","population":204,"superficie_km2":"5887.92","latitude_centre":"44.4627","longitude_centre":"5.5309","distance_km":10.33},{"id":11383,"code_insee":"05080","nom_standard":"Montbrand","nom_a":null,"nom_de":null,"slug_ville":"montbrand","departement_id":0,"code_postal":"05140","population":75,"superficie_km2":"2540.47","latitude_centre":"44.5952","longitude_centre":"5.6699","distance_km":10.38},{"id":0,"code_insee":"26123","nom_standard":"Establet","nom_a":null,"nom_de":null,"slug_ville":"establet","departement_id":0,"code_postal":"26470","population":27,"superficie_km2":"1273.02","latitude_centre":"44.4988","longitude_centre":"5.4415","distance_km":10.72},{"id":11402,"code_insee":"05102","nom_standard":"La Piarre","nom_a":null,"nom_de":null,"slug_ville":"la-piarre","departement_id":0,"code_postal":"05700","population":82,"superficie_km2":"2200.40","latitude_centre":"44.4809","longitude_centre":"5.6458","distance_km":11.05},{"id":0,"code_insee":"26178","nom_standard":"Menglon","nom_a":null,"nom_de":null,"slug_ville":"menglon","departement_id":0,"code_postal":"26410","population":539,"superficie_km2":"3656.67","latitude_centre":"44.6565","longitude_centre":"5.4701","distance_km":13.07},{"id":11357,"code_insee":"05048","nom_standard":"L'Épine","nom_a":null,"nom_de":null,"slug_ville":"l-epine","departement_id":0,"code_postal":"05700","population":200,"superficie_km2":"3357.72","latitude_centre":"44.4319","longitude_centre":"5.6095","distance_km":14.36}]}