{"ville":{"id":18727,"code_insee":"31051","nom_standard":"Beaufort","nom_a":null,"nom_de":null,"slug_ville":"beaufort","departement_id":0,"code_postal":"31370","population":475,"superficie_km2":"848.11","latitude_centre":"43.4545","longitude_centre":"1.1069","dep_code":"31","dep_nom":"Haute-Garonne","dep_slug":"haute-garonne","reg_code":"76","reg_nom":"Occitanie","reg_slug":"occitanie"},"departement":{"code":"31","nom":"Haute-Garonne","slug":"haute-garonne"},"region":{"code":"76","nom":"Occitanie","slug":"occitanie"},"villes_proches":[{"id":0,"code_insee":"31382","nom_standard":"Montgras","nom_a":null,"nom_de":null,"slug_ville":"montgras","departement_id":0,"code_postal":"31370","population":116,"superficie_km2":"398.41","latitude_centre":"43.4507","longitude_centre":"1.0721","distance_km":2.84},{"id":0,"code_insee":"31481","nom_standard":"Sainte-Foy-de-Peyrolières","nom_a":null,"nom_de":null,"slug_ville":"sainte-foy-de-peyrolieres","departement_id":0,"code_postal":"31470","population":2088,"superficie_km2":"3806.55","latitude_centre":"43.4754","longitude_centre":"1.1362","distance_km":3.32},{"id":0,"code_insee":"31266","nom_standard":"Lahage","nom_a":null,"nom_de":null,"slug_ville":"lahage","departement_id":0,"code_postal":"31370","population":212,"superficie_km2":"759.98","latitude_centre":"43.4414","longitude_centre":"1.0699","distance_km":3.32},{"id":0,"code_insee":"31464","nom_standard":"Sabonnères","nom_a":null,"nom_de":null,"slug_ville":"sabonneres","departement_id":0,"code_postal":"31370","population":332,"superficie_km2":"1246.21","latitude_centre":"43.4666","longitude_centre":"1.057","distance_km":4.25},{"id":0,"code_insee":"31454","nom_standard":"Rieumes","nom_a":null,"nom_de":null,"slug_ville":"rieumes","departement_id":0,"code_postal":"31370","population":3517,"superficie_km2":"3092.83","latitude_centre":"43.413","longitude_centre":"1.1104","distance_km":4.62},{"id":0,"code_insee":"31087","nom_standard":"Bragayrac","nom_a":null,"nom_de":null,"slug_ville":"bragayrac","departement_id":0,"code_postal":"31470","population":311,"superficie_km2":"834.89","latitude_centre":"43.4894","longitude_centre":"1.068","distance_km":4.99},{"id":0,"code_insee":"31423","nom_standard":"Plagnole","nom_a":null,"nom_de":null,"slug_ville":"plagnole","departement_id":0,"code_postal":"31370","population":348,"superficie_km2":"735.55","latitude_centre":"43.4114","longitude_centre":"1.07","distance_km":5.64},{"id":0,"code_insee":"31189","nom_standard":"Forgues","nom_a":null,"nom_de":null,"slug_ville":"forgues","departement_id":0,"code_postal":"31370","population":214,"superficie_km2":"528.07","latitude_centre":"43.4322","longitude_centre":"1.0429","distance_km":5.73},{"id":0,"code_insee":"31101","nom_standard":"Cambernard","nom_a":null,"nom_de":null,"slug_ville":"cambernard","departement_id":0,"code_postal":"31470","population":499,"superficie_km2":"845.52","latitude_centre":"43.4643","longitude_centre":"1.1785","distance_km":5.88},{"id":0,"code_insee":"31435","nom_standard":"Poucharramet","nom_a":null,"nom_de":null,"slug_ville":"poucharramet","departement_id":0,"code_postal":"31370","population":974,"superficie_km2":"2264.66","latitude_centre":"43.42","longitude_centre":"1.1657","distance_km":6.1},{"id":0,"code_insee":"32308","nom_standard":"Pébées","nom_a":null,"nom_de":null,"slug_ville":"pebees","departement_id":0,"code_postal":"32130","population":96,"superficie_km2":"404.97","latitude_centre":"43.4601","longitude_centre":"1.0272","distance_km":6.46},{"id":0,"code_insee":"31518","nom_standard":"Saint-Thomas","nom_a":null,"nom_de":null,"slug_ville":"saint-thomas","departement_id":0,"code_postal":"31470","population":627,"superficie_km2":"1413.22","latitude_centre":"43.5152","longitude_centre":"1.0835","distance_km":7.01},{"id":0,"code_insee":"31353","nom_standard":"Monès","nom_a":null,"nom_de":null,"slug_ville":"mones","departement_id":0,"code_postal":"31370","population":87,"superficie_km2":"250.89","latitude_centre":"43.418","longitude_centre":"1.0333","distance_km":7.2},{"id":0,"code_insee":"31466","nom_standard":"Saiguède","nom_a":null,"nom_de":null,"slug_ville":"saiguede","departement_id":0,"code_postal":"31470","population":794,"superficie_km2":"1191.77","latitude_centre":"43.524","longitude_centre":"1.1424","distance_km":8.24},{"id":0,"code_insee":"32432","nom_standard":"Seysses-Savès","nom_a":null,"nom_de":null,"slug_ville":"seysses-saves","departement_id":0,"code_postal":"32130","population":244,"superficie_km2":"1324.48","latitude_centre":"43.5139","longitude_centre":"1.0454","distance_km":8.26},{"id":0,"code_insee":"32387","nom_standard":"Saint-Loube","nom_a":null,"nom_de":null,"slug_ville":"saint-loube","departement_id":0,"code_postal":"32220","population":96,"superficie_km2":"610.59","latitude_centre":"43.44","longitude_centre":"1.0058","distance_km":8.32},{"id":0,"code_insee":"31538","nom_standard":"Savères","nom_a":null,"nom_de":null,"slug_ville":"saveres","departement_id":0,"code_postal":"31370","population":209,"superficie_km2":"1088.04","latitude_centre":"43.3743","longitude_centre":"1.0991","distance_km":8.94},{"id":0,"code_insee":"31283","nom_standard":"Lautignac","nom_a":null,"nom_de":null,"slug_ville":"lautignac","departement_id":0,"code_postal":"31370","population":248,"superficie_km2":"1778.02","latitude_centre":"43.3789","longitude_centre":"1.0668","distance_km":9.01},{"id":0,"code_insee":"31166","nom_standard":"Empeaux","nom_a":null,"nom_de":null,"slug_ville":"empeaux","departement_id":0,"code_postal":"31470","population":314,"superficie_km2":"456.22","latitude_centre":"43.536","longitude_centre":"1.074","distance_km":9.44},{"id":0,"code_insee":"31075","nom_standard":"Bonrepos-sur-Aussonnelle","nom_a":null,"nom_de":null,"slug_ville":"bonrepos-sur-aussonnelle","departement_id":0,"code_postal":"31470","population":1241,"superficie_km2":"1020.62","latitude_centre":"43.5429","longitude_centre":"1.1395","distance_km":10.18}]}