{"ville":{"id":17382,"code_insee":"27050","nom_standard":"Beaumontel","nom_a":null,"nom_de":null,"slug_ville":"beaumontel","departement_id":0,"code_postal":"27170","population":639,"superficie_km2":"1167.80","latitude_centre":"49.0955","longitude_centre":"0.7817","dep_code":"27","dep_nom":"Eure","dep_slug":"eure","reg_code":"28","reg_nom":"Normandie","reg_slug":"normandie"},"departement":{"code":"27","nom":"Eure","slug":"eure"},"region":{"code":"28","nom":"Normandie","slug":"normandie"},"villes_proches":[{"id":0,"code_insee":"27290","nom_standard":"Goupil-Othon","nom_a":null,"nom_de":null,"slug_ville":"goupil-othon","departement_id":0,"code_postal":"27170","population":1220,"superficie_km2":"1491.97","latitude_centre":"49.1206","longitude_centre":"0.778","distance_km":2.8},{"id":0,"code_insee":"27364","nom_standard":"Launay","nom_a":null,"nom_de":null,"slug_ville":"launay","departement_id":0,"code_postal":"27470","population":177,"superficie_km2":"233.28","latitude_centre":"49.1076","longitude_centre":"0.7369","distance_km":3.53},{"id":0,"code_insee":"27037","nom_standard":"Barc","nom_a":null,"nom_de":null,"slug_ville":"barc","departement_id":0,"code_postal":"27170","population":1166,"superficie_km2":"1151.23","latitude_centre":"49.0791","longitude_centre":"0.8245","distance_km":3.61},{"id":0,"code_insee":"27109","nom_standard":"Bray","nom_a":null,"nom_de":null,"slug_ville":"bray","departement_id":0,"code_postal":"27170","population":398,"superficie_km2":"583.64","latitude_centre":"49.1041","longitude_centre":"0.8363","distance_km":4.09},{"id":0,"code_insee":"27051","nom_standard":"Beaumont-le-Roger","nom_a":null,"nom_de":null,"slug_ville":"beaumont-le-roger","departement_id":0,"code_postal":"27170","population":2769,"superficie_km2":"3652.54","latitude_centre":"49.0579","longitude_centre":"0.7515","distance_km":4.72},{"id":0,"code_insee":"27630","nom_standard":"Thibouville","nom_a":null,"nom_de":null,"slug_ville":"thibouville","departement_id":0,"code_postal":"27800","population":328,"superficie_km2":"883.44","latitude_centre":"49.1374","longitude_centre":"0.8017","distance_km":4.88},{"id":0,"code_insee":"27210","nom_standard":"Écardenville-la-Campagne","nom_a":null,"nom_de":null,"slug_ville":"ecardenville-la-campagne","departement_id":0,"code_postal":"27170","population":441,"superficie_km2":"738.99","latitude_centre":"49.125","longitude_centre":"0.832","distance_km":4.92},{"id":0,"code_insee":"27466","nom_standard":"Le Plessis-Sainte-Opportune","nom_a":null,"nom_de":null,"slug_ville":"le-plessis-sainte-opportune","departement_id":0,"code_postal":"27170","population":351,"superficie_km2":"1143.00","latitude_centre":"49.0744","longitude_centre":"0.8516","distance_km":5.61},{"id":0,"code_insee":"27622","nom_standard":"Serquigny","nom_a":null,"nom_de":null,"slug_ville":"serquigny","departement_id":0,"code_postal":"27470","population":1754,"superficie_km2":"1146.89","latitude_centre":"49.1123","longitude_centre":"0.7057","distance_km":5.84},{"id":0,"code_insee":"27300","nom_standard":"Grosley-sur-Risle","nom_a":null,"nom_de":null,"slug_ville":"grosley-sur-risle","departement_id":0,"code_postal":"27170","population":522,"superficie_km2":"1327.60","latitude_centre":"49.0396","longitude_centre":"0.8096","distance_km":6.54},{"id":0,"code_insee":"27425","nom_standard":"Nassandres sur Risle","nom_a":null,"nom_de":null,"slug_ville":"nassandres-sur-risle","departement_id":0,"code_postal":"27170","population":2276,"superficie_km2":"2560.42","latitude_centre":"49.1406","longitude_centre":"0.719","distance_km":6.78},{"id":0,"code_insee":"27498","nom_standard":"Rouge-Perriers","nom_a":null,"nom_de":null,"slug_ville":"rouge-perriers","departement_id":0,"code_postal":"27110","population":374,"superficie_km2":"415.08","latitude_centre":"49.1462","longitude_centre":"0.834","distance_km":6.8},{"id":0,"code_insee":"27173","nom_standard":"Corneville-la-Fouquetière","nom_a":null,"nom_de":null,"slug_ville":"corneville-la-fouquetiere","departement_id":0,"code_postal":"27300","population":121,"superficie_km2":"401.40","latitude_centre":"49.0601","longitude_centre":"0.7023","distance_km":7.0},{"id":0,"code_insee":"27311","nom_standard":"Harcourt","nom_a":null,"nom_de":null,"slug_ville":"harcourt","departement_id":0,"code_postal":"27800","population":1062,"superficie_km2":"1523.48","latitude_centre":"49.1664","longitude_centre":"0.7735","distance_km":7.91},{"id":17374,"code_insee":"27040","nom_standard":"Barquet","nom_a":null,"nom_de":null,"slug_ville":"barquet","departement_id":0,"code_postal":"27170","population":449,"superficie_km2":"1392.81","latitude_centre":"49.0387","longitude_centre":"0.8484","distance_km":7.97},{"id":0,"code_insee":"27695","nom_standard":"Villez-sur-le-Neubourg","nom_a":null,"nom_de":null,"slug_ville":"villez-sur-le-neubourg","departement_id":0,"code_postal":"27110","population":225,"superficie_km2":"480.13","latitude_centre":"49.149","longitude_centre":"0.8604","distance_km":8.26},{"id":0,"code_insee":"27576","nom_standard":"Sainte-Opportune-du-Bosc","nom_a":null,"nom_de":null,"slug_ville":"sainte-opportune-du-bosc","departement_id":0,"code_postal":"27110","population":628,"superficie_km2":"817.45","latitude_centre":"49.1675","longitude_centre":"0.8436","distance_km":9.19},{"id":0,"code_insee":"27444","nom_standard":"Le Noyer-en-Ouche","nom_a":null,"nom_de":null,"slug_ville":"le-noyer-en-ouche","departement_id":0,"code_postal":"27410","population":193,"superficie_km2":"1095.55","latitude_centre":"49.0063","longitude_centre":"0.763","distance_km":10.01},{"id":0,"code_insee":"27125","nom_standard":"Calleville","nom_a":null,"nom_de":null,"slug_ville":"calleville","departement_id":0,"code_postal":"27800","population":665,"superficie_km2":"853.76","latitude_centre":"49.1877","longitude_centre":"0.7577","distance_km":10.4},{"id":0,"code_insee":"27318","nom_standard":"La Haye-de-Calleville","nom_a":null,"nom_de":null,"slug_ville":"la-haye-de-calleville","departement_id":0,"code_postal":"27800","population":253,"superficie_km2":"297.88","latitude_centre":"49.19","longitude_centre":"0.7792","distance_km":10.51}]}