{"ville":{"id":19149,"code_insee":"32038","nom_standard":"Beaupuy","nom_a":null,"nom_de":null,"slug_ville":"beaupuy","departement_id":0,"code_postal":"32600","population":210,"superficie_km2":"658.68","latitude_centre":"43.647","longitude_centre":"1.0172","dep_code":"32","dep_nom":"Gers","dep_slug":"gers","reg_code":"76","reg_nom":"Occitanie","reg_slug":"occitanie"},"departement":{"code":"32","nom":"Gers","slug":"gers"},"region":{"code":"76","nom":"Occitanie","slug":"occitanie"},"villes_proches":[{"id":0,"code_insee":"32262","nom_standard":"Monbrun","nom_a":null,"nom_de":null,"slug_ville":"monbrun","departement_id":0,"code_postal":"32600","population":394,"superficie_km2":"1083.32","latitude_centre":"43.6654","longitude_centre":"1.0372","distance_km":2.6},{"id":0,"code_insee":"32339","nom_standard":"Razengues","nom_a":null,"nom_de":null,"slug_ville":"razengues","departement_id":0,"code_postal":"32600","population":263,"superficie_km2":"438.43","latitude_centre":"43.6437","longitude_centre":"0.9838","distance_km":2.71},{"id":0,"code_insee":"32105","nom_standard":"Clermont-Savès","nom_a":null,"nom_de":null,"slug_ville":"clermont-saves","departement_id":0,"code_postal":"32600","population":387,"superficie_km2":"520.48","latitude_centre":"43.62","longitude_centre":"1.0107","distance_km":3.05},{"id":0,"code_insee":"32349","nom_standard":"Roquelaure-Saint-Aubin","nom_a":null,"nom_de":null,"slug_ville":"roquelaure-saint-aubin","departement_id":0,"code_postal":"32430","population":102,"superficie_km2":"425.17","latitude_centre":"43.6637","longitude_centre":"0.9841","distance_km":3.25},{"id":0,"code_insee":"32444","nom_standard":"Thoux","nom_a":null,"nom_de":null,"slug_ville":"thoux","departement_id":0,"code_postal":"32430","population":260,"superficie_km2":"606.10","latitude_centre":"43.6808","longitude_centre":"0.9926","distance_km":4.25},{"id":0,"code_insee":"32268","nom_standard":"Monferran-Savès","nom_a":null,"nom_de":null,"slug_ville":"monferran-saves","departement_id":0,"code_postal":"32490","population":790,"superficie_km2":"2505.59","latitude_centre":"43.6142","longitude_centre":"0.9827","distance_km":4.58},{"id":0,"code_insee":"32092","nom_standard":"Catonvielle","nom_a":null,"nom_de":null,"slug_ville":"catonvielle","departement_id":0,"code_postal":"32200","population":105,"superficie_km2":"311.11","latitude_centre":"43.6556","longitude_centre":"0.9593","distance_km":4.76},{"id":0,"code_insee":"32120","nom_standard":"Encausse","nom_a":null,"nom_de":null,"slug_ville":"encausse","departement_id":0,"code_postal":"32430","population":445,"superficie_km2":"1582.00","latitude_centre":"43.6923","longitude_centre":"1.0306","distance_km":5.15},{"id":0,"code_insee":"32379","nom_standard":"Saint-Germier","nom_a":null,"nom_de":null,"slug_ville":"saint-germier","departement_id":0,"code_postal":"32200","population":212,"superficie_km2":"712.11","latitude_centre":"43.6733","longitude_centre":"0.9581","distance_km":5.58},{"id":0,"code_insee":"32372","nom_standard":"Saint-Cricq","nom_a":null,"nom_de":null,"slug_ville":"saint-cricq","departement_id":0,"code_postal":"32430","population":293,"superficie_km2":"303.98","latitude_centre":"43.698","longitude_centre":"0.9884","distance_km":6.13},{"id":19101,"code_insee":"31577","nom_standard":"Vignaux","nom_a":null,"nom_de":null,"slug_ville":"vignaux","departement_id":0,"code_postal":"31480","population":157,"superficie_km2":"404.70","latitude_centre":"43.6897","longitude_centre":"1.0654","distance_km":6.13},{"id":0,"code_insee":"32160","nom_standard":"L'Isle-Jourdain","nom_a":null,"nom_de":null,"slug_ville":"l-isle-jourdain","departement_id":0,"code_postal":"32600","population":9537,"superficie_km2":"7090.39","latitude_centre":"43.6159","longitude_centre":"1.0826","distance_km":6.3},{"id":0,"code_insee":"32234","nom_standard":"Marestaing","nom_a":null,"nom_de":null,"slug_ville":"marestaing","departement_id":0,"code_postal":"32490","population":331,"superficie_km2":"849.39","latitude_centre":"43.5853","longitude_centre":"1.0135","distance_km":6.87},{"id":18733,"code_insee":"31061","nom_standard":"Bellegarde-Sainte-Marie","nom_a":null,"nom_de":null,"slug_ville":"bellegarde-sainte-marie","departement_id":0,"code_postal":"31530","population":204,"superficie_km2":"1177.21","latitude_centre":"43.6779","longitude_centre":"1.0911","distance_km":6.87},{"id":18838,"code_insee":"31209","nom_standard":"Garac","nom_a":null,"nom_de":null,"slug_ville":"garac","departement_id":0,"code_postal":"31480","population":168,"superficie_km2":"608.00","latitude_centre":"43.6869","longitude_centre":"1.097","distance_km":7.8},{"id":0,"code_insee":"32435","nom_standard":"Sirac","nom_a":null,"nom_de":null,"slug_ville":"sirac","departement_id":0,"code_postal":"32430","population":164,"superficie_km2":"804.47","latitude_centre":"43.7014","longitude_centre":"0.9522","distance_km":7.99},{"id":0,"code_insee":"32106","nom_standard":"Cologne","nom_a":null,"nom_de":null,"slug_ville":"cologne","departement_id":0,"code_postal":"32430","population":947,"superficie_km2":"655.91","latitude_centre":"43.7197","longitude_centre":"0.9759","distance_km":8.74},{"id":19122,"code_insee":"32007","nom_standard":"Ardizas","nom_a":null,"nom_de":null,"slug_ville":"ardizas","departement_id":0,"code_postal":"32430","population":217,"superficie_km2":"854.53","latitude_centre":"43.7262","longitude_centre":"0.9977","distance_km":8.95},{"id":0,"code_insee":"31098","nom_standard":"Cadours","nom_a":null,"nom_de":null,"slug_ville":"cadours","departement_id":0,"code_postal":"31480","population":1142,"superficie_km2":"1085.23","latitude_centre":"43.725","longitude_centre":"1.0489","distance_km":9.04},{"id":0,"code_insee":"32090","nom_standard":"Castillon-Savès","nom_a":null,"nom_de":null,"slug_ville":"castillon-saves","departement_id":0,"code_postal":"32490","population":332,"superficie_km2":"1203.16","latitude_centre":"43.5642","longitude_centre":"0.9848","distance_km":9.57}]}