{"ville":{"id":27481,"code_insee":"62095","nom_standard":"Beaumetz-lès-Aire","nom_a":null,"nom_de":null,"slug_ville":"beaumetz-les-aire","departement_id":0,"code_postal":"62960","population":222,"superficie_km2":"421.07","latitude_centre":"50.5432","longitude_centre":"2.2173","dep_code":"62","dep_nom":"Pas-de-Calais","dep_slug":"pas-de-calais","reg_code":"32","reg_nom":"Hauts-de-France","reg_slug":"hauts-de-france"},"departement":{"code":"62","nom":"Pas-de-Calais","slug":"pas-de-calais"},"region":{"code":"32","nom":"Hauts-de-France","slug":"hauts-de-france"},"villes_proches":[{"id":0,"code_insee":"62453","nom_standard":"Hézecques","nom_a":null,"nom_de":null,"slug_ville":"hezecques","departement_id":0,"code_postal":"62310","population":127,"superficie_km2":"508.91","latitude_centre":"50.5347","longitude_centre":"2.1893","distance_km":2.19},{"id":0,"code_insee":"62485","nom_standard":"Laires","nom_a":null,"nom_de":null,"slug_ville":"laires","departement_id":0,"code_postal":"62960","population":365,"superficie_km2":"863.92","latitude_centre":"50.5409","longitude_centre":"2.2588","distance_km":2.94},{"id":0,"code_insee":"62862","nom_standard":"Vincly","nom_a":null,"nom_de":null,"slug_ville":"vincly","departement_id":0,"code_postal":"62310","population":146,"superficie_km2":"462.33","latitude_centre":"50.5563","longitude_centre":"2.1807","distance_km":2.97},{"id":0,"code_insee":"62153","nom_standard":"Bomy","nom_a":null,"nom_de":null,"slug_ville":"bomy","departement_id":0,"code_postal":"62960","population":615,"superficie_km2":"1452.79","latitude_centre":"50.571","longitude_centre":"2.2241","distance_km":3.13},{"id":0,"code_insee":"62562","nom_standard":"Matringhem","nom_a":null,"nom_de":null,"slug_ville":"matringhem","departement_id":0,"code_postal":"62310","population":177,"superficie_km2":"448.35","latitude_centre":"50.5441","longitude_centre":"2.1681","distance_km":3.48},{"id":0,"code_insee":"62519","nom_standard":"Lisbourg","nom_a":null,"nom_de":null,"slug_ville":"lisbourg","departement_id":0,"code_postal":"62134","population":582,"superficie_km2":"1788.10","latitude_centre":"50.5096","longitude_centre":"2.2269","distance_km":3.8},{"id":0,"code_insee":"62533","nom_standard":"Lugy","nom_a":null,"nom_de":null,"slug_ville":"lugy","departement_id":0,"code_postal":"62310","population":140,"superficie_km2":"283.56","latitude_centre":"50.5209","longitude_centre":"2.1733","distance_km":3.98},{"id":0,"code_insee":"62696","nom_standard":"Reclinghem","nom_a":null,"nom_de":null,"slug_ville":"reclinghem","departement_id":0,"code_postal":"62560","population":238,"superficie_km2":"607.09","latitude_centre":"50.575","longitude_centre":"2.1741","distance_km":4.67},{"id":0,"code_insee":"62304","nom_standard":"Erny-Saint-Julien","nom_a":null,"nom_de":null,"slug_ville":"erny-saint-julien","departement_id":0,"code_postal":"62960","population":338,"superficie_km2":"540.03","latitude_centre":"50.5821","longitude_centre":"2.2492","distance_km":4.88},{"id":0,"code_insee":"62336","nom_standard":"Fléchin","nom_a":null,"nom_de":null,"slug_ville":"flechin","departement_id":0,"code_postal":"62960","population":469,"superficie_km2":"1095.53","latitude_centre":"50.5576","longitude_centre":"2.2842","distance_km":4.99},{"id":0,"code_insee":"62790","nom_standard":"Senlis","nom_a":null,"nom_de":null,"slug_ville":"senlis","departement_id":0,"code_postal":"62310","population":159,"superficie_km2":"489.96","latitude_centre":"50.5339","longitude_centre":"2.1474","distance_km":5.05},{"id":0,"code_insee":"62668","nom_standard":"Prédefin","nom_a":null,"nom_de":null,"slug_ville":"predefin","departement_id":0,"code_postal":"62134","population":227,"superficie_km2":"388.22","latitude_centre":"50.5058","longitude_centre":"2.2591","distance_km":5.1},{"id":0,"code_insee":"62565","nom_standard":"Mencas","nom_a":null,"nom_de":null,"slug_ville":"mencas","departement_id":0,"code_postal":"62310","population":71,"superficie_km2":"201.15","latitude_centre":"50.557","longitude_centre":"2.1446","distance_km":5.36},{"id":0,"code_insee":"62843","nom_standard":"Verchin","nom_a":null,"nom_de":null,"slug_ville":"verchin","departement_id":0,"code_postal":"62310","population":235,"superficie_km2":"1069.06","latitude_centre":"50.4977","longitude_centre":"2.1812","distance_km":5.67},{"id":0,"code_insee":"62267","nom_standard":"Dennebrœucq","nom_a":null,"nom_de":null,"slug_ville":"dennebroeucq","departement_id":0,"code_postal":"62560","population":391,"superficie_km2":"372.25","latitude_centre":"50.5825","longitude_centre":"2.1564","distance_km":6.13},{"id":0,"code_insee":"62342","nom_standard":"Fontaine-lès-Boulans","nom_a":null,"nom_de":null,"slug_ville":"fontaine-les-boulans","departement_id":0,"code_postal":"62134","population":97,"superficie_km2":"566.49","latitude_centre":"50.4989","longitude_centre":"2.2829","distance_km":6.77},{"id":0,"code_insee":"62254","nom_standard":"Coyecques","nom_a":null,"nom_de":null,"slug_ville":"coyecques","departement_id":0,"code_postal":"62560","population":597,"superficie_km2":"1385.11","latitude_centre":"50.601","longitude_centre":"2.183","distance_km":6.87},{"id":0,"code_insee":"62301","nom_standard":"Équirre","nom_a":null,"nom_de":null,"slug_ville":"equirre","departement_id":0,"code_postal":"62134","population":71,"superficie_km2":"426.68","latitude_centre":"50.4797","longitude_centre":"2.2339","distance_km":7.16},{"id":0,"code_insee":"62256","nom_standard":"Crépy","nom_a":null,"nom_de":null,"slug_ville":"crepy","departement_id":0,"code_postal":"62310","population":159,"superficie_km2":"692.47","latitude_centre":"50.4731","longitude_centre":"2.2036","distance_km":7.85},{"id":0,"code_insee":"62265","nom_standard":"Delettes","nom_a":null,"nom_de":null,"slug_ville":"delettes","departement_id":0,"code_postal":"62129","population":1124,"superficie_km2":"1472.29","latitude_centre":"50.6196","longitude_centre":"2.2188","distance_km":8.5}]}