{"ville":{"id":21839,"code_insee":"43023","nom_standard":"Beaune-sur-Arzon","nom_a":null,"nom_de":null,"slug_ville":"beaune-sur-arzon","departement_id":0,"code_postal":"43500","population":227,"superficie_km2":"1450.69","latitude_centre":"45.2892","longitude_centre":"3.821","dep_code":"43","dep_nom":"Haute-Loire","dep_slug":"haute-loire","reg_code":"84","reg_nom":"Auvergne-Rhône-Alpes","reg_slug":"auvergne-rhone-alpes"},"departement":{"code":"43","nom":"Haute-Loire","slug":"haute-loire"},"region":{"code":"84","nom":"Auvergne-Rhône-Alpes","slug":"auvergne-rhone-alpes"},"villes_proches":[{"id":0,"code_insee":"43071","nom_standard":"Chomelix","nom_a":null,"nom_de":null,"slug_ville":"chomelix","departement_id":0,"code_postal":"43500","population":457,"superficie_km2":"2688.04","latitude_centre":"45.2611","longitude_centre":"3.82","distance_km":3.13},{"id":0,"code_insee":"43108","nom_standard":"Jullianges","nom_a":null,"nom_de":null,"slug_ville":"jullianges","departement_id":0,"code_postal":"43500","population":426,"superficie_km2":"1855.85","latitude_centre":"45.3059","longitude_centre":"3.7822","distance_km":3.56},{"id":0,"code_insee":"43189","nom_standard":"Saint-Georges-Lagricol","nom_a":null,"nom_de":null,"slug_ville":"saint-georges-lagricol","departement_id":0,"code_postal":"43500","population":518,"superficie_km2":"1925.17","latitude_centre":"45.3052","longitude_centre":"3.8861","distance_km":5.39},{"id":0,"code_insee":"43080","nom_standard":"Craponne-sur-Arzon","nom_a":null,"nom_de":null,"slug_ville":"craponne-sur-arzon","departement_id":0,"code_postal":"43500","population":1998,"superficie_km2":"3339.84","latitude_centre":"45.3332","longitude_centre":"3.8572","distance_km":5.65},{"id":0,"code_insee":"43228","nom_standard":"Saint-Victor-sur-Arlanc","nom_a":null,"nom_de":null,"slug_ville":"saint-victor-sur-arlanc","departement_id":0,"code_postal":"43500","population":92,"superficie_km2":"1176.50","latitude_centre":"45.3358","longitude_centre":"3.7813","distance_km":6.04},{"id":0,"code_insee":"43093","nom_standard":"Félines","nom_a":null,"nom_de":null,"slug_ville":"felines","departement_id":0,"code_postal":"43160","population":298,"superficie_km2":"2055.57","latitude_centre":"45.2599","longitude_centre":"3.7485","distance_km":6.54},{"id":0,"code_insee":"43035","nom_standard":"Bonneval","nom_a":null,"nom_de":null,"slug_ville":"bonneval","departement_id":0,"code_postal":"43160","population":92,"superficie_km2":"1470.79","latitude_centre":"45.3059","longitude_centre":"3.7333","distance_km":7.11},{"id":0,"code_insee":"43217","nom_standard":"Saint-Pierre-du-Champ","nom_a":null,"nom_de":null,"slug_ville":"saint-pierre-du-champ","departement_id":0,"code_postal":"43810","population":565,"superficie_km2":"3066.38","latitude_centre":"45.2399","longitude_centre":"3.8885","distance_km":7.61},{"id":0,"code_insee":"43196","nom_standard":"Saint-Jean-d'Aubrigoux","nom_a":null,"nom_de":null,"slug_ville":"saint-jean-d-aubrigoux","departement_id":0,"code_postal":"43500","population":184,"superficie_km2":"1799.79","latitude_centre":"45.3625","longitude_centre":"3.8081","distance_km":8.21},{"id":0,"code_insee":"43201","nom_standard":"Saint-Julien-d'Ance","nom_a":null,"nom_de":null,"slug_ville":"saint-julien-d-ance","departement_id":0,"code_postal":"43500","population":245,"superficie_km2":"1801.46","latitude_centre":"45.306","longitude_centre":"3.9302","distance_km":8.74},{"id":0,"code_insee":"43026","nom_standard":"Bellevue-la-Montagne","nom_a":null,"nom_de":null,"slug_ville":"bellevue-la-montagne","departement_id":0,"code_postal":"43350","population":461,"superficie_km2":"3296.70","latitude_centre":"45.2102","longitude_centre":"3.816","distance_km":8.79},{"id":0,"code_insee":"43128","nom_standard":"Malvières","nom_a":null,"nom_de":null,"slug_ville":"malvieres","departement_id":0,"code_postal":"43160","population":144,"superficie_km2":"1364.13","latitude_centre":"45.3408","longitude_centre":"3.7267","distance_km":9.34},{"id":0,"code_insee":"43237","nom_standard":"Sembadel","nom_a":null,"nom_de":null,"slug_ville":"sembadel","departement_id":0,"code_postal":"43160","population":247,"superficie_km2":"1866.30","latitude_centre":"45.273","longitude_centre":"3.694","distance_km":10.1},{"id":0,"code_insee":"63139","nom_standard":"Dore-l'Église","nom_a":null,"nom_de":null,"slug_ville":"dore-l-eglise","departement_id":0,"code_postal":"63220","population":656,"superficie_km2":"2746.50","latitude_centre":"45.3766","longitude_centre":"3.7543","distance_km":11.03},{"id":0,"code_insee":"43138","nom_standard":"Monlet","nom_a":null,"nom_de":null,"slug_ville":"monlet","departement_id":0,"code_postal":"43270","population":402,"superficie_km2":"3534.86","latitude_centre":"45.2271","longitude_centre":"3.7111","distance_km":11.03},{"id":0,"code_insee":"63412","nom_standard":"Sauvessanges","nom_a":null,"nom_de":null,"slug_ville":"sauvessanges","departement_id":0,"code_postal":"63840","population":531,"superficie_km2":"3312.44","latitude_centre":"45.3949","longitude_centre":"3.8645","distance_km":12.24},{"id":0,"code_insee":"43267","nom_standard":"Vorey","nom_a":null,"nom_de":null,"slug_ville":"vorey","departement_id":0,"code_postal":"43800","population":1488,"superficie_km2":"3953.87","latitude_centre":"45.1947","longitude_centre":"3.9061","distance_km":12.44},{"id":0,"code_insee":"43187","nom_standard":"Saint-Geneys-près-Saint-Paulien","nom_a":null,"nom_de":null,"slug_ville":"saint-geneys-pres-saint-paulien","departement_id":0,"code_postal":"43350","population":313,"superficie_km2":"1684.45","latitude_centre":"45.1771","longitude_centre":"3.8295","distance_km":12.48},{"id":0,"code_insee":"43043","nom_standard":"Céaux-d'Allègre","nom_a":null,"nom_de":null,"slug_ville":"ceaux-d-allegre","departement_id":0,"code_postal":"43270","population":487,"superficie_km2":"3255.80","latitude_centre":"45.1827","longitude_centre":"3.7583","distance_km":12.82},{"id":0,"code_insee":"63221","nom_standard":"Medeyrolles","nom_a":null,"nom_de":null,"slug_ville":"medeyrolles","departement_id":0,"code_postal":"63220","population":113,"superficie_km2":"1706.08","latitude_centre":"45.4088","longitude_centre":"3.8184","distance_km":13.3}]}