{"ville":{"id":8902,"code_insee":"84016","nom_standard":"Bédarrides","nom_a":null,"nom_de":null,"slug_ville":"bedarrides","departement_id":685,"code_postal":"84370","population":5410,"superficie_km2":"25.00","latitude_centre":"44.0480003","longitude_centre":"4.9080000","dep_code":"84","dep_nom":"Vaucluse","dep_slug":"vaucluse","reg_code":"18","reg_nom":"Provence-Alpes-Côte d'Azur","reg_slug":"provence-alpes-cote-d-azur"},"departement":{"code":"84","nom":"Vaucluse","slug":"vaucluse"},"region":{"code":"18","nom":"Provence-Alpes-Côte d'Azur","slug":"provence-alpes-cote-d-azur"},"villes_proches":[{"id":8918,"code_insee":"84039","nom_standard":"Courthézon","nom_a":null,"nom_de":null,"slug_ville":"courthezon","departement_id":685,"code_postal":"84350","population":6064,"superficie_km2":"33.00","latitude_centre":"44.0870018","longitude_centre":"4.8820000","distance_km":4.81},{"id":8964,"code_insee":"84129","nom_standard":"Sorgues","nom_a":null,"nom_de":null,"slug_ville":"sorgues","departement_id":685,"code_postal":"84700","population":19117,"superficie_km2":"34.00","latitude_centre":"44.0149994","longitude_centre":"4.8670001","distance_km":4.92},{"id":8920,"code_insee":"84043","nom_standard":"Entraigues-sur-la-Sorgue","nom_a":null,"nom_de":null,"slug_ville":"entraigues-sur-la-sorgue","departement_id":685,"code_postal":"84320","population":8793,"superficie_km2":"17.00","latitude_centre":"43.9949989","longitude_centre":"4.9330001","distance_km":6.22},{"id":8894,"code_insee":"84001","nom_standard":"Althen-des-Paluds","nom_a":null,"nom_de":null,"slug_ville":"althen-des-paluds","departement_id":685,"code_postal":"84210","population":2802,"superficie_km2":"7.00","latitude_centre":"44.0050011","longitude_centre":"4.9580002","distance_km":6.23},{"id":8942,"code_insee":"84080","nom_standard":"Monteux","nom_a":null,"nom_de":null,"slug_ville":"monteux","departement_id":685,"code_postal":"84170","population":13129,"superficie_km2":"39.00","latitude_centre":"44.0340004","longitude_centre":"4.9850001","distance_km":6.35},{"id":8916,"code_insee":"84037","nom_standard":"Châteauneuf-du-Pape","nom_a":null,"nom_de":null,"slug_ville":"chateauneuf-du-pape","departement_id":685,"code_postal":"84230","population":2040,"superficie_km2":"25.00","latitude_centre":"44.0600014","longitude_centre":"4.8270001","distance_km":6.61},{"id":8961,"code_insee":"84122","nom_standard":"Sarrians","nom_a":null,"nom_de":null,"slug_ville":"sarrians","departement_id":685,"code_postal":"84260","population":5932,"superficie_km2":"38.00","latitude_centre":"44.0989990","longitude_centre":"4.9569998","distance_km":6.89},{"id":8933,"code_insee":"84067","nom_standard":"Loriol-du-Comtat","nom_a":null,"nom_de":null,"slug_ville":"loriol-du-comtat","departement_id":685,"code_postal":"84870","population":2471,"superficie_km2":"11.00","latitude_centre":"44.0750008","longitude_centre":"5.0050001","distance_km":8.31},{"id":8972,"code_insee":"84141","nom_standard":"Vedène","nom_a":null,"nom_de":null,"slug_ville":"vedene","departement_id":685,"code_postal":"84270","population":11457,"superficie_km2":"11.00","latitude_centre":"43.9710007","longitude_centre":"4.9029999","distance_km":8.57},{"id":2567,"code_insee":"30312","nom_standard":"Sauveterre","nom_a":null,"nom_de":null,"slug_ville":"sauveterre","departement_id":631,"code_postal":"30150","population":2029,"superficie_km2":"13.00","latitude_centre":"44.0169983","longitude_centre":"4.8090000","distance_km":8.63},{"id":8929,"code_insee":"84056","nom_standard":"Jonquières","nom_a":null,"nom_de":null,"slug_ville":"jonquieres","departement_id":685,"code_postal":"84150","population":5298,"superficie_km2":"24.00","latitude_centre":"44.1320000","longitude_centre":"4.9130001","distance_km":9.35},{"id":8952,"code_insee":"84092","nom_standard":"Le Pontet","nom_a":null,"nom_de":null,"slug_ville":"le-pontet","departement_id":685,"code_postal":"84130","population":17551,"superficie_km2":"11.00","latitude_centre":"43.9679985","longitude_centre":"4.8660002","distance_km":9.51},{"id":8960,"code_insee":"84119","nom_standard":"Saint-Saturnin-lès-Avignon","nom_a":null,"nom_de":null,"slug_ville":"saint-saturnin-les-avignon","departement_id":685,"code_postal":"84450","population":5119,"superficie_km2":"6.00","latitude_centre":"43.9620018","longitude_centre":"4.9410000","distance_km":9.92},{"id":8897,"code_insee":"84004","nom_standard":"Aubignan","nom_a":null,"nom_de":null,"slug_ville":"aubignan","departement_id":685,"code_postal":"84810","population":5894,"superficie_km2":"16.00","latitude_centre":"44.0979996","longitude_centre":"5.0320001","distance_km":11.36},{"id":8928,"code_insee":"84055","nom_standard":"Jonquerettes","nom_a":null,"nom_de":null,"slug_ville":"jonquerettes","departement_id":685,"code_postal":"84450","population":1595,"superficie_km2":"3.00","latitude_centre":"43.9490013","longitude_centre":"4.9439998","distance_km":11.38},{"id":8948,"code_insee":"84087","nom_standard":"Orange","nom_a":null,"nom_de":null,"slug_ville":"orange","departement_id":685,"code_postal":"84100","population":28949,"superficie_km2":"74.00","latitude_centre":"44.1290016","longitude_centre":"4.8099999","distance_km":11.93},{"id":2586,"code_insee":"30351","nom_standard":"Villeneuve-lès-Avignon","nom_a":null,"nom_de":null,"slug_ville":"villeneuve-les-avignon","departement_id":631,"code_postal":"30400","population":12617,"superficie_km2":"18.00","latitude_centre":"43.9770012","longitude_centre":"4.7950001","distance_km":12},{"id":8949,"code_insee":"84088","nom_standard":"Pernes-les-Fontaines","nom_a":null,"nom_de":null,"slug_ville":"pernes-les-fontaines","departement_id":685,"code_postal":"84210","population":10636,"superficie_km2":"51.00","latitude_centre":"43.9959984","longitude_centre":"5.0400000","distance_km":12.03},{"id":2533,"code_insee":"30221","nom_standard":"Roquemaure","nom_a":null,"nom_de":null,"slug_ville":"roquemaure","departement_id":631,"code_postal":"30150","population":5526,"superficie_km2":"26.00","latitude_centre":"44.0419998","longitude_centre":"4.7570000","distance_km":12.09},{"id":8969,"code_insee":"84136","nom_standard":"Vacqueyras","nom_a":null,"nom_de":null,"slug_ville":"vacqueyras","departement_id":685,"code_postal":"84190","population":1209,"superficie_km2":"9.00","latitude_centre":"44.1450005","longitude_centre":"4.9790001","distance_km":12.19}]}