{"ville":{"id":5688,"code_insee":"59064","nom_standard":"Bellaing","nom_a":null,"nom_de":null,"slug_ville":"bellaing","departement_id":660,"code_postal":"59135","population":1329,"superficie_km2":"3.00","latitude_centre":"50.3660011","longitude_centre":"3.4260001","dep_code":"59","dep_nom":"Nord","dep_slug":"nord","reg_code":"09","reg_nom":"Hauts-de-France","reg_slug":"hauts-de-france"},"departement":{"code":"59","nom":"Nord","slug":"nord"},"region":{"code":"09","nom":"Hauts-de-France","slug":"hauts-de-france"},"villes_proches":[{"id":5817,"code_insee":"59302","nom_standard":"Hérin","nom_a":null,"nom_de":null,"slug_ville":"herin","departement_id":660,"code_postal":"59195","population":4129,"superficie_km2":"5.00","latitude_centre":"50.3590012","longitude_centre":"3.4480000","distance_km":1.74},{"id":5811,"code_insee":"59292","nom_standard":"Haveluy","nom_a":null,"nom_de":null,"slug_ville":"haveluy","departement_id":660,"code_postal":"59255","population":3250,"superficie_km2":"5.00","latitude_centre":"50.3540001","longitude_centre":"3.4030001","distance_km":2.11},{"id":5668,"code_insee":"59027","nom_standard":"Aubry-du-Hainaut","nom_a":null,"nom_de":null,"slug_ville":"aubry-du-hainaut","departement_id":660,"code_postal":"59494","population":1726,"superficie_km2":"4.00","latitude_centre":"50.3759995","longitude_centre":"3.4519999","distance_km":2.15},{"id":6000,"code_insee":"59632","nom_standard":"Wallers","nom_a":null,"nom_de":null,"slug_ville":"wallers","departement_id":660,"code_postal":"59135","population":5598,"superficie_km2":"21.00","latitude_centre":"50.3810005","longitude_centre":"3.3929999","distance_km":2.87},{"id":6010,"code_insee":"59651","nom_standard":"Wavrechain-sous-Denain","nom_a":null,"nom_de":null,"slug_ville":"wavrechain-sous-denain","departement_id":660,"code_postal":"59220","population":1616,"superficie_km2":"2.00","latitude_centre":"50.3339996","longitude_centre":"3.4219999","distance_km":3.57},{"id":5903,"code_insee":"59459","nom_standard":"Petite-Forêt","nom_a":null,"nom_de":null,"slug_ville":"petite-foret","departement_id":660,"code_postal":"59494","population":5058,"superficie_km2":"5.00","latitude_centre":"50.3750000","longitude_centre":"3.4760001","distance_km":3.68},{"id":5960,"code_insee":"59564","nom_standard":"La Sentinelle","nom_a":null,"nom_de":null,"slug_ville":"la-sentinelle","departement_id":660,"code_postal":"59174","population":3143,"superficie_km2":"4.00","latitude_centre":"50.3489990","longitude_centre":"3.4749999","distance_km":3.96},{"id":5745,"code_insee":"59172","nom_standard":"Denain","nom_a":null,"nom_de":null,"slug_ville":"denain","departement_id":660,"code_postal":"59220","population":20640,"superficie_km2":"12.00","latitude_centre":"50.3300018","longitude_centre":"3.3900001","distance_km":4.75},{"id":5814,"code_insee":"59297","nom_standard":"Hélesmes","nom_a":null,"nom_de":null,"slug_ville":"helesmes","departement_id":660,"code_postal":"59171","population":1921,"superficie_km2":"7.00","latitude_centre":"50.3680000","longitude_centre":"3.3580000","distance_km":4.83},{"id":5911,"code_insee":"59475","nom_standard":"Prouvy","nom_a":null,"nom_de":null,"slug_ville":"prouvy","departement_id":660,"code_postal":"59121","population":2173,"superficie_km2":"4.00","latitude_centre":"50.3240013","longitude_centre":"3.4570000","distance_km":5.16},{"id":5981,"code_insee":"59603","nom_standard":"Trith-Saint-Léger","nom_a":null,"nom_de":null,"slug_ville":"trith-saint-leger","departement_id":660,"code_postal":"59125","population":6124,"superficie_km2":"7.00","latitude_centre":"50.3310013","longitude_centre":"3.4860001","distance_km":5.77},{"id":5805,"code_insee":"59284","nom_standard":"Hasnon","nom_a":null,"nom_de":null,"slug_ville":"hasnon","departement_id":660,"code_postal":"59178","population":3874,"superficie_km2":"13.00","latitude_centre":"50.4129982","longitude_centre":"3.3880000","distance_km":5.88},{"id":5808,"code_insee":"59288","nom_standard":"Haulchin","nom_a":null,"nom_de":null,"slug_ville":"haulchin","departement_id":660,"code_postal":"59121","population":2320,"superficie_km2":"5.00","latitude_centre":"50.3129997","longitude_centre":"3.4230001","distance_km":5.9},{"id":5657,"code_insee":"59014","nom_standard":"Anzin","nom_a":null,"nom_de":null,"slug_ville":"anzin","departement_id":660,"code_postal":"59410","population":13422,"superficie_km2":"4.00","latitude_centre":"50.3750000","longitude_centre":"3.5109999","distance_km":6.11},{"id":5693,"code_insee":"59079","nom_standard":"Beuvrages","nom_a":null,"nom_de":null,"slug_ville":"beuvrages","departement_id":660,"code_postal":"59192","population":6784,"superficie_km2":"3.00","latitude_centre":"50.3880005","longitude_centre":"3.5060000","distance_km":6.18},{"id":5822,"code_insee":"59314","nom_standard":"Hornaing","nom_a":null,"nom_de":null,"slug_ville":"hornaing","departement_id":660,"code_postal":"59171","population":3535,"superficie_km2":"9.00","latitude_centre":"50.3699989","longitude_centre":"3.3360000","distance_km":6.4},{"id":5983,"code_insee":"59606","nom_standard":"Valenciennes","nom_a":null,"nom_de":null,"slug_ville":"valenciennes","departement_id":660,"code_postal":"59300","population":42991,"superficie_km2":"14.00","latitude_centre":"50.3590012","longitude_centre":"3.5160000","distance_km":6.43},{"id":5924,"code_insee":"59491","nom_standard":"Raismes","nom_a":null,"nom_de":null,"slug_ville":"raismes","departement_id":660,"code_postal":"59590","population":12055,"superficie_km2":"33.00","latitude_centre":"50.4099999","longitude_centre":"3.4890001","distance_km":6.62},{"id":5759,"code_insee":"59205","nom_standard":"Escaudain","nom_a":null,"nom_de":null,"slug_ville":"escaudain","departement_id":660,"code_postal":"59124","population":9253,"superficie_km2":"10.00","latitude_centre":"50.3339996","longitude_centre":"3.3410001","distance_km":7},{"id":5974,"code_insee":"59589","nom_standard":"Thiant","nom_a":null,"nom_de":null,"slug_ville":"thiant","departement_id":660,"code_postal":"59224","population":3011,"superficie_km2":"9.00","latitude_centre":"50.2980003","longitude_centre":"3.4389999","distance_km":7.62}]}