{"ville":{"id":21639,"code_insee":"42014","nom_standard":"Belleroche","nom_a":null,"nom_de":null,"slug_ville":"belleroche","departement_id":0,"code_postal":"42670","population":313,"superficie_km2":"1400.68","latitude_centre":"46.1591","longitude_centre":"4.4103","dep_code":"42","dep_nom":"Loire","dep_slug":"loire","reg_code":"84","reg_nom":"Auvergne-Rhône-Alpes","reg_slug":"auvergne-rhone-alpes"},"departement":{"code":"42","nom":"Loire","slug":"loire"},"region":{"code":"84","nom":"Auvergne-Rhône-Alpes","slug":"auvergne-rhone-alpes"},"villes_proches":[{"id":0,"code_insee":"69016","nom_standard":"Azolette","nom_a":null,"nom_de":null,"slug_ville":"azolette","departement_id":0,"code_postal":"69790","population":120,"superficie_km2":"425.76","latitude_centre":"46.1917","longitude_centre":"4.4146","distance_km":3.64},{"id":0,"code_insee":"69164","nom_standard":"Ranchal","nom_a":null,"nom_de":null,"slug_ville":"ranchal","departement_id":0,"code_postal":"69470","population":304,"superficie_km2":"1515.20","latitude_centre":"46.125","longitude_centre":"4.3974","distance_km":3.92},{"id":0,"code_insee":"42229","nom_standard":"Saint-Germain-la-Montagne","nom_a":null,"nom_de":null,"slug_ville":"saint-germain-la-montagne","departement_id":0,"code_postal":"42670","population":211,"superficie_km2":"1257.41","latitude_centre":"46.1965","longitude_centre":"4.3925","distance_km":4.38},{"id":0,"code_insee":"69161","nom_standard":"Propières","nom_a":null,"nom_de":null,"slug_ville":"propieres","departement_id":0,"code_postal":"69790","population":484,"superficie_km2":"1627.78","latitude_centre":"46.1909","longitude_centre":"4.4503","distance_km":4.69},{"id":0,"code_insee":"42015","nom_standard":"Belmont-de-la-Loire","nom_a":null,"nom_de":null,"slug_ville":"belmont-de-la-loire","departement_id":0,"code_postal":"42670","population":1410,"superficie_km2":"2383.64","latitude_centre":"46.1612","longitude_centre":"4.3493","distance_km":4.7},{"id":0,"code_insee":"69160","nom_standard":"Poule-les-Écharmeaux","nom_a":null,"nom_de":null,"slug_ville":"poule-les-echarmeaux","departement_id":0,"code_postal":"69870","population":1023,"superficie_km2":"3128.49","latitude_centre":"46.1458","longitude_centre":"4.4698","distance_km":4.82},{"id":0,"code_insee":"69054","nom_standard":"Chénelette","nom_a":null,"nom_de":null,"slug_ville":"chenelette","departement_id":0,"code_postal":"69430","population":369,"superficie_km2":"1103.41","latitude_centre":"46.1707","longitude_centre":"4.4895","distance_km":6.23},{"id":0,"code_insee":"71120","nom_standard":"Chauffailles","nom_a":null,"nom_de":null,"slug_ville":"chauffailles","departement_id":0,"code_postal":"71170","population":3638,"superficie_km2":"2276.15","latitude_centre":"46.2055","longitude_centre":"4.3418","distance_km":7.38},{"id":0,"code_insee":"69186","nom_standard":"Saint-Clément-de-Vers","nom_a":null,"nom_de":null,"slug_ville":"saint-clement-de-vers","departement_id":0,"code_postal":"69790","population":206,"superficie_km2":"894.33","latitude_centre":"46.2272","longitude_centre":"4.4157","distance_km":7.58},{"id":0,"code_insee":"42086","nom_standard":"Écoche","nom_a":null,"nom_de":null,"slug_ville":"ecoche","departement_id":0,"code_postal":"42670","population":525,"superficie_km2":"1111.83","latitude_centre":"46.1524","longitude_centre":"4.3077","distance_km":7.94},{"id":0,"code_insee":"69066","nom_standard":"Cours","nom_a":null,"nom_de":null,"slug_ville":"cours","departement_id":0,"code_postal":"69470","population":4306,"superficie_km2":"3380.36","latitude_centre":"46.0968","longitude_centre":"4.3445","distance_km":8.59},{"id":0,"code_insee":"71428","nom_standard":"Saint-Igny-de-Roche","nom_a":null,"nom_de":null,"slug_ville":"saint-igny-de-roche","departement_id":0,"code_postal":"71170","population":789,"superficie_km2":"798.03","latitude_centre":"46.1878","longitude_centre":"4.303","distance_km":8.86},{"id":0,"code_insee":"69209","nom_standard":"Saint-Igny-de-Vers","nom_a":null,"nom_de":null,"slug_ville":"saint-igny-de-vers","departement_id":0,"code_postal":"69790","population":593,"superficie_km2":"2720.97","latitude_centre":"46.2368","longitude_centre":"4.4381","distance_km":8.9},{"id":0,"code_insee":"69183","nom_standard":"Saint-Bonnet-le-Troncy","nom_a":null,"nom_de":null,"slug_ville":"saint-bonnet-le-troncy","departement_id":0,"code_postal":"69870","population":307,"superficie_km2":"1550.47","latitude_centre":"46.0781","longitude_centre":"4.4172","distance_km":9.02},{"id":0,"code_insee":"71008","nom_standard":"Anglure-sous-Dun","nom_a":null,"nom_de":null,"slug_ville":"anglure-sous-dun","departement_id":0,"code_postal":"71170","population":143,"superficie_km2":"710.68","latitude_centre":"46.2359","longitude_centre":"4.3694","distance_km":9.1},{"id":0,"code_insee":"69229","nom_standard":"Saint-Nizier-d'Azergues","nom_a":null,"nom_de":null,"slug_ville":"saint-nizier-d-azergues","departement_id":0,"code_postal":"69870","population":774,"superficie_km2":"2418.70","latitude_centre":"46.083","longitude_centre":"4.4613","distance_km":9.33},{"id":0,"code_insee":"69240","nom_standard":"Saint-Vincent-de-Reins","nom_a":null,"nom_de":null,"slug_ville":"saint-vincent-de-reins","departement_id":0,"code_postal":"69240","population":635,"superficie_km2":"1379.90","latitude_centre":"46.0715","longitude_centre":"4.3937","distance_km":9.82},{"id":0,"code_insee":"71327","nom_standard":"Mussy-sous-Dun","nom_a":null,"nom_de":null,"slug_ville":"mussy-sous-dun","departement_id":0,"code_postal":"71170","population":327,"superficie_km2":"876.79","latitude_centre":"46.238","longitude_centre":"4.335","distance_km":10.51},{"id":0,"code_insee":"71473","nom_standard":"Saint-Racho","nom_a":null,"nom_de":null,"slug_ville":"saint-racho","departement_id":0,"code_postal":"71800","population":158,"superficie_km2":"1058.40","latitude_centre":"46.2632","longitude_centre":"4.3702","distance_km":11.98},{"id":0,"code_insee":"69130","nom_standard":"Meaux-la-Montagne","nom_a":null,"nom_de":null,"slug_ville":"meaux-la-montagne","departement_id":0,"code_postal":"69550","population":223,"superficie_km2":"918.14","latitude_centre":"46.0444","longitude_centre":"4.4219","distance_km":12.79}]}