{"ville":{"id":11840,"code_insee":"08057","nom_standard":"Belleville-et-Châtillon-sur-Bar","nom_a":null,"nom_de":null,"slug_ville":"belleville-et-chatillon-sur-bar","departement_id":0,"code_postal":"08240","population":240,"superficie_km2":"2142.22","latitude_centre":"49.4624","longitude_centre":"4.8178","dep_code":"08","dep_nom":"Ardennes","dep_slug":"ardennes","reg_code":"44","reg_nom":"Grand Est","reg_slug":"grand-est"},"departement":{"code":"08","nom":"Ardennes","slug":"ardennes"},"region":{"code":"44","nom":"Grand Est","slug":"grand-est"},"villes_proches":[{"id":0,"code_insee":"08325","nom_standard":"Noirval","nom_a":null,"nom_de":null,"slug_ville":"noirval","departement_id":0,"code_postal":"08400","population":28,"superficie_km2":"492.14","latitude_centre":"49.4573","longitude_centre":"4.7948","distance_km":1.76},{"id":0,"code_insee":"08350","nom_standard":"Quatre-Champs","nom_a":null,"nom_de":null,"slug_ville":"quatre-champs","departement_id":0,"code_postal":"08400","population":241,"superficie_km2":"1154.45","latitude_centre":"49.4488","longitude_centre":"4.7794","distance_km":3.16},{"id":0,"code_insee":"08085","nom_standard":"Brieulles-sur-Bar","nom_a":null,"nom_de":null,"slug_ville":"brieulles-sur-bar","departement_id":0,"code_postal":"08240","population":224,"superficie_km2":"1314.26","latitude_centre":"49.4802","longitude_centre":"4.865","distance_km":3.94},{"id":11811,"code_insee":"08020","nom_standard":"Les Petites-Armoises","nom_a":null,"nom_de":null,"slug_ville":"les-petites-armoises","departement_id":0,"code_postal":"08390","population":58,"superficie_km2":"442.11","latitude_centre":"49.5004","longitude_centre":"4.8292","distance_km":4.3},{"id":11822,"code_insee":"08033","nom_standard":"Authe","nom_a":null,"nom_de":null,"slug_ville":"authe","departement_id":0,"code_postal":"08240","population":94,"superficie_km2":"957.93","latitude_centre":"49.4615","longitude_centre":"4.8789","distance_km":4.42},{"id":0,"code_insee":"08453","nom_standard":"Toges","nom_a":null,"nom_de":null,"slug_ville":"toges","departement_id":0,"code_postal":"08400","population":90,"superficie_km2":"349.25","latitude_centre":"49.4256","longitude_centre":"4.785","distance_km":4.73},{"id":0,"code_insee":"08075","nom_standard":"Boult-aux-Bois","nom_a":null,"nom_de":null,"slug_ville":"boult-aux-bois","departement_id":0,"code_postal":"08240","population":157,"superficie_km2":"1516.49","latitude_centre":"49.4171","longitude_centre":"4.8365","distance_km":5.22},{"id":0,"code_insee":"08186","nom_standard":"Germont","nom_a":null,"nom_de":null,"slug_ville":"germont","departement_id":0,"code_postal":"08240","population":51,"superficie_km2":"488.97","latitude_centre":"49.4338","longitude_centre":"4.8778","distance_km":5.38},{"id":0,"code_insee":"08471","nom_standard":"Verrières","nom_a":null,"nom_de":null,"slug_ville":"verrieres","departement_id":0,"code_postal":"08390","population":33,"superficie_km2":"635.87","latitude_centre":"49.4944","longitude_centre":"4.8854","distance_km":6.04},{"id":11832,"code_insee":"08045","nom_standard":"Ballay","nom_a":null,"nom_de":null,"slug_ville":"ballay","departement_id":0,"code_postal":"08400","population":242,"superficie_km2":"1039.90","latitude_centre":"49.4232","longitude_centre":"4.756","distance_km":6.24},{"id":11824,"code_insee":"08035","nom_standard":"Autruche","nom_a":null,"nom_de":null,"slug_ville":"autruche","departement_id":0,"code_postal":"08240","population":49,"superficie_km2":"833.21","latitude_centre":"49.4525","longitude_centre":"4.9067","distance_km":6.52},{"id":0,"code_insee":"08135","nom_standard":"La Croix-aux-Bois","nom_a":null,"nom_de":null,"slug_ville":"la-croix-aux-bois","departement_id":0,"code_postal":"08400","population":168,"superficie_km2":"587.05","latitude_centre":"49.4061","longitude_centre":"4.7899","distance_km":6.58},{"id":0,"code_insee":"08434","nom_standard":"Sy","nom_a":null,"nom_de":null,"slug_ville":"sy","departement_id":0,"code_postal":"08390","population":58,"superficie_km2":"795.11","latitude_centre":"49.515","longitude_centre":"4.8742","distance_km":7.13},{"id":0,"code_insee":"08116","nom_standard":"Bairon et ses environs","nom_a":null,"nom_de":null,"slug_ville":"bairon-et-ses-environs","departement_id":0,"code_postal":"08390","population":1037,"superficie_km2":"4508.09","latitude_centre":"49.5146","longitude_centre":"4.7594","distance_km":7.18},{"id":0,"code_insee":"08461","nom_standard":"Vandy","nom_a":null,"nom_de":null,"slug_ville":"vandy","departement_id":0,"code_postal":"08400","population":204,"superficie_km2":"1118.30","latitude_centre":"49.4428","longitude_centre":"4.7195","distance_km":7.43},{"id":0,"code_insee":"08086","nom_standard":"Briquenay","nom_a":null,"nom_de":null,"slug_ville":"briquenay","departement_id":0,"code_postal":"08240","population":89,"superficie_km2":"1451.16","latitude_centre":"49.4029","longitude_centre":"4.8699","distance_km":7.61},{"id":0,"code_insee":"08259","nom_standard":"Longwé","nom_a":null,"nom_de":null,"slug_ville":"longwe","departement_id":0,"code_postal":"08400","population":64,"superficie_km2":"1080.12","latitude_centre":"49.3862","longitude_centre":"4.797","distance_km":8.61},{"id":0,"code_insee":"08439","nom_standard":"Tannay-le-Mont-Dieu","nom_a":null,"nom_de":null,"slug_ville":"tannay-le-mont-dieu","departement_id":0,"code_postal":"08390","population":163,"superficie_km2":"3266.01","latitude_centre":"49.5379","longitude_centre":"4.8499","distance_km":8.71},{"id":11810,"code_insee":"08019","nom_standard":"Les Grandes-Armoises","nom_a":null,"nom_de":null,"slug_ville":"les-grandes-armoises","departement_id":0,"code_postal":"08390","population":53,"superficie_km2":"451.23","latitude_centre":"49.5292","longitude_centre":"4.8978","distance_km":9.41},{"id":0,"code_insee":"08405","nom_standard":"Sauville","nom_a":null,"nom_de":null,"slug_ville":"sauville","departement_id":0,"code_postal":"08390","population":243,"superficie_km2":"1508.54","latitude_centre":"49.5514","longitude_centre":"4.7889","distance_km":10.11}]}