{"ville":{"id":16666,"code_insee":"25053","nom_standard":"Belvoir","nom_a":null,"nom_de":null,"slug_ville":"belvoir","departement_id":0,"code_postal":"25430","population":95,"superficie_km2":"928.41","latitude_centre":"47.3182","longitude_centre":"6.6152","dep_code":"25","dep_nom":"Doubs","dep_slug":"doubs","reg_code":"27","reg_nom":"Bourgogne-Franche-Comté","reg_slug":"bourgogne-franche-comte"},"departement":{"code":"25","nom":"Doubs","slug":"doubs"},"region":{"code":"27","nom":"Bourgogne-Franche-Comté","slug":"bourgogne-franche-comte"},"villes_proches":[{"id":0,"code_insee":"25607","nom_standard":"Vernois-lès-Belvoir","nom_a":null,"nom_de":null,"slug_ville":"vernois-les-belvoir","departement_id":0,"code_postal":"25430","population":50,"superficie_km2":"469.01","latitude_centre":"47.3188","longitude_centre":"6.6427","distance_km":2.07},{"id":0,"code_insee":"25476","nom_standard":"Rahon","nom_a":null,"nom_de":null,"slug_ville":"rahon","departement_id":0,"code_postal":"25430","population":140,"superficie_km2":"571.20","latitude_centre":"47.3266","longitude_centre":"6.5838","distance_km":2.54},{"id":0,"code_insee":"25503","nom_standard":"Rosières-sur-Barbèche","nom_a":null,"nom_de":null,"slug_ville":"rosieres-sur-barbeche","departement_id":0,"code_postal":"25190","population":108,"superficie_km2":"533.83","latitude_centre":"47.3152","longitude_centre":"6.6583","distance_km":3.27},{"id":0,"code_insee":"25635","nom_standard":"Vyt-lès-Belvoir","nom_a":null,"nom_de":null,"slug_ville":"vyt-les-belvoir","departement_id":0,"code_postal":"25430","population":179,"superficie_km2":"755.87","latitude_centre":"47.3483","longitude_centre":"6.6281","distance_km":3.49},{"id":0,"code_insee":"25595","nom_standard":"Vellerot-lès-Belvoir","nom_a":null,"nom_de":null,"slug_ville":"vellerot-les-belvoir","departement_id":0,"code_postal":"25430","population":95,"superficie_km2":"606.43","latitude_centre":"47.3474","longitude_centre":"6.5887","distance_km":3.81},{"id":0,"code_insee":"25471","nom_standard":"Provenchère","nom_a":null,"nom_de":null,"slug_ville":"provenchere","departement_id":0,"code_postal":"25380","population":142,"superficie_km2":"698.97","latitude_centre":"47.2897","longitude_centre":"6.6464","distance_km":3.95},{"id":0,"code_insee":"25529","nom_standard":"Sancey","nom_a":null,"nom_de":null,"slug_ville":"sancey","departement_id":0,"code_postal":"25430","population":1385,"superficie_km2":"3042.68","latitude_centre":"47.2942","longitude_centre":"6.5758","distance_km":3.99},{"id":0,"code_insee":"25554","nom_standard":"Surmont","nom_a":null,"nom_de":null,"slug_ville":"surmont","departement_id":0,"code_postal":"25380","population":127,"superficie_km2":"739.02","latitude_centre":"47.2775","longitude_centre":"6.6074","distance_km":4.56},{"id":0,"code_insee":"25436","nom_standard":"Orve","nom_a":null,"nom_de":null,"slug_ville":"orve","departement_id":0,"code_postal":"25430","population":59,"superficie_km2":"559.94","latitude_centre":"47.338","longitude_centre":"6.5589","distance_km":4.78},{"id":0,"code_insee":"25583","nom_standard":"Valonne","nom_a":null,"nom_de":null,"slug_ville":"valonne","departement_id":0,"code_postal":"25190","population":269,"superficie_km2":"838.07","latitude_centre":"47.3417","longitude_centre":"6.6695","distance_km":4.86},{"id":0,"code_insee":"25449","nom_standard":"Péseux","nom_a":null,"nom_de":null,"slug_ville":"peseux","departement_id":0,"code_postal":"25190","population":133,"superficie_km2":"664.78","latitude_centre":"47.3173","longitude_centre":"6.6872","distance_km":5.43},{"id":0,"code_insee":"25290","nom_standard":"La Grange","nom_a":null,"nom_de":null,"slug_ville":"la-grange","departement_id":0,"code_postal":"25380","population":97,"superficie_km2":"632.05","latitude_centre":"47.285","longitude_centre":"6.6711","distance_km":5.6},{"id":0,"code_insee":"25261","nom_standard":"Froidevaux","nom_a":null,"nom_de":null,"slug_ville":"froidevaux","departement_id":0,"code_postal":"25190","population":83,"superficie_km2":"401.36","latitude_centre":"47.302","longitude_centre":"6.6905","distance_km":5.96},{"id":0,"code_insee":"25145","nom_standard":"Chazot","nom_a":null,"nom_de":null,"slug_ville":"chazot","departement_id":0,"code_postal":"25430","population":117,"superficie_km2":"526.00","latitude_centre":"47.3333","longitude_centre":"6.5354","distance_km":6.24},{"id":16664,"code_insee":"25051","nom_standard":"Belleherbe","nom_a":null,"nom_de":null,"slug_ville":"belleherbe","departement_id":0,"code_postal":"25380","population":630,"superficie_km2":"1615.09","latitude_centre":"47.2659","longitude_centre":"6.6533","distance_km":6.49},{"id":0,"code_insee":"25187","nom_standard":"Dambelin","nom_a":null,"nom_de":null,"slug_ville":"dambelin","departement_id":0,"code_postal":"25150","population":512,"superficie_km2":"1249.16","latitude_centre":"47.3706","longitude_centre":"6.6654","distance_km":6.95},{"id":16644,"code_insee":"25018","nom_standard":"Anteuil","nom_a":null,"nom_de":null,"slug_ville":"anteuil","departement_id":0,"code_postal":"25340","population":602,"superficie_km2":"2420.19","latitude_centre":"47.3769","longitude_centre":"6.5781","distance_km":7.1},{"id":0,"code_insee":"25311","nom_standard":"Hyémondans","nom_a":null,"nom_de":null,"slug_ville":"hyemondans","departement_id":0,"code_postal":"25250","population":191,"superficie_km2":"691.22","latitude_centre":"47.3816","longitude_centre":"6.6422","distance_km":7.34},{"id":0,"code_insee":"25327","nom_standard":"Lanthenans","nom_a":null,"nom_de":null,"slug_ville":"lanthenans","departement_id":0,"code_postal":"25250","population":68,"superficie_km2":"332.28","latitude_centre":"47.3915","longitude_centre":"6.6257","distance_km":8.19},{"id":0,"code_insee":"25113","nom_standard":"Chamesey","nom_a":null,"nom_de":null,"slug_ville":"chamesey","departement_id":0,"code_postal":"25380","population":143,"superficie_km2":"648.71","latitude_centre":"47.2376","longitude_centre":"6.6317","distance_km":9.05}]}