{"ville":{"id":1187,"code_insee":"17041","nom_standard":"Benon","nom_a":null,"nom_de":null,"slug_ville":"benon","departement_id":617,"code_postal":"17170","population":1763,"superficie_km2":"47.00","latitude_centre":"46.2000008","longitude_centre":"-0.7970000","dep_code":"17","dep_nom":"Charente-Maritime","dep_slug":"charente-maritime","reg_code":"15","reg_nom":"Nouvelle-Aquitaine","reg_slug":"nouvelle-aquitaine"},"departement":{"code":"17","nom":"Charente-Maritime","slug":"charente-maritime"},"region":{"code":"15","nom":"Nouvelle-Aquitaine","slug":"nouvelle-aquitaine"},"villes_proches":[{"id":1224,"code_insee":"17158","nom_standard":"Ferrières","nom_a":null,"nom_de":null,"slug_ville":"ferrieres","departement_id":617,"code_postal":"17170","population":1345,"superficie_km2":"8.00","latitude_centre":"46.2290001","longitude_centre":"-0.8540000","distance_km":5.44},{"id":1215,"code_insee":"17127","nom_standard":"Courçon","nom_a":null,"nom_de":null,"slug_ville":"courcon","departement_id":617,"code_postal":"17170","population":1980,"superficie_km2":"19.00","latitude_centre":"46.2550011","longitude_centre":"-0.7950000","distance_km":6.12},{"id":1280,"code_insee":"17338","nom_standard":"Saint-Georges-du-Bois","nom_a":null,"nom_de":null,"slug_ville":"saint-georges-du-bois","departement_id":617,"code_postal":"17700","population":1838,"superficie_km2":"28.00","latitude_centre":"46.1500015","longitude_centre":"-0.7390000","distance_km":7.13},{"id":1300,"code_insee":"17396","nom_standard":"Saint-Sauveur-d'Aunis","nom_a":null,"nom_de":null,"slug_ville":"saint-sauveur-d-aunis","departement_id":617,"code_postal":"17540","population":1744,"superficie_km2":"19.00","latitude_centre":"46.2099991","longitude_centre":"-0.8920000","distance_km":7.39},{"id":8520,"code_insee":"79257","nom_standard":"Saint-Hilaire-la-Palud","nom_a":null,"nom_de":null,"slug_ville":"saint-hilaire-la-palud","departement_id":680,"code_postal":"79210","population":1523,"superficie_km2":"34.00","latitude_centre":"46.2620010","longitude_centre":"-0.7150000","distance_km":9.34},{"id":1255,"code_insee":"17267","nom_standard":"Nuaillé-d'Aunis","nom_a":null,"nom_de":null,"slug_ville":"nuaille-d-aunis","departement_id":617,"code_postal":"17540","population":1228,"superficie_km2":"17.00","latitude_centre":"46.2379990","longitude_centre":"-0.9290000","distance_km":11},{"id":1286,"code_insee":"17349","nom_standard":"Saint-Jean-de-Liversay","nom_a":null,"nom_de":null,"slug_ville":"saint-jean-de-liversay","departement_id":617,"code_postal":"17170","population":3038,"superficie_km2":"42.00","latitude_centre":"46.2799988","longitude_centre":"-0.8820000","distance_km":11.04},{"id":1266,"code_insee":"17303","nom_standard":"La Ronde","nom_a":null,"nom_de":null,"slug_ville":"la-ronde","departement_id":617,"code_postal":"17170","population":1015,"superficie_km2":"21.00","latitude_centre":"46.2999992","longitude_centre":"-0.7870000","distance_km":11.15},{"id":1312,"code_insee":"17434","nom_standard":"Surgères","nom_a":null,"nom_de":null,"slug_ville":"surgeres","departement_id":617,"code_postal":"17700","population":6825,"superficie_km2":"29.00","latitude_centre":"46.1040001","longitude_centre":"-0.7540000","distance_km":11.18},{"id":1181,"code_insee":"17009","nom_standard":"Angliers","nom_a":null,"nom_de":null,"slug_ville":"angliers","departement_id":617,"code_postal":"17540","population":1285,"superficie_km2":"11.00","latitude_centre":"46.2060013","longitude_centre":"-0.9490000","distance_km":11.72},{"id":8500,"code_insee":"79170","nom_standard":"Mauzé-sur-le-Mignon","nom_a":null,"nom_de":null,"slug_ville":"mauze-sur-le-mignon","departement_id":680,"code_postal":"79210","population":2893,"superficie_km2":"24.00","latitude_centre":"46.1920013","longitude_centre":"-0.6440000","distance_km":11.81},{"id":1227,"code_insee":"17166","nom_standard":"Forges","nom_a":null,"nom_de":null,"slug_ville":"forges","departement_id":617,"code_postal":"17290","population":1328,"superficie_km2":"14.00","latitude_centre":"46.1090012","longitude_centre":"-0.8920000","distance_km":12.49},{"id":1273,"code_insee":"17315","nom_standard":"Saint-Christophe","nom_a":null,"nom_de":null,"slug_ville":"saint-christophe","departement_id":617,"code_postal":"17220","population":1389,"superficie_km2":"14.00","latitude_centre":"46.1399994","longitude_centre":"-0.9480000","distance_km":13.41},{"id":1324,"code_insee":"17466","nom_standard":"Vérines","nom_a":null,"nom_de":null,"slug_ville":"verines","departement_id":617,"code_postal":"17540","population":2339,"superficie_km2":"14.00","latitude_centre":"46.1969986","longitude_centre":"-0.9730000","distance_km":13.55},{"id":1292,"code_insee":"17373","nom_standard":"Saint-Médard-d'Aunis","nom_a":null,"nom_de":null,"slug_ville":"saint-medard-d-aunis","departement_id":617,"code_postal":"17220","population":2349,"superficie_km2":"23.00","latitude_centre":"46.1590004","longitude_centre":"-0.9670000","distance_km":13.86},{"id":1289,"code_insee":"17359","nom_standard":"Saint-Mard","nom_a":null,"nom_de":null,"slug_ville":"saint-mard","departement_id":617,"code_postal":"17700","population":1227,"superficie_km2":"21.00","latitude_centre":"46.0929985","longitude_centre":"-0.6960000","distance_km":14.22},{"id":1237,"code_insee":"17208","nom_standard":"Longèves","nom_a":null,"nom_de":null,"slug_ville":"longeves","departement_id":617,"code_postal":"17230","population":1058,"superficie_km2":"13.00","latitude_centre":"46.2379990","longitude_centre":"-0.9750000","distance_km":14.33},{"id":1282,"code_insee":"17340","nom_standard":"Saint-Pierre-La-Noue","nom_a":null,"nom_de":null,"slug_ville":"saint-pierre-la-noue","departement_id":617,"code_postal":"17700","population":1508,"superficie_km2":"16.00","latitude_centre":"46.0680008","longitude_centre":"-0.7990000","distance_km":14.68},{"id":1179,"code_insee":"17003","nom_standard":"Aigrefeuille-d'Aunis","nom_a":null,"nom_de":null,"slug_ville":"aigrefeuille-d-aunis","departement_id":617,"code_postal":"17290","population":4479,"superficie_km2":"17.00","latitude_centre":"46.1160011","longitude_centre":"-0.9440000","distance_km":14.68},{"id":8541,"code_insee":"79334","nom_standard":"Val-du-Mignon","nom_a":null,"nom_de":null,"slug_ville":"val-du-mignon","departement_id":680,"code_postal":"79210","population":1082,"superficie_km2":"16.00","latitude_centre":"46.1699982","longitude_centre":"-0.5870000","distance_km":16.51}]}