{"ville":{"id":26293,"code_insee":"59069","nom_standard":"Bermerain","nom_a":null,"nom_de":null,"slug_ville":"bermerain","departement_id":0,"code_postal":"59213","population":778,"superficie_km2":"662.34","latitude_centre":"50.2556","longitude_centre":"3.5375","dep_code":"59","dep_nom":"Nord","dep_slug":"nord","reg_code":"32","reg_nom":"Hauts-de-France","reg_slug":"hauts-de-france"},"departement":{"code":"59","nom":"Nord","slug":"nord"},"region":{"code":"32","nom":"Hauts-de-France","slug":"hauts-de-france"},"villes_proches":[{"id":0,"code_insee":"59127","nom_standard":"Capelle","nom_a":null,"nom_de":null,"slug_ville":"capelle","departement_id":0,"code_postal":"59213","population":135,"superficie_km2":"506.94","latitude_centre":"50.2396","longitude_centre":"3.5567","distance_km":2.24},{"id":0,"code_insee":"59537","nom_standard":"Saint-Martin-sur-Écaillon","nom_a":null,"nom_de":null,"slug_ville":"saint-martin-sur-ecaillon","departement_id":0,"code_postal":"59213","population":483,"superficie_km2":"527.73","latitude_centre":"50.2398","longitude_centre":"3.5162","distance_km":2.32},{"id":0,"code_insee":"59608","nom_standard":"Vendegies-sur-Écaillon","nom_a":null,"nom_de":null,"slug_ville":"vendegies-sur-ecaillon","departement_id":0,"code_postal":"59213","population":1123,"superficie_km2":"655.09","latitude_centre":"50.2598","longitude_centre":"3.5054","distance_km":2.33},{"id":0,"code_insee":"59565","nom_standard":"Sepmeries","nom_a":null,"nom_de":null,"slug_ville":"sepmeries","departement_id":0,"code_postal":"59269","population":640,"superficie_km2":"597.27","latitude_centre":"50.2774","longitude_centre":"3.5603","distance_km":2.92},{"id":0,"code_insee":"59575","nom_standard":"Sommaing","nom_a":null,"nom_de":null,"slug_ville":"sommaing","departement_id":0,"code_postal":"59213","population":397,"superficie_km2":"358.60","latitude_centre":"50.2655","longitude_centre":"3.4961","distance_km":3.14},{"id":0,"code_insee":"59518","nom_standard":"Ruesnes","nom_a":null,"nom_de":null,"slug_ville":"ruesnes","departement_id":0,"code_postal":"59530","population":448,"superficie_km2":"676.34","latitude_centre":"50.264","longitude_centre":"3.5823","distance_km":3.32},{"id":0,"code_insee":"59204","nom_standard":"Escarmain","nom_a":null,"nom_de":null,"slug_ville":"escarmain","departement_id":0,"code_postal":"59213","population":479,"superficie_km2":"631.67","latitude_centre":"50.2236","longitude_centre":"3.5514","distance_km":3.69},{"id":0,"code_insee":"59480","nom_standard":"Quérénaing","nom_a":null,"nom_de":null,"slug_ville":"querenaing","departement_id":0,"code_postal":"59269","population":865,"superficie_km2":"425.94","latitude_centre":"50.2869","longitude_centre":"3.5064","distance_km":4.12},{"id":0,"code_insee":"59019","nom_standard":"Artres","nom_a":null,"nom_de":null,"slug_ville":"artres","departement_id":0,"code_postal":"59269","population":1082,"superficie_km2":"650.05","latitude_centre":"50.2961","longitude_centre":"3.5385","distance_km":4.5},{"id":26286,"code_insee":"59057","nom_standard":"Beaudignies","nom_a":null,"nom_de":null,"slug_ville":"beaudignies","departement_id":0,"code_postal":"59530","population":574,"superficie_km2":"787.99","latitude_centre":"50.228","longitude_centre":"3.5881","distance_km":4.73},{"id":0,"code_insee":"59381","nom_standard":"Maresches","nom_a":null,"nom_de":null,"slug_ville":"maresches","departement_id":0,"code_postal":"59990","population":808,"superficie_km2":"479.48","latitude_centre":"50.2925","longitude_centre":"3.5738","distance_km":4.85},{"id":0,"code_insee":"59612","nom_standard":"Vertain","nom_a":null,"nom_de":null,"slug_ville":"vertain","departement_id":0,"code_postal":"59730","population":535,"superficie_km2":"578.75","latitude_centre":"50.2123","longitude_centre":"3.5258","distance_km":4.89},{"id":0,"code_insee":"59289","nom_standard":"Haussy","nom_a":null,"nom_de":null,"slug_ville":"haussy","departement_id":0,"code_postal":"59294","population":1451,"superficie_km2":"1613.48","latitude_centre":"50.2249","longitude_centre":"3.4795","distance_km":5.35},{"id":0,"code_insee":"59221","nom_standard":"Famars","nom_a":null,"nom_de":null,"slug_ville":"famars","departement_id":0,"code_postal":"59300","population":2474,"superficie_km2":"474.56","latitude_centre":"50.3089","longitude_centre":"3.5261","distance_km":5.98},{"id":0,"code_insee":"59369","nom_standard":"Maing","nom_a":null,"nom_de":null,"slug_ville":"maing","departement_id":0,"code_postal":"59233","population":3954,"superficie_km2":"1166.76","latitude_centre":"50.3041","longitude_centre":"3.4892","distance_km":6.39},{"id":0,"code_insee":"59506","nom_standard":"Romeries","nom_a":null,"nom_de":null,"slug_ville":"romeries","departement_id":0,"code_postal":"59730","population":471,"superficie_km2":"599.08","latitude_centre":"50.1961","longitude_centre":"3.5414","distance_km":6.62},{"id":0,"code_insee":"59549","nom_standard":"Salesches","nom_a":null,"nom_de":null,"slug_ville":"salesches","departement_id":0,"code_postal":"59218","population":327,"superficie_km2":"458.41","latitude_centre":"50.2083","longitude_centre":"3.596","distance_km":6.71},{"id":0,"code_insee":"59471","nom_standard":"Préseau","nom_a":null,"nom_de":null,"slug_ville":"preseau","departement_id":0,"code_postal":"59990","population":2100,"superficie_km2":"635.62","latitude_centre":"50.3112","longitude_centre":"3.5757","distance_km":6.75},{"id":0,"code_insee":"59425","nom_standard":"Neuville-en-Avesnois","nom_a":null,"nom_de":null,"slug_ville":"neuville-en-avesnois","departement_id":0,"code_postal":"59218","population":298,"superficie_km2":"316.11","latitude_centre":"50.1997","longitude_centre":"3.5796","distance_km":6.9},{"id":0,"code_insee":"59032","nom_standard":"Aulnoy-lez-Valenciennes","nom_a":null,"nom_de":null,"slug_ville":"aulnoy-lez-valenciennes","departement_id":0,"code_postal":"59300","population":7080,"superficie_km2":"607.81","latitude_centre":"50.3246","longitude_centre":"3.5362","distance_km":7.67}]}