{"ville":{"id":5434,"code_insee":"57067","nom_standard":"Bertrange","nom_a":null,"nom_de":null,"slug_ville":"bertrange","departement_id":658,"code_postal":"57310","population":2859,"superficie_km2":"7.00","latitude_centre":"49.3149986","longitude_centre":"6.1929998","dep_code":"57","dep_nom":"Moselle","dep_slug":"moselle","reg_code":"06","reg_nom":"Grand Est","reg_slug":"grand-est"},"departement":{"code":"57","nom":"Moselle","slug":"moselle"},"region":{"code":"06","nom":"Grand Est","slug":"grand-est"},"villes_proches":[{"id":5495,"code_insee":"57343","nom_standard":"Illange","nom_a":null,"nom_de":null,"slug_ville":"illange","departement_id":658,"code_postal":"57970","population":1799,"superficie_km2":"6.00","latitude_centre":"49.3289986","longitude_centre":"6.1789999","distance_km":1.86},{"id":5483,"code_insee":"57269","nom_standard":"Guénange","nom_a":null,"nom_de":null,"slug_ville":"guenange","departement_id":658,"code_postal":"57310","population":7761,"superficie_km2":"8.00","latitude_centre":"49.2980003","longitude_centre":"6.2040000","distance_km":2.05},{"id":5608,"code_insee":"57767","nom_standard":"Stuckange","nom_a":null,"nom_de":null,"slug_ville":"stuckange","departement_id":658,"code_postal":"57970","population":1396,"superficie_km2":"5.00","latitude_centre":"49.3240013","longitude_centre":"6.2319999","distance_km":3},{"id":5593,"code_insee":"57683","nom_standard":"Uckange","nom_a":null,"nom_de":null,"slug_ville":"uckange","departement_id":658,"code_postal":"57270","population":6976,"superficie_km2":"5.00","latitude_centre":"49.3059998","longitude_centre":"6.1490002","distance_km":3.34},{"id":5554,"code_insee":"57582","nom_standard":"Richemont","nom_a":null,"nom_de":null,"slug_ville":"richemont","departement_id":658,"code_postal":"57270","population":2116,"superficie_km2":"9.00","latitude_centre":"49.2840004","longitude_centre":"6.1630001","distance_km":4.08},{"id":5605,"code_insee":"57757","nom_standard":"Yutz","nom_a":null,"nom_de":null,"slug_ville":"yutz","departement_id":658,"code_postal":"57970","population":17401,"superficie_km2":"14.00","latitude_centre":"49.3520012","longitude_centre":"6.2020001","distance_km":4.17},{"id":5440,"code_insee":"57102","nom_standard":"Bousse","nom_a":null,"nom_de":null,"slug_ville":"bousse","departement_id":658,"code_postal":"57310","population":3231,"superficie_km2":"9.00","latitude_centre":"49.2760010","longitude_centre":"6.2040000","distance_km":4.41},{"id":5600,"code_insee":"57733","nom_standard":"Volstroff","nom_a":null,"nom_de":null,"slug_ville":"volstroff","departement_id":658,"code_postal":"57940","population":2057,"superficie_km2":"12.00","latitude_centre":"49.3009987","longitude_centre":"6.2519999","distance_km":4.55},{"id":5503,"code_insee":"57372","nom_standard":"Kuntzig","nom_a":null,"nom_de":null,"slug_ville":"kuntzig","departement_id":658,"code_postal":"57970","population":1362,"superficie_km2":"4.00","latitude_centre":"49.3479996","longitude_centre":"6.2370000","distance_km":4.86},{"id":5471,"code_insee":"57221","nom_standard":"Florange","nom_a":null,"nom_de":null,"slug_ville":"florange","departement_id":658,"code_postal":"57190","population":11869,"superficie_km2":"13.00","latitude_centre":"49.3279991","longitude_centre":"6.1230001","distance_km":5.28},{"id":5459,"code_insee":"57179","nom_standard":"Distroff","nom_a":null,"nom_de":null,"slug_ville":"distroff","departement_id":658,"code_postal":"57925","population":1836,"superficie_km2":"8.00","latitude_centre":"49.3359985","longitude_centre":"6.2630000","distance_km":5.58},{"id":5586,"code_insee":"57666","nom_standard":"Terville","nom_a":null,"nom_de":null,"slug_ville":"terville","departement_id":658,"code_postal":"57180","population":7456,"superficie_km2":"4.00","latitude_centre":"49.3460007","longitude_centre":"6.1320000","distance_km":5.61},{"id":5563,"code_insee":"57602","nom_standard":"Rurange-lès-Thionville","nom_a":null,"nom_de":null,"slug_ville":"rurange-les-thionville","departement_id":658,"code_postal":"57310","population":2374,"superficie_km2":"9.00","latitude_centre":"49.2700005","longitude_centre":"6.2350001","distance_km":5.86},{"id":5520,"code_insee":"57474","nom_standard":"Mondelange","nom_a":null,"nom_de":null,"slug_ville":"mondelange","departement_id":658,"code_postal":"57300","population":5720,"superficie_km2":"4.00","latitude_centre":"49.2630005","longitude_centre":"6.1719999","distance_km":5.98},{"id":5478,"code_insee":"57242","nom_standard":"Gandrange","nom_a":null,"nom_de":null,"slug_ville":"gandrange","departement_id":658,"code_postal":"57175","population":3029,"superficie_km2":"4.00","latitude_centre":"49.2729988","longitude_centre":"6.1339998","distance_km":6.33},{"id":5465,"code_insee":"57206","nom_standard":"Fameck","nom_a":null,"nom_de":null,"slug_ville":"fameck","departement_id":658,"code_postal":"57290","population":14798,"superficie_km2":"13.00","latitude_centre":"49.2989998","longitude_centre":"6.1059999","distance_km":6.55},{"id":5519,"code_insee":"57465","nom_standard":"Metzervisse","nom_a":null,"nom_de":null,"slug_ville":"metzervisse","departement_id":658,"code_postal":"57940","population":2272,"superficie_km2":"9.00","latitude_centre":"49.3170013","longitude_centre":"6.2890000","distance_km":6.96},{"id":5578,"code_insee":"57647","nom_standard":"Serémange-Erzange","nom_a":null,"nom_de":null,"slug_ville":"seremange-erzange","departement_id":658,"code_postal":"57290","population":4174,"superficie_km2":"4.00","latitude_centre":"49.3230019","longitude_centre":"6.0939999","distance_km":7.23},{"id":5429,"code_insee":"57043","nom_standard":"Ay-sur-Moselle","nom_a":null,"nom_de":null,"slug_ville":"ay-sur-moselle","departement_id":658,"code_postal":"57300","population":1566,"superficie_km2":"5.00","latitude_centre":"49.2480011","longitude_centre":"6.1960001","distance_km":7.45},{"id":5512,"code_insee":"57441","nom_standard":"Manom","nom_a":null,"nom_de":null,"slug_ville":"manom","departement_id":658,"code_postal":"57100","population":3010,"superficie_km2":"10.00","latitude_centre":"49.3810005","longitude_centre":"6.1750002","distance_km":7.45}]}