{"ville":{"id":16241,"code_insee":"24039","nom_standard":"Besse","nom_a":null,"nom_de":null,"slug_ville":"besse","departement_id":0,"code_postal":"24550","population":148,"superficie_km2":"1665.52","latitude_centre":"44.6652","longitude_centre":"1.112","dep_code":"24","dep_nom":"Dordogne","dep_slug":"dordogne","reg_code":"75","reg_nom":"Nouvelle-Aquitaine","reg_slug":"nouvelle-aquitaine"},"departement":{"code":"24","nom":"Dordogne","slug":"dordogne"},"region":{"code":"75","nom":"Nouvelle-Aquitaine","slug":"nouvelle-aquitaine"},"villes_proches":[{"id":0,"code_insee":"24337","nom_standard":"Prats-du-Périgord","nom_a":null,"nom_de":null,"slug_ville":"prats-du-perigord","departement_id":0,"code_postal":"24550","population":143,"superficie_km2":"1132.47","latitude_centre":"44.6836","longitude_centre":"1.0696","distance_km":3.93},{"id":0,"code_insee":"24585","nom_standard":"Villefranche-du-Périgord","nom_a":null,"nom_de":null,"slug_ville":"villefranche-du-perigord","departement_id":0,"code_postal":"24550","population":674,"superficie_km2":"2526.26","latitude_centre":"44.6292","longitude_centre":"1.1064","distance_km":4.03},{"id":0,"code_insee":"24386","nom_standard":"Saint-Cernin-de-l'Herm","nom_a":null,"nom_de":null,"slug_ville":"saint-cernin-de-l-herm","departement_id":0,"code_postal":"24550","population":193,"superficie_km2":"1676.90","latitude_centre":"44.6545","longitude_centre":"1.0491","distance_km":5.12},{"id":0,"code_insee":"24488","nom_standard":"Saint-Pompon","nom_a":null,"nom_de":null,"slug_ville":"saint-pompon","departement_id":0,"code_postal":"24170","population":373,"superficie_km2":"2810.64","latitude_centre":"44.7126","longitude_centre":"1.1388","distance_km":5.68},{"id":0,"code_insee":"46184","nom_standard":"Marminiac","nom_a":null,"nom_de":null,"slug_ville":"marminiac","departement_id":0,"code_postal":"46250","population":349,"superficie_km2":"2294.87","latitude_centre":"44.6535","longitude_centre":"1.1857","distance_km":5.97},{"id":0,"code_insee":"24075","nom_standard":"Campagnac-lès-Quercy","nom_a":null,"nom_de":null,"slug_ville":"campagnac-les-quercy","departement_id":0,"code_postal":"24550","population":323,"superficie_km2":"2014.43","latitude_centre":"44.6979","longitude_centre":"1.1809","distance_km":6.55},{"id":0,"code_insee":"24151","nom_standard":"Doissat","nom_a":null,"nom_de":null,"slug_ville":"doissat","departement_id":0,"code_postal":"24170","population":99,"superficie_km2":"1571.72","latitude_centre":"44.7196","longitude_centre":"1.0794","distance_km":6.58},{"id":0,"code_insee":"24313","nom_standard":"Orliac","nom_a":null,"nom_de":null,"slug_ville":"orliac","departement_id":0,"code_postal":"24170","population":43,"superficie_km2":"1078.21","latitude_centre":"44.7121","longitude_centre":"1.0613","distance_km":6.58},{"id":0,"code_insee":"46250","nom_standard":"Saint-Caprais","nom_a":null,"nom_de":null,"slug_ville":"saint-caprais","departement_id":0,"code_postal":"46250","population":75,"superficie_km2":"908.18","latitude_centre":"44.6134","longitude_centre":"1.1542","distance_km":6.66},{"id":0,"code_insee":"24245","nom_standard":"Loubejac","nom_a":null,"nom_de":null,"slug_ville":"loubejac","departement_id":0,"code_postal":"24550","population":266,"superficie_km2":"1907.39","latitude_centre":"44.6042","longitude_centre":"1.0705","distance_km":7.54},{"id":0,"code_insee":"24232","nom_standard":"Lavaur","nom_a":null,"nom_de":null,"slug_ville":"lavaur","departement_id":0,"code_postal":"24550","population":85,"superficie_km2":"928.80","latitude_centre":"44.6263","longitude_centre":"1.0223","distance_km":8.31},{"id":0,"code_insee":"46066","nom_standard":"Cazals","nom_a":null,"nom_de":null,"slug_ville":"cazals","departement_id":0,"code_postal":"46250","population":659,"superficie_km2":"1054.59","latitude_centre":"44.6471","longitude_centre":"1.2159","distance_km":8.46},{"id":0,"code_insee":"46200","nom_standard":"Montcléra","nom_a":null,"nom_de":null,"slug_ville":"montclera","departement_id":0,"code_postal":"46250","population":292,"superficie_km2":"2092.89","latitude_centre":"44.6209","longitude_centre":"1.201","distance_km":8.59},{"id":0,"code_insee":"46114","nom_standard":"Frayssinet-le-Gélat","nom_a":null,"nom_de":null,"slug_ville":"frayssinet-le-gelat","departement_id":0,"code_postal":"46250","population":376,"superficie_km2":"2322.20","latitude_centre":"44.59","longitude_centre":"1.1441","distance_km":8.74},{"id":0,"code_insee":"24406","nom_standard":"Sainte-Foy-de-Belvès","nom_a":null,"nom_de":null,"slug_ville":"sainte-foy-de-belves","departement_id":0,"code_postal":"24170","population":142,"superficie_km2":"762.71","latitude_centre":"44.7271","longitude_centre":"1.0374","distance_km":9.06},{"id":0,"code_insee":"24438","nom_standard":"Saint-Laurent-la-Vallée","nom_a":null,"nom_de":null,"slug_ville":"saint-laurent-la-vallee","departement_id":0,"code_postal":"24170","population":237,"superficie_km2":"1551.77","latitude_centre":"44.7505","longitude_centre":"1.1227","distance_km":9.52},{"id":0,"code_insee":"47292","nom_standard":"Sauveterre-la-Lémance","nom_a":null,"nom_de":null,"slug_ville":"sauveterre-la-lemance","departement_id":0,"code_postal":"47500","population":563,"superficie_km2":"2358.32","latitude_centre":"44.5868","longitude_centre":"1.0366","distance_km":10.56},{"id":0,"code_insee":"24150","nom_standard":"Daglan","nom_a":null,"nom_de":null,"slug_ville":"daglan","departement_id":0,"code_postal":"24250","population":570,"superficie_km2":"2070.52","latitude_centre":"44.7453","longitude_centre":"1.1896","distance_km":10.81},{"id":0,"code_insee":"24206","nom_standard":"Grives","nom_a":null,"nom_de":null,"slug_ville":"grives","departement_id":0,"code_postal":"24170","population":106,"superficie_km2":"830.09","latitude_centre":"44.7632","longitude_centre":"1.0745","distance_km":11.29},{"id":0,"code_insee":"46061","nom_standard":"Cassagnes","nom_a":null,"nom_de":null,"slug_ville":"cassagnes","departement_id":0,"code_postal":"46700","population":172,"superficie_km2":"1153.47","latitude_centre":"44.564","longitude_centre":"1.1285","distance_km":11.33}]}