{"ville":{"id":24954,"code_insee":"55048","nom_standard":"Béthincourt","nom_a":null,"nom_de":null,"slug_ville":"bethincourt","departement_id":0,"code_postal":"55270","population":50,"superficie_km2":"1321.55","latitude_centre":"49.2477","longitude_centre":"5.2201","dep_code":"55","dep_nom":"Meuse","dep_slug":"meuse","reg_code":"44","reg_nom":"Grand Est","reg_slug":"grand-est"},"departement":{"code":"55","nom":"Meuse","slug":"meuse"},"region":{"code":"44","nom":"Grand Est","slug":"grand-est"},"villes_proches":[{"id":0,"code_insee":"55137","nom_standard":"Cuisy","nom_a":null,"nom_de":null,"slug_ville":"cuisy","departement_id":0,"code_postal":"55270","population":48,"superficie_km2":"552.84","latitude_centre":"49.2684","longitude_centre":"5.1885","distance_km":3.25},{"id":0,"code_insee":"55313","nom_standard":"Malancourt","nom_a":null,"nom_de":null,"slug_ville":"malancourt","departement_id":0,"code_postal":"55270","population":65,"superficie_km2":"1655.32","latitude_centre":"49.2375","longitude_centre":"5.1766","distance_km":3.36},{"id":0,"code_insee":"55139","nom_standard":"Cumières-le-Mort-Homme","nom_a":null,"nom_de":null,"slug_ville":"cumieres-le-mort-homme","departement_id":0,"code_postal":"55100","population":0,"superficie_km2":"610.55","latitude_centre":"49.234","longitude_centre":"5.2648","distance_km":3.58},{"id":0,"code_insee":"55206","nom_standard":"Gercourt-et-Drillancourt","nom_a":null,"nom_de":null,"slug_ville":"gercourt-et-drillancourt","departement_id":0,"code_postal":"55110","population":125,"superficie_km2":"1355.69","latitude_centre":"49.2818","longitude_centre":"5.2374","distance_km":3.99},{"id":0,"code_insee":"55180","nom_standard":"Esnes-en-Argonne","nom_a":null,"nom_de":null,"slug_ville":"esnes-en-argonne","departement_id":0,"code_postal":"55100","population":135,"superficie_km2":"1478.13","latitude_centre":"49.2098","longitude_centre":"5.2039","distance_km":4.38},{"id":0,"code_insee":"55193","nom_standard":"Forges-sur-Meuse","nom_a":null,"nom_de":null,"slug_ville":"forges-sur-meuse","departement_id":0,"code_postal":"55110","population":121,"superficie_km2":"1589.06","latitude_centre":"49.2601","longitude_centre":"5.278","distance_km":4.42},{"id":0,"code_insee":"55106","nom_standard":"Chattancourt","nom_a":null,"nom_de":null,"slug_ville":"chattancourt","departement_id":0,"code_postal":"55100","population":175,"superficie_km2":"1026.47","latitude_centre":"49.2154","longitude_centre":"5.2654","distance_km":4.87},{"id":0,"code_insee":"55484","nom_standard":"Septsarges","nom_a":null,"nom_de":null,"slug_ville":"septsarges","departement_id":0,"code_postal":"55270","population":47,"superficie_km2":"887.97","latitude_centre":"49.2875","longitude_centre":"5.1775","distance_km":5.4},{"id":0,"code_insee":"55346","nom_standard":"Montfaucon-d'Argonne","nom_a":null,"nom_de":null,"slug_ville":"montfaucon-d-argonne","departement_id":0,"code_postal":"55270","population":261,"superficie_km2":"2358.09","latitude_centre":"49.2551","longitude_centre":"5.1353","distance_km":6.21},{"id":0,"code_insee":"55355","nom_standard":"Montzéville","nom_a":null,"nom_de":null,"slug_ville":"montzeville","departement_id":0,"code_postal":"55100","population":152,"superficie_km2":"1768.37","latitude_centre":"49.1881","longitude_centre":"5.2123","distance_km":6.65},{"id":0,"code_insee":"55146","nom_standard":"Dannevoux","nom_a":null,"nom_de":null,"slug_ville":"dannevoux","departement_id":0,"code_postal":"55110","population":188,"superficie_km2":"1440.18","latitude_centre":"49.3088","longitude_centre":"5.2221","distance_km":6.8},{"id":0,"code_insee":"55422","nom_standard":"Regnéville-sur-Meuse","nom_a":null,"nom_de":null,"slug_ville":"regneville-sur-meuse","departement_id":0,"code_postal":"55110","population":50,"superficie_km2":"379.56","latitude_centre":"49.2541","longitude_centre":"5.3159","distance_km":6.99},{"id":24932,"code_insee":"55023","nom_standard":"Avocourt","nom_a":null,"nom_de":null,"slug_ville":"avocourt","departement_id":0,"code_postal":"55270","population":120,"superficie_km2":"1468.22","latitude_centre":"49.2046","longitude_centre":"5.1407","distance_km":7.5},{"id":0,"code_insee":"55321","nom_standard":"Marre","nom_a":null,"nom_de":null,"slug_ville":"marre","departement_id":0,"code_postal":"55100","population":183,"superficie_km2":"1018.55","latitude_centre":"49.2029","longitude_centre":"5.2975","distance_km":7.51},{"id":0,"code_insee":"55124","nom_standard":"Consenvoye","nom_a":null,"nom_de":null,"slug_ville":"consenvoye","departement_id":0,"code_postal":"55110","population":281,"superficie_km2":"1616.18","latitude_centre":"49.2961","longitude_centre":"5.3136","distance_km":8.66},{"id":24953,"code_insee":"55047","nom_standard":"Béthelainville","nom_a":null,"nom_de":null,"slug_ville":"bethelainville","departement_id":0,"code_postal":"55100","population":160,"superficie_km2":"1199.71","latitude_centre":"49.1694","longitude_centre":"5.2245","distance_km":8.71},{"id":0,"code_insee":"55375","nom_standard":"Nantillois","nom_a":null,"nom_de":null,"slug_ville":"nantillois","departement_id":0,"code_postal":"55270","population":63,"superficie_km2":"764.06","latitude_centre":"49.3026","longitude_centre":"5.1327","distance_km":8.8},{"id":0,"code_insee":"55078","nom_standard":"Brieulles-sur-Meuse","nom_a":null,"nom_de":null,"slug_ville":"brieulles-sur-meuse","departement_id":0,"code_postal":"55110","population":318,"superficie_km2":"2408.48","latitude_centre":"49.3283","longitude_centre":"5.1723","distance_km":9.61},{"id":0,"code_insee":"55571","nom_standard":"Vilosnes-Haraumont","nom_a":null,"nom_de":null,"slug_ville":"vilosnes-haraumont","departement_id":0,"code_postal":"55110","population":260,"superficie_km2":"1542.26","latitude_centre":"49.3397","longitude_centre":"5.2513","distance_km":10.48},{"id":0,"code_insee":"55155","nom_standard":"Dombasle-en-Argonne","nom_a":null,"nom_de":null,"slug_ville":"dombasle-en-argonne","departement_id":0,"code_postal":"55120","population":365,"superficie_km2":"1156.67","latitude_centre":"49.1454","longitude_centre":"5.1971","distance_km":11.5}]}