{"ville":{"id":11574,"code_insee":"07034","nom_standard":"Bidon","nom_a":null,"nom_de":null,"slug_ville":"bidon","departement_id":0,"code_postal":"07700","population":254,"superficie_km2":"2948.69","latitude_centre":"44.3583","longitude_centre":"4.5423","dep_code":"07","dep_nom":"Ardèche","dep_slug":"ardeche","reg_code":"84","reg_nom":"Auvergne-Rhône-Alpes","reg_slug":"auvergne-rhone-alpes"},"departement":{"code":"07","nom":"Ardèche","slug":"ardeche"},"region":{"code":"84","nom":"Auvergne-Rhône-Alpes","slug":"auvergne-rhone-alpes"},"villes_proches":[{"id":0,"code_insee":"07291","nom_standard":"Saint-Remèze","nom_a":null,"nom_de":null,"slug_ville":"saint-remeze","departement_id":0,"code_postal":"07700","population":847,"superficie_km2":"4363.20","latitude_centre":"44.3768","longitude_centre":"4.4979","distance_km":4.09},{"id":0,"code_insee":"30005","nom_standard":"Aiguèze","nom_a":null,"nom_de":null,"slug_ville":"aigueze","departement_id":0,"code_postal":"30760","population":212,"superficie_km2":"2009.74","latitude_centre":"44.3124","longitude_centre":"4.5184","distance_km":5.45},{"id":0,"code_insee":"07264","nom_standard":"Saint-Marcel-d'Ardèche","nom_a":null,"nom_de":null,"slug_ville":"saint-marcel-d-ardeche","departement_id":0,"code_postal":"07700","population":2346,"superficie_km2":"3607.86","latitude_centre":"44.3301","longitude_centre":"4.6007","distance_km":5.6},{"id":0,"code_insee":"07042","nom_standard":"Bourg-Saint-Andéol","nom_a":null,"nom_de":null,"slug_ville":"bourg-saint-andeol","departement_id":0,"code_postal":"07700","population":7661,"superficie_km2":"4288.83","latitude_centre":"44.3742","longitude_centre":"4.6117","distance_km":5.79},{"id":0,"code_insee":"07268","nom_standard":"Saint-Martin-d'Ardèche","nom_a":null,"nom_de":null,"slug_ville":"saint-martin-d-ardeche","departement_id":0,"code_postal":"07700","population":979,"superficie_km2":"565.31","latitude_centre":"44.3073","longitude_centre":"4.5722","distance_km":6.15},{"id":0,"code_insee":"30143","nom_standard":"Laval-Saint-Roman","nom_a":null,"nom_de":null,"slug_ville":"laval-saint-roman","departement_id":0,"code_postal":"30760","population":213,"superficie_km2":"1048.72","latitude_centre":"44.3015","longitude_centre":"4.507","distance_km":6.91},{"id":0,"code_insee":"30124","nom_standard":"Le Garn","nom_a":null,"nom_de":null,"slug_ville":"le-garn","departement_id":0,"code_postal":"30760","population":277,"superficie_km2":"1109.64","latitude_centre":"44.3161","longitude_centre":"4.4685","distance_km":7.51},{"id":0,"code_insee":"30273","nom_standard":"Saint-Julien-de-Peyrolas","nom_a":null,"nom_de":null,"slug_ville":"saint-julien-de-peyrolas","departement_id":0,"code_postal":"30760","population":1531,"superficie_km2":"1256.75","latitude_centre":"44.2826","longitude_centre":"4.5703","distance_km":8.71},{"id":0,"code_insee":"07099","nom_standard":"Gras","nom_a":null,"nom_de":null,"slug_ville":"gras","departement_id":0,"code_postal":"07700","population":591,"superficie_km2":"5763.65","latitude_centre":"44.4403","longitude_centre":"4.536","distance_km":9.13},{"id":0,"code_insee":"07113","nom_standard":"Labastide-de-Virac","nom_a":null,"nom_de":null,"slug_ville":"labastide-de-virac","departement_id":0,"code_postal":"07150","population":328,"superficie_km2":"2314.97","latitude_centre":"44.3551","longitude_centre":"4.4236","distance_km":9.44},{"id":0,"code_insee":"07259","nom_standard":"Saint-Just-d'Ardèche","nom_a":null,"nom_de":null,"slug_ville":"saint-just-d-ardeche","departement_id":0,"code_postal":"07700","population":1577,"superficie_km2":"1036.85","latitude_centre":"44.2917","longitude_centre":"4.6242","distance_km":9.86},{"id":0,"code_insee":"07279","nom_standard":"Saint-Montan","nom_a":null,"nom_de":null,"slug_ville":"saint-montan","departement_id":0,"code_postal":"07220","population":1978,"superficie_km2":"3359.81","latitude_centre":"44.4379","longitude_centre":"4.6185","distance_km":10.72},{"id":0,"code_insee":"30290","nom_standard":"Saint-Paulet-de-Caisson","nom_a":null,"nom_de":null,"slug_ville":"saint-paulet-de-caisson","departement_id":0,"code_postal":"30130","population":1887,"superficie_km2":"1679.97","latitude_centre":"44.265","longitude_centre":"4.5827","distance_km":10.86},{"id":0,"code_insee":"07168","nom_standard":"Orgnac-l'Aven","nom_a":null,"nom_de":null,"slug_ville":"orgnac-l-aven","departement_id":0,"code_postal":"07150","population":575,"superficie_km2":"2171.20","latitude_centre":"44.3094","longitude_centre":"4.4214","distance_km":11.05},{"id":0,"code_insee":"30242","nom_standard":"Saint-Christol-de-Rodières","nom_a":null,"nom_de":null,"slug_ville":"saint-christol-de-rodieres","departement_id":0,"code_postal":"30760","population":160,"superficie_km2":"796.88","latitude_centre":"44.2605","longitude_centre":"4.5172","distance_km":11.06},{"id":0,"code_insee":"30304","nom_standard":"Salazac","nom_a":null,"nom_de":null,"slug_ville":"salazac","departement_id":0,"code_postal":"30760","population":229,"superficie_km2":"1003.38","latitude_centre":"44.2587","longitude_centre":"4.5373","distance_km":11.08},{"id":0,"code_insee":"30134","nom_standard":"Issirac","nom_a":null,"nom_de":null,"slug_ville":"issirac","departement_id":0,"code_postal":"30760","population":321,"superficie_km2":"2034.07","latitude_centre":"44.2704","longitude_centre":"4.4747","distance_km":11.16},{"id":0,"code_insee":"07133","nom_standard":"Larnas","nom_a":null,"nom_de":null,"slug_ville":"larnas","departement_id":0,"code_postal":"07220","population":283,"superficie_km2":"1391.28","latitude_centre":"44.4553","longitude_centre":"4.5959","distance_km":11.6},{"id":0,"code_insee":"07273","nom_standard":"Saint-Maurice-d'Ibie","nom_a":null,"nom_de":null,"slug_ville":"saint-maurice-d-ibie","departement_id":0,"code_postal":"07170","population":212,"superficie_km2":"2357.63","latitude_centre":"44.4782","longitude_centre":"4.4861","distance_km":14.06},{"id":0,"code_insee":"30277","nom_standard":"Saint-Laurent-de-Carnols","nom_a":null,"nom_de":null,"slug_ville":"saint-laurent-de-carnols","departement_id":0,"code_postal":"30200","population":553,"superficie_km2":"1013.45","latitude_centre":"44.2238","longitude_centre":"4.5338","distance_km":14.97}]}