{"ville":{"id":31658,"code_insee":"76094","nom_standard":"Bierville","nom_a":null,"nom_de":null,"slug_ville":"bierville","departement_id":0,"code_postal":"76750","population":315,"superficie_km2":"213.58","latitude_centre":"49.5369","longitude_centre":"1.275","dep_code":"76","dep_nom":"Seine-Maritime","dep_slug":"seine-maritime","reg_code":"28","reg_nom":"Normandie","reg_slug":"normandie"},"departement":{"code":"76","nom":"Seine-Maritime","slug":"seine-maritime"},"region":{"code":"28","nom":"Normandie","slug":"normandie"},"villes_proches":[{"id":0,"code_insee":"76396","nom_standard":"Longuerue","nom_a":null,"nom_de":null,"slug_ville":"longuerue","departement_id":0,"code_postal":"76750","population":346,"superficie_km2":"545.13","latitude_centre":"49.545","longitude_centre":"1.2853","distance_km":1.17},{"id":0,"code_insee":"76502","nom_standard":"Pierreval","nom_a":null,"nom_de":null,"slug_ville":"pierreval","departement_id":0,"code_postal":"76750","population":524,"superficie_km2":"391.86","latitude_centre":"49.5398","longitude_centre":"1.2538","distance_km":1.56},{"id":0,"code_insee":"76453","nom_standard":"Morgny-la-Pommeraye","nom_a":null,"nom_de":null,"slug_ville":"morgny-la-pommeraye","departement_id":0,"code_postal":"76750","population":1065,"superficie_km2":"661.35","latitude_centre":"49.518","longitude_centre":"1.2509","distance_km":2.73},{"id":0,"code_insee":"76581","nom_standard":"Saint-Germain-des-Essourts","nom_a":null,"nom_de":null,"slug_ville":"saint-germain-des-essourts","departement_id":0,"code_postal":"76750","population":380,"superficie_km2":"926.58","latitude_centre":"49.5368","longitude_centre":"1.3158","distance_km":2.94},{"id":0,"code_insee":"76547","nom_standard":"La Rue-Saint-Pierre","nom_a":null,"nom_de":null,"slug_ville":"la-rue-saint-pierre","departement_id":0,"code_postal":"76690","population":800,"superficie_km2":"773.71","latitude_centre":"49.565","longitude_centre":"1.2525","distance_km":3.52},{"id":0,"code_insee":"76100","nom_standard":"Blainville-Crevon","nom_a":null,"nom_de":null,"slug_ville":"blainville-crevon","departement_id":0,"code_postal":"76116","population":1226,"superficie_km2":"1476.48","latitude_centre":"49.5071","longitude_centre":"1.293","distance_km":3.56},{"id":0,"code_insee":"76738","nom_standard":"Vieux-Manoir","nom_a":null,"nom_de":null,"slug_ville":"vieux-manoir","departement_id":0,"code_postal":"76750","population":772,"superficie_km2":"810.53","latitude_centre":"49.5691","longitude_centre":"1.294","distance_km":3.83},{"id":0,"code_insee":"76555","nom_standard":"Saint-André-sur-Cailly","nom_a":null,"nom_de":null,"slug_ville":"saint-andre-sur-cailly","departement_id":0,"code_postal":"76690","population":789,"superficie_km2":"1227.81","latitude_centre":"49.5511","longitude_centre":"1.2217","distance_km":4.16},{"id":0,"code_insee":"76163","nom_standard":"Catenay","nom_a":null,"nom_de":null,"slug_ville":"catenay","departement_id":0,"code_postal":"76116","population":702,"superficie_km2":"587.65","latitude_centre":"49.5102","longitude_centre":"1.3279","distance_km":4.84},{"id":0,"code_insee":"76740","nom_standard":"La Vieux-Rue","nom_a":null,"nom_de":null,"slug_ville":"la-vieux-rue","departement_id":0,"code_postal":"76160","population":572,"superficie_km2":"556.24","latitude_centre":"49.4941","longitude_centre":"1.2425","distance_km":5.31},{"id":0,"code_insee":"76571","nom_standard":"Sainte-Croix-sur-Buchy","nom_a":null,"nom_de":null,"slug_ville":"sainte-croix-sur-buchy","departement_id":0,"code_postal":"76750","population":661,"superficie_km2":"1373.03","latitude_centre":"49.5625","longitude_centre":"1.3458","distance_km":5.85},{"id":0,"code_insee":"76673","nom_standard":"Servaville-Salmonville","nom_a":null,"nom_de":null,"slug_ville":"servaville-salmonville","departement_id":0,"code_postal":"76116","population":1111,"superficie_km2":"792.96","latitude_centre":"49.4803","longitude_centre":"1.274","distance_km":6.29},{"id":0,"code_insee":"76152","nom_standard":"Cailly","nom_a":null,"nom_de":null,"slug_ville":"cailly","departement_id":0,"code_postal":"76690","population":731,"superficie_km2":"551.09","latitude_centre":"49.5869","longitude_centre":"1.2299","distance_km":6.44},{"id":0,"code_insee":"76756","nom_standard":"Yquebeuf","nom_a":null,"nom_de":null,"slug_ville":"yquebeuf","departement_id":0,"code_postal":"76690","population":235,"superficie_km2":"649.72","latitude_centre":"49.5946","longitude_centre":"1.2598","distance_km":6.51},{"id":0,"code_insee":"76583","nom_standard":"Saint-Germain-sous-Cailly","nom_a":null,"nom_de":null,"slug_ville":"saint-germain-sous-cailly","departement_id":0,"code_postal":"76690","population":305,"superficie_km2":"403.46","latitude_centre":"49.5809","longitude_centre":"1.2108","distance_km":6.74},{"id":0,"code_insee":"76509","nom_standard":"Préaux","nom_a":null,"nom_de":null,"slug_ville":"preaux","departement_id":0,"code_postal":"76160","population":1849,"superficie_km2":"1913.91","latitude_centre":"49.489","longitude_centre":"1.2145","distance_km":6.89},{"id":0,"code_insee":"76146","nom_standard":"Buchy","nom_a":null,"nom_de":null,"slug_ville":"buchy","departement_id":0,"code_postal":"76750","population":2815,"superficie_km2":"2634.89","latitude_centre":"49.5859","longitude_centre":"1.3394","distance_km":7.16},{"id":0,"code_insee":"76316","nom_standard":"Grainville-sur-Ry","nom_a":null,"nom_de":null,"slug_ville":"grainville-sur-ry","departement_id":0,"code_postal":"76116","population":438,"superficie_km2":"544.30","latitude_centre":"49.4728","longitude_centre":"1.3003","distance_km":7.36},{"id":0,"code_insee":"76532","nom_standard":"Rocquemont","nom_a":null,"nom_de":null,"slug_ville":"rocquemont","departement_id":0,"code_postal":"76680","population":747,"superficie_km2":"1232.10","latitude_centre":"49.609","longitude_centre":"1.2962","distance_km":8.16},{"id":0,"code_insee":"76200","nom_standard":"Critot","nom_a":null,"nom_de":null,"slug_ville":"critot","departement_id":0,"code_postal":"76680","population":544,"superficie_km2":"704.22","latitude_centre":"49.6127","longitude_centre":"1.2445","distance_km":8.71}]}