{"ville":{"id":5695,"code_insee":"59082","nom_standard":"Bierne","nom_a":null,"nom_de":null,"slug_ville":"bierne","departement_id":660,"code_postal":"59380","population":1772,"superficie_km2":"11.00","latitude_centre":"50.9710007","longitude_centre":"2.4020000","dep_code":"59","dep_nom":"Nord","dep_slug":"nord","reg_code":"09","reg_nom":"Hauts-de-France","reg_slug":"hauts-de-france"},"departement":{"code":"59","nom":"Nord","slug":"nord"},"region":{"code":"09","nom":"Hauts-de-France","slug":"hauts-de-france"},"villes_proches":[{"id":5689,"code_insee":"59067","nom_standard":"Bergues","nom_a":null,"nom_de":null,"slug_ville":"bergues","departement_id":660,"code_postal":"59380","population":3561,"superficie_km2":"1.00","latitude_centre":"50.9690018","longitude_centre":"2.4330001","distance_km":2.18},{"id":5968,"code_insee":"59579","nom_standard":"Steene","nom_a":null,"nom_de":null,"slug_ville":"steene","departement_id":660,"code_postal":"59380","population":1365,"superficie_km2":"10.00","latitude_centre":"50.9529991","longitude_centre":"2.3720000","distance_km":2.9},{"id":5723,"code_insee":"59131","nom_standard":"Cappelle-la-Grande","nom_a":null,"nom_de":null,"slug_ville":"cappelle-la-grande","departement_id":660,"code_postal":"59180","population":7899,"superficie_km2":"5.00","latitude_centre":"50.9959984","longitude_centre":"2.3699999","distance_km":3.57},{"id":5825,"code_insee":"59319","nom_standard":"Hoymille","nom_a":null,"nom_de":null,"slug_ville":"hoymille","departement_id":660,"code_postal":"59492","population":3173,"superficie_km2":"6.00","latitude_centre":"50.9729996","longitude_centre":"2.4560001","distance_km":3.79},{"id":5659,"code_insee":"59016","nom_standard":"Armbouts-Cappel","nom_a":null,"nom_de":null,"slug_ville":"armbouts-cappel","departement_id":660,"code_postal":"59380","population":2125,"superficie_km2":"10.00","latitude_centre":"50.9819984","longitude_centre":"2.3490000","distance_km":3.91},{"id":5735,"code_insee":"59155","nom_standard":"Coudekerque-Branche","nom_a":null,"nom_de":null,"slug_ville":"coudekerque-branche","departement_id":660,"code_postal":"59210","population":20765,"superficie_km2":"9.00","latitude_centre":"51.0180016","longitude_centre":"2.3959999","distance_km":5.24},{"id":5914,"code_insee":"59478","nom_standard":"Quaëdypre","nom_a":null,"nom_de":null,"slug_ville":"quaedypre","departement_id":660,"code_postal":"59380","population":1121,"superficie_km2":"19.00","latitude_centre":"50.9379997","longitude_centre":"2.4600000","distance_km":5.47},{"id":5973,"code_insee":"59588","nom_standard":"Téteghem-Coudekerque-Village","nom_a":null,"nom_de":null,"slug_ville":"teteghem-coudekerque-village","departement_id":660,"code_postal":"59380","population":8384,"superficie_km2":"19.00","latitude_centre":"51.0159988","longitude_centre":"2.4530001","distance_km":6.15},{"id":5966,"code_insee":"59576","nom_standard":"Spycker","nom_a":null,"nom_de":null,"slug_ville":"spycker","departement_id":660,"code_postal":"59380","population":1752,"superficie_km2":"9.00","latitude_centre":"50.9749985","longitude_centre":"2.3139999","distance_km":6.18},{"id":6005,"code_insee":"59641","nom_standard":"Warhem","nom_a":null,"nom_de":null,"slug_ville":"warhem","departement_id":660,"code_postal":"59380","population":2022,"superficie_km2":"28.00","latitude_centre":"50.9770012","longitude_centre":"2.5030000","distance_km":7.1},{"id":5750,"code_insee":"59183","nom_standard":"Dunkerque","nom_a":null,"nom_de":null,"slug_ville":"dunkerque","departement_id":660,"code_postal":"59140","population":86788,"superficie_km2":"43.00","latitude_centre":"51.0309982","longitude_centre":"2.3380001","distance_km":8.04},{"id":5709,"code_insee":"59110","nom_standard":"Brouckerque","nom_a":null,"nom_de":null,"slug_ville":"brouckerque","departement_id":660,"code_postal":"59630","population":1444,"superficie_km2":"12.00","latitude_centre":"50.9519997","longitude_centre":"2.2869999","distance_km":8.33},{"id":5982,"code_insee":"59605","nom_standard":"Uxem","nom_a":null,"nom_de":null,"slug_ville":"uxem","departement_id":660,"code_postal":"59229","population":1497,"superficie_km2":"8.00","latitude_centre":"51.0239983","longitude_centre":"2.4920001","distance_km":8.63},{"id":5762,"code_insee":"59210","nom_standard":"Esquelbecq","nom_a":null,"nom_de":null,"slug_ville":"esquelbecq","departement_id":660,"code_postal":"59470","population":2134,"superficie_km2":"12.00","latitude_centre":"50.8899994","longitude_centre":"2.4289999","distance_km":9.2},{"id":5797,"code_insee":"59271","nom_standard":"Grande-Synthe","nom_a":null,"nom_de":null,"slug_ville":"grande-synthe","departement_id":660,"code_postal":"59760","population":20331,"superficie_km2":"21.00","latitude_centre":"51.0169983","longitude_centre":"2.2909999","distance_km":9.3},{"id":5841,"code_insee":"59340","nom_standard":"Leffrinckoucke","nom_a":null,"nom_de":null,"slug_ville":"leffrinckoucke","departement_id":660,"code_postal":"59495","population":4124,"superficie_km2":"7.00","latitude_centre":"51.0480003","longitude_centre":"2.4549999","distance_km":9.33},{"id":6018,"code_insee":"59666","nom_standard":"Zegerscappel","nom_a":null,"nom_de":null,"slug_ville":"zegerscappel","departement_id":660,"code_postal":"59470","population":1536,"superficie_km2":"18.00","latitude_centre":"50.8829994","longitude_centre":"2.3850000","distance_km":9.86},{"id":5927,"code_insee":"59499","nom_standard":"Rexpoëde","nom_a":null,"nom_de":null,"slug_ville":"rexpoede","departement_id":660,"code_postal":"59122","population":1992,"superficie_km2":"13.00","latitude_centre":"50.9350014","longitude_centre":"2.5450001","distance_km":10.79},{"id":5852,"code_insee":"59358","nom_standard":"Looberghe","nom_a":null,"nom_de":null,"slug_ville":"looberghe","departement_id":660,"code_postal":"59630","population":1206,"superficie_km2":"19.00","latitude_centre":"50.9129982","longitude_centre":"2.2750001","distance_km":10.99},{"id":5830,"code_insee":"59326","nom_standard":"Killem","nom_a":null,"nom_de":null,"slug_ville":"killem","departement_id":660,"code_postal":"59122","population":1181,"superficie_km2":"12.00","latitude_centre":"50.9580002","longitude_centre":"2.5599999","distance_km":11.16}]}