{"ville":{"id":9994,"code_insee":"01044","nom_standard":"Billiat","nom_a":null,"nom_de":null,"slug_ville":"billiat","departement_id":0,"code_postal":"01200","population":713,"superficie_km2":"1404.11","latitude_centre":"46.0778","longitude_centre":"5.7632","dep_code":"01","dep_nom":"Ain","dep_slug":"ain","reg_code":"84","reg_nom":"Auvergne-Rhône-Alpes","reg_slug":"auvergne-rhone-alpes"},"departement":{"code":"01","nom":"Ain","slug":"ain"},"region":{"code":"84","nom":"Auvergne-Rhône-Alpes","slug":"auvergne-rhone-alpes"},"villes_proches":[{"id":0,"code_insee":"01448","nom_standard":"Villes","nom_a":null,"nom_de":null,"slug_ville":"villes","departement_id":0,"code_postal":"01200","population":381,"superficie_km2":"901.08","latitude_centre":"46.0952","longitude_centre":"5.7598","distance_km":1.95},{"id":0,"code_insee":"01189","nom_standard":"Injoux-Génissiat","nom_a":null,"nom_de":null,"slug_ville":"injoux-genissiat","departement_id":0,"code_postal":"01200","population":1115,"superficie_km2":"2961.65","latitude_centre":"46.0505","longitude_centre":"5.7678","distance_km":3.06},{"id":0,"code_insee":"74235","nom_standard":"Saint-Germain-sur-Rhône","nom_a":null,"nom_de":null,"slug_ville":"saint-germain-sur-rhone","departement_id":0,"code_postal":"74910","population":646,"superficie_km2":"786.23","latitude_centre":"46.0721","longitude_centre":"5.8294","distance_km":5.15},{"id":0,"code_insee":"01215","nom_standard":"Surjoux-Lhopital","nom_a":null,"nom_de":null,"slug_ville":"surjoux-lhopital","departement_id":0,"code_postal":"01420","population":138,"superficie_km2":"805.10","latitude_centre":"46.0302","longitude_centre":"5.7666","distance_km":5.3},{"id":0,"code_insee":"01033","nom_standard":"Valserhône","nom_a":null,"nom_de":null,"slug_ville":"valserhone","departement_id":0,"code_postal":"01200","population":16712,"superficie_km2":"6286.07","latitude_centre":"46.1234","longitude_centre":"5.7944","distance_km":5.61},{"id":0,"code_insee":"74130","nom_standard":"Franclens","nom_a":null,"nom_de":null,"slug_ville":"franclens","departement_id":0,"code_postal":"74910","population":541,"superficie_km2":"534.58","latitude_centre":"46.0441","longitude_centre":"5.8271","distance_km":6.19},{"id":0,"code_insee":"74109","nom_standard":"Éloise","nom_a":null,"nom_de":null,"slug_ville":"eloise","departement_id":0,"code_postal":"01200","population":931,"superficie_km2":"892.39","latitude_centre":"46.0853","longitude_centre":"5.8474","distance_km":6.55},{"id":0,"code_insee":"01187","nom_standard":"Haut Valromey","nom_a":null,"nom_de":null,"slug_ville":"haut-valromey","departement_id":0,"code_postal":"01260","population":801,"superficie_km2":"12179.88","latitude_centre":"46.0436","longitude_centre":"5.6846","distance_km":7.16},{"id":0,"code_insee":"74055","nom_standard":"Challonges","nom_a":null,"nom_de":null,"slug_ville":"challonges","departement_id":0,"code_postal":"74910","population":610,"superficie_km2":"789.06","latitude_centre":"46.0237","longitude_centre":"5.8268","distance_km":7.76},{"id":0,"code_insee":"74068","nom_standard":"Chêne-en-Semine","nom_a":null,"nom_de":null,"slug_ville":"chene-en-semine","departement_id":0,"code_postal":"74270","population":544,"superficie_km2":"944.60","latitude_centre":"46.0501","longitude_centre":"5.8568","distance_km":7.85},{"id":0,"code_insee":"01082","nom_standard":"Chanay","nom_a":null,"nom_de":null,"slug_ville":"chanay","departement_id":0,"code_postal":"01420","population":574,"superficie_km2":"1839.96","latitude_centre":"46.0024","longitude_centre":"5.7674","distance_km":8.39},{"id":0,"code_insee":"01204","nom_standard":"Le Poizat-Lalleyriat","nom_a":null,"nom_de":null,"slug_ville":"le-poizat-lalleyriat","departement_id":0,"code_postal":"01130","population":732,"superficie_km2":"3319.16","latitude_centre":"46.1392","longitude_centre":"5.6955","distance_km":8.59},{"id":0,"code_insee":"01209","nom_standard":"Léaz","nom_a":null,"nom_de":null,"slug_ville":"leaz","departement_id":0,"code_postal":"01200","population":912,"superficie_km2":"1142.31","latitude_centre":"46.1114","longitude_centre":"5.8768","distance_km":9.52},{"id":0,"code_insee":"74291","nom_standard":"Vanzy","nom_a":null,"nom_de":null,"slug_ville":"vanzy","departement_id":0,"code_postal":"74270","population":351,"superficie_km2":"559.90","latitude_centre":"46.0342","longitude_centre":"5.8726","distance_km":9.73},{"id":0,"code_insee":"74285","nom_standard":"Usinens","nom_a":null,"nom_de":null,"slug_ville":"usinens","departement_id":0,"code_postal":"74910","population":433,"superficie_km2":"747.73","latitude_centre":"46.0131","longitude_centre":"5.85","distance_km":9.83},{"id":0,"code_insee":"01114","nom_standard":"Confort","nom_a":null,"nom_de":null,"slug_ville":"confort","departement_id":0,"code_postal":"01200","population":668,"superficie_km2":"1129.47","latitude_centre":"46.1536","longitude_centre":"5.8358","distance_km":10.12},{"id":0,"code_insee":"01257","nom_standard":"Montanges","nom_a":null,"nom_de":null,"slug_ville":"montanges","departement_id":0,"code_postal":"01200","population":369,"superficie_km2":"1368.00","latitude_centre":"46.171","longitude_centre":"5.7903","distance_km":10.57},{"id":0,"code_insee":"74029","nom_standard":"Bassy","nom_a":null,"nom_de":null,"slug_ville":"bassy","departement_id":0,"code_postal":"74910","population":423,"superficie_km2":"755.56","latitude_centre":"45.9903","longitude_centre":"5.83","distance_km":11.01},{"id":0,"code_insee":"01357","nom_standard":"Saint-Germain-de-Joux","nom_a":null,"nom_de":null,"slug_ville":"saint-germain-de-joux","departement_id":0,"code_postal":"01130","population":507,"superficie_km2":"1147.81","latitude_centre":"46.1812","longitude_centre":"5.7435","distance_km":11.6},{"id":0,"code_insee":"01118","nom_standard":"Corbonod","nom_a":null,"nom_de":null,"slug_ville":"corbonod","departement_id":0,"code_postal":"01420","population":1333,"superficie_km2":"3206.46","latitude_centre":"45.9668","longitude_centre":"5.7902","distance_km":12.52}]}