{"ville":{"id":27510,"code_insee":"62134","nom_standard":"Bimont","nom_a":null,"nom_de":null,"slug_ville":"bimont","departement_id":0,"code_postal":"62650","population":112,"superficie_km2":"682.05","latitude_centre":"50.5375","longitude_centre":"1.909","dep_code":"62","dep_nom":"Pas-de-Calais","dep_slug":"pas-de-calais","reg_code":"32","reg_nom":"Hauts-de-France","reg_slug":"hauts-de-france"},"departement":{"code":"62","nom":"Pas-de-Calais","slug":"pas-de-calais"},"region":{"code":"32","nom":"Hauts-de-France","slug":"hauts-de-france"},"villes_proches":[{"id":0,"code_insee":"62227","nom_standard":"Clenleu","nom_a":null,"nom_de":null,"slug_ville":"clenleu","departement_id":0,"code_postal":"62650","population":186,"superficie_km2":"730.01","latitude_centre":"50.5314","longitude_centre":"1.8851","distance_km":1.82},{"id":0,"code_insee":"62682","nom_standard":"Quilen","nom_a":null,"nom_de":null,"slug_ville":"quilen","departement_id":0,"code_postal":"62650","population":64,"superficie_km2":"405.16","latitude_centre":"50.5287","longitude_centre":"1.9344","distance_km":2.04},{"id":0,"code_insee":"62545","nom_standard":"Maninghem","nom_a":null,"nom_de":null,"slug_ville":"maninghem","departement_id":0,"code_postal":"62650","population":152,"superficie_km2":"398.61","latitude_centre":"50.5477","longitude_centre":"1.9393","distance_km":2.42},{"id":0,"code_insee":"62762","nom_standard":"Saint-Michel-sous-Bois","nom_a":null,"nom_de":null,"slug_ville":"saint-michel-sous-bois","departement_id":0,"code_postal":"62650","population":131,"superficie_km2":"568.27","latitude_centre":"50.518","longitude_centre":"1.9331","distance_km":2.76},{"id":0,"code_insee":"62463","nom_standard":"Hucqueliers","nom_a":null,"nom_de":null,"slug_ville":"hucqueliers","departement_id":0,"code_postal":"62650","population":494,"superficie_km2":"764.74","latitude_centre":"50.5724","longitude_centre":"1.9161","distance_km":3.91},{"id":0,"code_insee":"62466","nom_standard":"Humbert","nom_a":null,"nom_de":null,"slug_ville":"humbert","departement_id":0,"code_postal":"62650","population":249,"superficie_km2":"783.15","latitude_centre":"50.5021","longitude_centre":"1.9119","distance_km":3.94},{"id":27456,"code_insee":"62062","nom_standard":"Avesnes","nom_a":null,"nom_de":null,"slug_ville":"avesnes","departement_id":0,"code_postal":"62650","population":46,"superficie_km2":"301.57","latitude_centre":"50.5513","longitude_centre":"1.9631","distance_km":4.12},{"id":0,"code_insee":"62670","nom_standard":"Preures","nom_a":null,"nom_de":null,"slug_ville":"preures","departement_id":0,"code_postal":"62650","population":642,"superficie_km2":"1591.97","latitude_centre":"50.5728","longitude_centre":"1.8859","distance_km":4.25},{"id":27434,"code_insee":"62021","nom_standard":"Alette","nom_a":null,"nom_de":null,"slug_ville":"alette","departement_id":0,"code_postal":"62650","population":365,"superficie_km2":"1396.93","latitude_centre":"50.5258","longitude_centre":"1.8506","distance_km":4.33},{"id":0,"code_insee":"62886","nom_standard":"Wicquinghem","nom_a":null,"nom_de":null,"slug_ville":"wicquinghem","departement_id":0,"code_postal":"62650","population":267,"superficie_km2":"688.50","latitude_centre":"50.5733","longitude_centre":"1.9512","distance_km":4.97},{"id":0,"code_insee":"62787","nom_standard":"Sempy","nom_a":null,"nom_de":null,"slug_ville":"sempy","departement_id":0,"code_postal":"62170","population":324,"superficie_km2":"806.78","latitude_centre":"50.4968","longitude_centre":"1.8774","distance_km":5.05},{"id":0,"code_insee":"62293","nom_standard":"Embry","nom_a":null,"nom_de":null,"slug_ville":"embry","departement_id":0,"code_postal":"62990","population":241,"superficie_km2":"1169.21","latitude_centre":"50.497","longitude_centre":"1.9603","distance_km":5.78},{"id":0,"code_insee":"62296","nom_standard":"Enquin-sur-Baillons","nom_a":null,"nom_de":null,"slug_ville":"enquin-sur-baillons","departement_id":0,"code_postal":"62650","population":237,"superficie_km2":"497.98","latitude_centre":"50.5707","longitude_centre":"1.8452","distance_km":5.83},{"id":0,"code_insee":"62745","nom_standard":"Saint-Denœux","nom_a":null,"nom_de":null,"slug_ville":"saint-denoeux","departement_id":0,"code_postal":"62990","population":173,"superficie_km2":"403.47","latitude_centre":"50.4765","longitude_centre":"1.9099","distance_km":6.78},{"id":27432,"code_insee":"62018","nom_standard":"Aix-en-Issart","nom_a":null,"nom_de":null,"slug_ville":"aix-en-issart","departement_id":0,"code_postal":"62170","population":264,"superficie_km2":"1024.17","latitude_centre":"50.4822","longitude_centre":"1.8635","distance_km":6.94},{"id":0,"code_insee":"62157","nom_standard":"Boubers-lès-Hesmond","nom_a":null,"nom_de":null,"slug_ville":"boubers-les-hesmond","departement_id":0,"code_postal":"62990","population":68,"superficie_km2":"174.21","latitude_centre":"50.48","longitude_centre":"1.9476","distance_km":6.95},{"id":0,"code_insee":"62302","nom_standard":"Ergny","nom_a":null,"nom_de":null,"slug_ville":"ergny","departement_id":0,"code_postal":"62650","population":230,"superficie_km2":"924.15","latitude_centre":"50.5853","longitude_centre":"1.9724","distance_km":6.95},{"id":27506,"code_insee":"62127","nom_standard":"Bezinghem","nom_a":null,"nom_de":null,"slug_ville":"bezinghem","departement_id":0,"code_postal":"62650","population":367,"superficie_km2":"1323.48","latitude_centre":"50.5987","longitude_centre":"1.8591","distance_km":7.66},{"id":0,"code_insee":"62168","nom_standard":"Bourthes","nom_a":null,"nom_de":null,"slug_ville":"bourthes","departement_id":0,"code_postal":"62650","population":860,"superficie_km2":"2235.76","latitude_centre":"50.6113","longitude_centre":"1.936","distance_km":8.42},{"id":0,"code_insee":"62449","nom_standard":"Hesmond","nom_a":null,"nom_de":null,"slug_ville":"hesmond","departement_id":0,"code_postal":"62990","population":172,"superficie_km2":"829.22","latitude_centre":"50.4648","longitude_centre":"1.9433","distance_km":8.44}]}