{"ville":{"id":8721,"code_insee":"82018","nom_standard":"Bioule","nom_a":null,"nom_de":null,"slug_ville":"bioule","departement_id":683,"code_postal":"82800","population":1178,"superficie_km2":"20.00","latitude_centre":"44.0989990","longitude_centre":"1.5430000","dep_code":"82","dep_nom":"Tarn-et-Garonne","dep_slug":"tarn-et-garonne","reg_code":"16","reg_nom":"Occitanie","reg_slug":"occitanie"},"departement":{"code":"82","nom":"Tarn-et-Garonne","slug":"tarn-et-garonne"},"region":{"code":"16","nom":"Occitanie","slug":"occitanie"},"villes_proches":[{"id":8763,"code_insee":"82134","nom_standard":"Nègrepelisse","nom_a":null,"nom_de":null,"slug_ville":"negrepelisse","departement_id":683,"code_postal":"82800","population":5743,"superficie_km2":"49.00","latitude_centre":"44.0629997","longitude_centre":"1.5280000","distance_km":4.18},{"id":8767,"code_insee":"82149","nom_standard":"Réalville","nom_a":null,"nom_de":null,"slug_ville":"realville","departement_id":683,"code_postal":"82440","population":1863,"superficie_km2":"25.00","latitude_centre":"44.1279984","longitude_centre":"1.4809999","distance_km":5.91},{"id":8726,"code_insee":"82037","nom_standard":"Caussade","nom_a":null,"nom_de":null,"slug_ville":"caussade","departement_id":683,"code_postal":"82300","population":6804,"superficie_km2":"46.00","latitude_centre":"44.1559982","longitude_centre":"1.5440000","distance_km":6.34},{"id":8762,"code_insee":"82132","nom_standard":"Montricoux","nom_a":null,"nom_de":null,"slug_ville":"montricoux","departement_id":683,"code_postal":"82800","population":1172,"superficie_km2":"26.00","latitude_centre":"44.1040001","longitude_centre":"1.6240000","distance_km":6.49},{"id":8717,"code_insee":"82002","nom_standard":"Albias","nom_a":null,"nom_de":null,"slug_ville":"albias","departement_id":683,"code_postal":"82350","population":3305,"superficie_km2":"22.00","latitude_centre":"44.0820007","longitude_centre":"1.4490000","distance_km":7.74},{"id":8760,"code_insee":"82126","nom_standard":"Monteils","nom_a":null,"nom_de":null,"slug_ville":"monteils","departement_id":683,"code_postal":"82300","population":1361,"superficie_km2":"12.00","latitude_centre":"44.1720009","longitude_centre":"1.5650001","distance_km":8.31},{"id":8769,"code_insee":"82161","nom_standard":"Saint-Étienne-de-Tulmont","nom_a":null,"nom_de":null,"slug_ville":"saint-etienne-de-tulmont","departement_id":683,"code_postal":"82410","population":4029,"superficie_km2":"21.00","latitude_centre":"44.0449982","longitude_centre":"1.4570000","distance_km":9.12},{"id":8774,"code_insee":"82179","nom_standard":"Septfonds","nom_a":null,"nom_de":null,"slug_ville":"septfonds","departement_id":683,"code_postal":"82240","population":2248,"superficie_km2":"27.00","latitude_centre":"44.1769981","longitude_centre":"1.6170000","distance_km":10.49},{"id":8751,"code_insee":"82110","nom_standard":"Mirabel","nom_a":null,"nom_de":null,"slug_ville":"mirabel","departement_id":683,"code_postal":"82440","population":1039,"superficie_km2":"32.00","latitude_centre":"44.1419983","longitude_centre":"1.4110000","distance_km":11.57},{"id":8743,"code_insee":"82090","nom_standard":"Lamothe-Capdeville","nom_a":null,"nom_de":null,"slug_ville":"lamothe-capdeville","departement_id":683,"code_postal":"82130","population":1053,"superficie_km2":"12.00","latitude_centre":"44.0929985","longitude_centre":"1.3900000","distance_km":12.24},{"id":8754,"code_insee":"82115","nom_standard":"Monclar-de-Quercy","nom_a":null,"nom_de":null,"slug_ville":"monclar-de-quercy","departement_id":683,"code_postal":"82230","population":2026,"superficie_km2":"38.00","latitude_centre":"43.9879990","longitude_centre":"1.5820000","distance_km":12.73},{"id":8747,"code_insee":"82098","nom_standard":"Léojac","nom_a":null,"nom_de":null,"slug_ville":"leojac","departement_id":683,"code_postal":"82230","population":1276,"superficie_km2":"13.00","latitude_centre":"44.0029984","longitude_centre":"1.4510000","distance_km":12.96},{"id":8737,"code_insee":"82076","nom_standard":"L'Honor-de-Cos","nom_a":null,"nom_de":null,"slug_ville":"l-honor-de-cos","departement_id":683,"code_postal":"82130","population":1606,"superficie_km2":"32.00","latitude_centre":"44.1170006","longitude_centre":"1.3570000","distance_km":14.98},{"id":8753,"code_insee":"82113","nom_standard":"Molières","nom_a":null,"nom_de":null,"slug_ville":"molieres","departement_id":683,"code_postal":"82220","population":1245,"superficie_km2":"39.00","latitude_centre":"44.1930008","longitude_centre":"1.3930000","distance_km":15.89},{"id":8761,"code_insee":"82131","nom_standard":"Montpezat-de-Quercy","nom_a":null,"nom_de":null,"slug_ville":"montpezat-de-quercy","departement_id":683,"code_postal":"82270","population":1597,"superficie_km2":"44.00","latitude_centre":"44.2400017","longitude_centre":"1.4740000","distance_km":16.62},{"id":8768,"code_insee":"82155","nom_standard":"Saint-Antonin-Noble-Val","nom_a":null,"nom_de":null,"slug_ville":"saint-antonin-noble-val","departement_id":683,"code_postal":"82140","population":1918,"superficie_km2":"106.00","latitude_centre":"44.1559982","longitude_centre":"1.7359999","distance_km":16.66},{"id":8756,"code_insee":"82121","nom_standard":"Montauban","nom_a":null,"nom_de":null,"slug_ville":"montauban","departement_id":683,"code_postal":"82000","population":61919,"superficie_km2":"136.00","latitude_centre":"44.0219994","longitude_centre":"1.3640000","distance_km":16.67},{"id":8770,"code_insee":"82167","nom_standard":"Saint-Nauphary","nom_a":null,"nom_de":null,"slug_ville":"saint-nauphary","departement_id":683,"code_postal":"82370","population":1921,"superficie_km2":"25.00","latitude_centre":"43.9589996","longitude_centre":"1.4490000","distance_km":17.29},{"id":8777,"code_insee":"82194","nom_standard":"Villebrumier","nom_a":null,"nom_de":null,"slug_ville":"villebrumier","departement_id":683,"code_postal":"82370","population":1356,"superficie_km2":"11.00","latitude_centre":"43.9199982","longitude_centre":"1.4510000","distance_km":21.22},{"id":8729,"code_insee":"82044","nom_standard":"Corbarieu","nom_a":null,"nom_de":null,"slug_ville":"corbarieu","departement_id":683,"code_postal":"82370","population":1702,"superficie_km2":"13.00","latitude_centre":"43.9410019","longitude_centre":"1.3810000","distance_km":21.83}]}