{"ville":{"id":14426,"code_insee":"17047","nom_standard":"Biron","nom_a":null,"nom_de":null,"slug_ville":"biron","departement_id":0,"code_postal":"17800","population":243,"superficie_km2":"860.24","latitude_centre":"45.5679","longitude_centre":"-0.4854","dep_code":"17","dep_nom":"Charente-Maritime","dep_slug":"charente-maritime","reg_code":"75","reg_nom":"Nouvelle-Aquitaine","reg_slug":"nouvelle-aquitaine"},"departement":{"code":"17","nom":"Charente-Maritime","slug":"charente-maritime"},"region":{"code":"75","nom":"Nouvelle-Aquitaine","slug":"nouvelle-aquitaine"},"villes_proches":[{"id":14411,"code_insee":"17027","nom_standard":"Avy","nom_a":null,"nom_de":null,"slug_ville":"avy","departement_id":0,"code_postal":"17800","population":510,"superficie_km2":"1458.72","latitude_centre":"45.5514","longitude_centre":"-0.5096","distance_km":2.63},{"id":0,"code_insee":"17078","nom_standard":"Chadenac","nom_a":null,"nom_de":null,"slug_ville":"chadenac","departement_id":0,"code_postal":"17800","population":518,"superficie_km2":"1404.76","latitude_centre":"45.5473","longitude_centre":"-0.4512","distance_km":3.51},{"id":0,"code_insee":"17145","nom_standard":"Échebrune","nom_a":null,"nom_de":null,"slug_ville":"echebrune","departement_id":0,"code_postal":"17800","population":480,"superficie_km2":"1734.17","latitude_centre":"45.5923","longitude_centre":"-0.4514","distance_km":3.79},{"id":0,"code_insee":"17056","nom_standard":"Bougneau","nom_a":null,"nom_de":null,"slug_ville":"bougneau","departement_id":0,"code_postal":"17800","population":655,"superficie_km2":"1477.61","latitude_centre":"45.5994","longitude_centre":"-0.5049","distance_km":3.82},{"id":0,"code_insee":"17159","nom_standard":"Fléac-sur-Seugne","nom_a":null,"nom_de":null,"slug_ville":"fleac-sur-seugne","departement_id":0,"code_postal":"17800","population":361,"superficie_km2":"849.59","latitude_centre":"45.5318","longitude_centre":"-0.5242","distance_km":5.02},{"id":0,"code_insee":"17220","nom_standard":"Marignac","nom_a":null,"nom_de":null,"slug_ville":"marignac","departement_id":0,"code_postal":"17800","population":412,"superficie_km2":"1348.65","latitude_centre":"45.5189","longitude_centre":"-0.4699","distance_km":5.58},{"id":0,"code_insee":"17283","nom_standard":"Pons","nom_a":null,"nom_de":null,"slug_ville":"pons","departement_id":0,"code_postal":"17800","population":4343,"superficie_km2":"2781.42","latitude_centre":"45.5763","longitude_centre":"-0.5594","distance_km":5.84},{"id":0,"code_insee":"17122","nom_standard":"Coulonges","nom_a":null,"nom_de":null,"slug_ville":"coulonges","departement_id":0,"code_postal":"17800","population":222,"superficie_km2":"926.27","latitude_centre":"45.6091","longitude_centre":"-0.4324","distance_km":6.16},{"id":0,"code_insee":"17398","nom_standard":"Saint-Seurin-de-Palenne","nom_a":null,"nom_de":null,"slug_ville":"saint-seurin-de-palenne","departement_id":0,"code_postal":"17800","population":167,"superficie_km2":"398.91","latitude_centre":"45.6224","longitude_centre":"-0.5145","distance_km":6.47},{"id":0,"code_insee":"17343","nom_standard":"Saint-Grégoire-d'Ardennes","nom_a":null,"nom_de":null,"slug_ville":"saint-gregoire-d-ardennes","departement_id":0,"code_postal":"17240","population":143,"superficie_km2":"355.14","latitude_centre":"45.5115","longitude_centre":"-0.51","distance_km":6.56},{"id":0,"code_insee":"17192","nom_standard":"Jarnac-Champagne","nom_a":null,"nom_de":null,"slug_ville":"jarnac-champagne","departement_id":0,"code_postal":"17520","population":878,"superficie_km2":"2179.16","latitude_centre":"45.5549","longitude_centre":"-0.401","distance_km":6.73},{"id":14422,"code_insee":"17039","nom_standard":"Belluire","nom_a":null,"nom_de":null,"slug_ville":"belluire","departement_id":0,"code_postal":"17800","population":214,"superficie_km2":"451.27","latitude_centre":"45.5282","longitude_centre":"-0.5582","distance_km":7.19},{"id":0,"code_insee":"17209","nom_standard":"Lonzac","nom_a":null,"nom_de":null,"slug_ville":"lonzac","departement_id":0,"code_postal":"17520","population":267,"superficie_km2":"627.70","latitude_centre":"45.5917","longitude_centre":"-0.3955","distance_km":7.48},{"id":0,"code_insee":"17259","nom_standard":"Neulles","nom_a":null,"nom_de":null,"slug_ville":"neulles","departement_id":0,"code_postal":"17500","population":165,"superficie_km2":"584.47","latitude_centre":"45.5107","longitude_centre":"-0.4294","distance_km":7.71},{"id":0,"code_insee":"17273","nom_standard":"Pérignac","nom_a":null,"nom_de":null,"slug_ville":"perignac","departement_id":0,"code_postal":"17800","population":965,"superficie_km2":"2769.96","latitude_centre":"45.6363","longitude_centre":"-0.4607","distance_km":7.84},{"id":0,"code_insee":"17250","nom_standard":"Mosnac","nom_a":null,"nom_de":null,"slug_ville":"mosnac","departement_id":0,"code_postal":"17240","population":494,"superficie_km2":"1273.58","latitude_centre":"45.5042","longitude_centre":"-0.539","distance_km":8.22},{"id":0,"code_insee":"17332","nom_standard":"Saint-Georges-Antignac","nom_a":null,"nom_de":null,"slug_ville":"saint-georges-antignac","departement_id":0,"code_postal":"17240","population":416,"superficie_km2":"1021.41","latitude_centre":"45.49","longitude_centre":"-0.4846","distance_km":8.66},{"id":0,"code_insee":"17108","nom_standard":"Clam","nom_a":null,"nom_de":null,"slug_ville":"clam","departement_id":0,"code_postal":"17500","population":418,"superficie_km2":"696.31","latitude_centre":"45.4928","longitude_centre":"-0.4425","distance_km":8.99},{"id":0,"code_insee":"17242","nom_standard":"Montils","nom_a":null,"nom_de":null,"slug_ville":"montils","departement_id":0,"code_postal":"17800","population":867,"superficie_km2":"2389.39","latitude_centre":"45.6576","longitude_centre":"-0.5083","distance_km":10.13},{"id":0,"code_insee":"17111","nom_standard":"Clion","nom_a":null,"nom_de":null,"slug_ville":"clion","departement_id":0,"code_postal":"17240","population":843,"superficie_km2":"1597.74","latitude_centre":"45.473","longitude_centre":"-0.5096","distance_km":10.72}]}