{"ville":{"id":26301,"code_insee":"59083","nom_standard":"Bissezeele","nom_a":null,"nom_de":null,"slug_ville":"bissezeele","departement_id":0,"code_postal":"59380","population":239,"superficie_km2":"358.28","latitude_centre":"50.9128","longitude_centre":"2.4058","dep_code":"59","dep_nom":"Nord","dep_slug":"nord","reg_code":"32","reg_nom":"Hauts-de-France","reg_slug":"hauts-de-france"},"departement":{"code":"59","nom":"Nord","slug":"nord"},"region":{"code":"32","nom":"Hauts-de-France","slug":"hauts-de-france"},"villes_proches":[{"id":0,"code_insee":"59162","nom_standard":"Crochte","nom_a":null,"nom_de":null,"slug_ville":"crochte","departement_id":0,"code_postal":"59380","population":659,"superficie_km2":"785.29","latitude_centre":"50.9196","longitude_centre":"2.395","distance_km":1.07},{"id":0,"code_insee":"59570","nom_standard":"Socx","nom_a":null,"nom_de":null,"slug_ville":"socx","departement_id":0,"code_postal":"59380","population":869,"superficie_km2":"802.32","latitude_centre":"50.9372","longitude_centre":"2.4215","distance_km":2.93},{"id":0,"code_insee":"59210","nom_standard":"Esquelbecq","nom_a":null,"nom_de":null,"slug_ville":"esquelbecq","departement_id":0,"code_postal":"59470","population":2137,"superficie_km2":"1225.63","latitude_centre":"50.89","longitude_centre":"2.4276","distance_km":2.96},{"id":0,"code_insee":"59666","nom_standard":"Zegerscappel","nom_a":null,"nom_de":null,"slug_ville":"zegerscappel","departement_id":0,"code_postal":"59470","population":1562,"superficie_km2":"1747.71","latitude_centre":"50.8826","longitude_centre":"2.3848","distance_km":3.67},{"id":0,"code_insee":"59478","nom_standard":"Quaëdypre","nom_a":null,"nom_de":null,"slug_ville":"quaedypre","departement_id":0,"code_postal":"59380","population":1108,"superficie_km2":"1876.60","latitude_centre":"50.9378","longitude_centre":"2.4626","distance_km":4.86},{"id":0,"code_insee":"59579","nom_standard":"Steene","nom_a":null,"nom_de":null,"slug_ville":"steene","departement_id":0,"code_postal":"59380","population":1405,"superficie_km2":"1030.48","latitude_centre":"50.9517","longitude_centre":"2.3702","distance_km":4.99},{"id":0,"code_insee":"59463","nom_standard":"Pitgam","nom_a":null,"nom_de":null,"slug_ville":"pitgam","departement_id":0,"code_postal":"59284","population":1007,"superficie_km2":"2332.59","latitude_centre":"50.9304","longitude_centre":"2.338","distance_km":5.14},{"id":0,"code_insee":"59665","nom_standard":"Wylder","nom_a":null,"nom_de":null,"slug_ville":"wylder","departement_id":0,"code_postal":"59380","population":298,"superficie_km2":"255.90","latitude_centre":"50.9106","longitude_centre":"2.4863","distance_km":5.65},{"id":0,"code_insee":"59182","nom_standard":"Drincham","nom_a":null,"nom_de":null,"slug_ville":"drincham","departement_id":0,"code_postal":"59630","population":281,"superficie_km2":"337.11","latitude_centre":"50.9103","longitude_centre":"2.3199","distance_km":6.03},{"id":0,"code_insee":"59338","nom_standard":"Ledringhem","nom_a":null,"nom_de":null,"slug_ville":"ledringhem","departement_id":0,"code_postal":"59470","population":611,"superficie_km2":"702.42","latitude_centre":"50.8609","longitude_centre":"2.4456","distance_km":6.41},{"id":0,"code_insee":"59067","nom_standard":"Bergues","nom_a":null,"nom_de":null,"slug_ville":"bergues","departement_id":0,"code_postal":"59380","population":3525,"superficie_km2":"133.94","latitude_centre":"50.969","longitude_centre":"2.4342","distance_km":6.56},{"id":0,"code_insee":"59082","nom_standard":"Bierne","nom_a":null,"nom_de":null,"slug_ville":"bierne","departement_id":0,"code_postal":"59380","population":1716,"superficie_km2":"1106.76","latitude_centre":"50.972","longitude_centre":"2.4032","distance_km":6.59},{"id":0,"code_insee":"59663","nom_standard":"Wormhout","nom_a":null,"nom_de":null,"slug_ville":"wormhout","departement_id":0,"code_postal":"59470","population":5584,"superficie_km2":"2736.81","latitude_centre":"50.8749","longitude_centre":"2.4813","distance_km":6.77},{"id":0,"code_insee":"59089","nom_standard":"Bollezeele","nom_a":null,"nom_de":null,"slug_ville":"bollezeele","departement_id":0,"code_postal":"59470","population":1445,"superficie_km2":"1758.52","latitude_centre":"50.8624","longitude_centre":"2.345","distance_km":7.04},{"id":0,"code_insee":"59319","nom_standard":"Hoymille","nom_a":null,"nom_de":null,"slug_ville":"hoymille","departement_id":0,"code_postal":"59492","population":3259,"superficie_km2":"554.01","latitude_centre":"50.9744","longitude_centre":"2.4543","distance_km":7.65},{"id":0,"code_insee":"59018","nom_standard":"Arnèke","nom_a":null,"nom_de":null,"slug_ville":"arneke","departement_id":0,"code_postal":"59285","population":1594,"superficie_km2":"1341.02","latitude_centre":"50.8409","longitude_centre":"2.4188","distance_km":8.05},{"id":0,"code_insee":"59016","nom_standard":"Armbouts-Cappel","nom_a":null,"nom_de":null,"slug_ville":"armbouts-cappel","departement_id":0,"code_postal":"59380","population":2077,"superficie_km2":"1017.36","latitude_centre":"50.9823","longitude_centre":"2.3506","distance_km":8.64},{"id":0,"code_insee":"59516","nom_standard":"Rubrouck","nom_a":null,"nom_de":null,"slug_ville":"rubrouck","departement_id":0,"code_postal":"59285","population":899,"superficie_km2":"1496.99","latitude_centre":"50.8346","longitude_centre":"2.3617","distance_km":9.23},{"id":0,"code_insee":"59131","nom_standard":"Cappelle-la-Grande","nom_a":null,"nom_de":null,"slug_ville":"cappelle-la-grande","departement_id":0,"code_postal":"59180","population":7839,"superficie_km2":"547.73","latitude_centre":"50.9953","longitude_centre":"2.3716","distance_km":9.48},{"id":0,"code_insee":"59443","nom_standard":"Ochtezeele","nom_a":null,"nom_de":null,"slug_ville":"ochtezeele","departement_id":0,"code_postal":"59670","population":351,"superficie_km2":"561.58","latitude_centre":"50.8215","longitude_centre":"2.3985","distance_km":10.17}]}