{"ville":{"id":6642,"code_insee":"64132","nom_standard":"Bizanos","nom_a":null,"nom_de":null,"slug_ville":"bizanos","departement_id":665,"code_postal":"64320","population":4548,"superficie_km2":"4.00","latitude_centre":"43.2919998","longitude_centre":"-0.3370000","dep_code":"64","dep_nom":"Pyrénées-Atlantiques","dep_slug":"pyrenees-atlantiques","reg_code":"15","reg_nom":"Nouvelle-Aquitaine","reg_slug":"nouvelle-aquitaine"},"departement":{"code":"64","nom":"Pyrénées-Atlantiques","slug":"pyrenees-atlantiques"},"region":{"code":"15","nom":"Nouvelle-Aquitaine","slug":"nouvelle-aquitaine"},"villes_proches":[{"id":6680,"code_insee":"64373","nom_standard":"Mazères-Lezons","nom_a":null,"nom_de":null,"slug_ville":"mazeres-lezons","departement_id":665,"code_postal":"64110","population":1818,"superficie_km2":"4.00","latitude_centre":"43.2729988","longitude_centre":"-0.3550000","distance_km":2.57},{"id":6664,"code_insee":"64269","nom_standard":"Idron","nom_a":null,"nom_de":null,"slug_ville":"idron","departement_id":665,"code_postal":"64320","population":4913,"superficie_km2":"8.00","latitude_centre":"43.2980003","longitude_centre":"-0.3060000","distance_km":2.6},{"id":6698,"code_insee":"64445","nom_standard":"Pau","nom_a":null,"nom_de":null,"slug_ville":"pau","departement_id":665,"code_postal":"64000","population":77066,"superficie_km2":"32.00","latitude_centre":"43.3199997","longitude_centre":"-0.3500000","distance_km":3.29},{"id":6675,"code_insee":"64329","nom_standard":"Lée","nom_a":null,"nom_de":null,"slug_ville":"lee","departement_id":665,"code_postal":"64320","population":1261,"superficie_km2":"3.00","latitude_centre":"43.2910004","longitude_centre":"-0.2870000","distance_km":4.05},{"id":6640,"code_insee":"64129","nom_standard":"Billère","nom_a":null,"nom_de":null,"slug_ville":"billere","departement_id":665,"code_postal":"64140","population":13866,"superficie_km2":"4.00","latitude_centre":"43.3040009","longitude_centre":"-0.3940000","distance_km":4.8},{"id":6658,"code_insee":"64237","nom_standard":"Gelos","nom_a":null,"nom_de":null,"slug_ville":"gelos","departement_id":665,"code_postal":"64110","population":3609,"superficie_km2":"11.00","latitude_centre":"43.2560005","longitude_centre":"-0.3700000","distance_km":4.81},{"id":6629,"code_insee":"64067","nom_standard":"Assat","nom_a":null,"nom_de":null,"slug_ville":"assat","departement_id":665,"code_postal":"64510","population":2042,"superficie_km2":"9.00","latitude_centre":"43.2579994","longitude_centre":"-0.2880000","distance_km":5.48},{"id":6697,"code_insee":"64439","nom_standard":"Ousse","nom_a":null,"nom_de":null,"slug_ville":"ousse","departement_id":665,"code_postal":"64320","population":1663,"superficie_km2":"5.00","latitude_centre":"43.2789993","longitude_centre":"-0.2670000","distance_km":5.85},{"id":6712,"code_insee":"64518","nom_standard":"Sendets","nom_a":null,"nom_de":null,"slug_ville":"sendets","departement_id":665,"code_postal":"64320","population":1148,"superficie_km2":"8.00","latitude_centre":"43.3019981","longitude_centre":"-0.2660000","distance_km":5.85},{"id":6667,"code_insee":"64284","nom_standard":"Jurançon","nom_a":null,"nom_de":null,"slug_ville":"jurancon","departement_id":665,"code_postal":"64110","population":7064,"superficie_km2":"19.00","latitude_centre":"43.2700005","longitude_centre":"-0.4070000","distance_km":6.17},{"id":6677,"code_insee":"64348","nom_standard":"Lons","nom_a":null,"nom_de":null,"slug_ville":"lons","departement_id":665,"code_postal":"64140","population":13915,"superficie_km2":"12.00","latitude_centre":"43.3209992","longitude_centre":"-0.4020000","distance_km":6.17},{"id":6647,"code_insee":"64152","nom_standard":"Buros","nom_a":null,"nom_de":null,"slug_ville":"buros","departement_id":665,"code_postal":"64160","population":1964,"superficie_km2":"14.00","latitude_centre":"43.3460007","longitude_centre":"-0.3160000","distance_km":6.24},{"id":6687,"code_insee":"64405","nom_standard":"Morlaàs","nom_a":null,"nom_de":null,"slug_ville":"morlaas","departement_id":665,"code_postal":"64160","population":4360,"superficie_km2":"13.00","latitude_centre":"43.3349991","longitude_centre":"-0.2680000","distance_km":7.35},{"id":6644,"code_insee":"64138","nom_standard":"Bordes","nom_a":null,"nom_de":null,"slug_ville":"bordes","departement_id":665,"code_postal":"64510","population":2885,"superficie_km2":"7.00","latitude_centre":"43.2439995","longitude_centre":"-0.2730000","distance_km":7.44},{"id":6623,"code_insee":"64059","nom_standard":"Artigueloutan","nom_a":null,"nom_de":null,"slug_ville":"artigueloutan","departement_id":665,"code_postal":"64420","population":1093,"superficie_km2":"8.00","latitude_centre":"43.2719994","longitude_centre":"-0.2440000","distance_km":7.85},{"id":6670,"code_insee":"64315","nom_standard":"Laroin","nom_a":null,"nom_de":null,"slug_ville":"laroin","departement_id":665,"code_postal":"64110","population":1061,"superficie_km2":"7.00","latitude_centre":"43.2970009","longitude_centre":"-0.4370000","distance_km":8.11},{"id":6685,"code_insee":"64399","nom_standard":"Montardon","nom_a":null,"nom_de":null,"slug_ville":"montardon","departement_id":665,"code_postal":"64121","population":2392,"superficie_km2":"8.00","latitude_centre":"43.3650017","longitude_centre":"-0.3500000","distance_km":8.19},{"id":6676,"code_insee":"64335","nom_standard":"Lescar","nom_a":null,"nom_de":null,"slug_ville":"lescar","departement_id":665,"code_postal":"64230","population":9524,"superficie_km2":"27.00","latitude_centre":"43.3400002","longitude_centre":"-0.4280000","distance_km":9.09},{"id":6643,"code_insee":"64133","nom_standard":"Boeil-Bezing","nom_a":null,"nom_de":null,"slug_ville":"boeil-bezing","departement_id":665,"code_postal":"64510","population":1336,"superficie_km2":"9.00","latitude_centre":"43.2280006","longitude_centre":"-0.2510000","distance_km":9.96},{"id":6693,"code_insee":"64419","nom_standard":"Nousty","nom_a":null,"nom_de":null,"slug_ville":"nousty","departement_id":665,"code_postal":"64420","population":1592,"superficie_km2":"10.00","latitude_centre":"43.2649994","longitude_centre":"-0.2190000","distance_km":10.01}]}