{"ville":{"id":4982,"code_insee":"51612","nom_standard":"Blancs-Coteaux","nom_a":null,"nom_de":null,"slug_ville":"blancs-coteaux","departement_id":652,"code_postal":"51130","population":3182,"superficie_km2":"36.00","latitude_centre":"48.9080010","longitude_centre":"3.9800000","dep_code":"51","dep_nom":"Marne","dep_slug":"marne","reg_code":"06","reg_nom":"Grand Est","reg_slug":"grand-est"},"departement":{"code":"51","nom":"Marne","slug":"marne"},"region":{"code":"06","nom":"Grand Est","slug":"grand-est"},"villes_proches":[{"id":4958,"code_insee":"51367","nom_standard":"Le Mesnil-sur-Oger","nom_a":null,"nom_de":null,"slug_ville":"le-mesnil-sur-oger","departement_id":652,"code_postal":"51190","population":1007,"superficie_km2":"8.00","latitude_centre":"48.9389992","longitude_centre":"4.0200000","distance_km":4.52},{"id":4923,"code_insee":"51029","nom_standard":"Avize","nom_a":null,"nom_de":null,"slug_ville":"avize","departement_id":652,"code_postal":"51190","population":1760,"superficie_km2":"8.00","latitude_centre":"48.9729996","longitude_centre":"4.0050001","distance_km":7.45},{"id":4934,"code_insee":"51153","nom_standard":"Chouilly","nom_a":null,"nom_de":null,"slug_ville":"chouilly","departement_id":652,"code_postal":"51530","population":1049,"superficie_km2":"16.00","latitude_centre":"49.0180016","longitude_centre":"4.0040002","distance_km":12.36},{"id":4963,"code_insee":"51431","nom_standard":"Pierry","nom_a":null,"nom_de":null,"slug_ville":"pierry","departement_id":652,"code_postal":"51530","population":1237,"superficie_km2":"5.00","latitude_centre":"49.0190010","longitude_centre":"3.9489999","distance_km":12.55},{"id":4944,"code_insee":"51230","nom_standard":"Épernay","nom_a":null,"nom_de":null,"slug_ville":"epernay","departement_id":652,"code_postal":"51200","population":22001,"superficie_km2":"23.00","latitude_centre":"49.0369988","longitude_centre":"3.9310000","distance_km":14.78},{"id":4921,"code_insee":"51002","nom_standard":"Saint-Martin-d'Ablois","nom_a":null,"nom_de":null,"slug_ville":"saint-martin-d-ablois","departement_id":652,"code_postal":"51530","population":1374,"superficie_km2":"22.00","latitude_centre":"49.0120010","longitude_centre":"3.8399999","distance_km":15.43},{"id":4947,"code_insee":"51248","nom_standard":"Fère-Champenoise","nom_a":null,"nom_de":null,"slug_ville":"fere-champenoise","departement_id":652,"code_postal":"51230","population":2170,"superficie_km2":"66.00","latitude_centre":"48.7709999","longitude_centre":"4.0170002","distance_km":15.47},{"id":4987,"code_insee":"51663","nom_standard":"Magenta","nom_a":null,"nom_de":null,"slug_ville":"magenta","departement_id":652,"code_postal":"51530","population":1693,"superficie_km2":"1.00","latitude_centre":"49.0559998","longitude_centre":"3.9660001","distance_km":16.49},{"id":4956,"code_insee":"51344","nom_standard":"Mardeuil","nom_a":null,"nom_de":null,"slug_ville":"mardeuil","departement_id":652,"code_postal":"51530","population":1469,"superficie_km2":"9.00","latitude_centre":"49.0550003","longitude_centre":"3.9230001","distance_km":16.87},{"id":4924,"code_insee":"51030","nom_standard":"Aÿ-Champagne","nom_a":null,"nom_de":null,"slug_ville":"ay-champagne","departement_id":652,"code_postal":"51160","population":5197,"superficie_km2":"11.00","latitude_centre":"49.0629997","longitude_centre":"3.9970000","distance_km":17.28},{"id":4942,"code_insee":"51210","nom_standard":"Dizy","nom_a":null,"nom_de":null,"slug_ville":"dizy","departement_id":652,"code_postal":"51530","population":1489,"superficie_km2":"3.00","latitude_centre":"49.0699997","longitude_centre":"3.9710000","distance_km":18.03},{"id":4981,"code_insee":"51576","nom_standard":"Tours-sur-Marne","nom_a":null,"nom_de":null,"slug_ville":"tours-sur-marne","departement_id":652,"code_postal":"51150","population":1383,"superficie_km2":"23.00","latitude_centre":"49.0519981","longitude_centre":"4.1290002","distance_km":19.36},{"id":4936,"code_insee":"51165","nom_standard":"Connantre","nom_a":null,"nom_de":null,"slug_ville":"connantre","departement_id":652,"code_postal":"51230","population":1017,"superficie_km2":"28.00","latitude_centre":"48.7379990","longitude_centre":"3.9119999","distance_km":19.55},{"id":4941,"code_insee":"51204","nom_standard":"Damery","nom_a":null,"nom_de":null,"slug_ville":"damery","departement_id":652,"code_postal":"51480","population":1335,"superficie_km2":"15.00","latitude_centre":"49.0800018","longitude_centre":"3.8780000","distance_km":20.52},{"id":4946,"code_insee":"51242","nom_standard":"Fagnières","nom_a":null,"nom_de":null,"slug_ville":"fagnieres","departement_id":652,"code_postal":"51510","population":4877,"superficie_km2":"20.00","latitude_centre":"48.9459992","longitude_centre":"4.3090000","distance_km":24.4},{"id":4957,"code_insee":"51346","nom_standard":"Mareuil-le-Port","nom_a":null,"nom_de":null,"slug_ville":"mareuil-le-port","departement_id":652,"code_postal":"51700","population":1151,"superficie_km2":"9.00","latitude_centre":"49.0740013","longitude_centre":"3.7440000","distance_km":25.24},{"id":4935,"code_insee":"51160","nom_standard":"Compertrix","nom_a":null,"nom_de":null,"slug_ville":"compertrix","departement_id":652,"code_postal":"51510","population":1329,"superficie_km2":"5.00","latitude_centre":"48.9280014","longitude_centre":"4.3260002","distance_km":25.38},{"id":4966,"code_insee":"51453","nom_standard":"Recy","nom_a":null,"nom_de":null,"slug_ville":"recy","departement_id":652,"code_postal":"51520","population":1060,"superficie_km2":"14.00","latitude_centre":"48.9990006","longitude_centre":"4.3230000","distance_km":27.01},{"id":4976,"code_insee":"51535","nom_standard":"Sézanne","nom_a":null,"nom_de":null,"slug_ville":"sezanne","departement_id":652,"code_postal":"51120","population":4783,"superficie_km2":"23.00","latitude_centre":"48.7239990","longitude_centre":"3.7240000","distance_km":27.75},{"id":4968,"code_insee":"51461","nom_standard":"Rilly-la-Montagne","nom_a":null,"nom_de":null,"slug_ville":"rilly-la-montagne","departement_id":652,"code_postal":"51500","population":1014,"superficie_km2":"9.00","latitude_centre":"49.1629982","longitude_centre":"4.0460000","distance_km":28.76}]}