{"ville":{"id":21847,"code_insee":"43033","nom_standard":"Blesle","nom_a":null,"nom_de":null,"slug_ville":"blesle","departement_id":0,"code_postal":"43450","population":611,"superficie_km2":"2990.19","latitude_centre":"45.3107","longitude_centre":"3.1762","dep_code":"43","dep_nom":"Haute-Loire","dep_slug":"haute-loire","reg_code":"84","reg_nom":"Auvergne-Rhône-Alpes","reg_slug":"auvergne-rhone-alpes"},"departement":{"code":"43","nom":"Haute-Loire","slug":"haute-loire"},"region":{"code":"84","nom":"Auvergne-Rhône-Alpes","slug":"auvergne-rhone-alpes"},"villes_proches":[{"id":0,"code_insee":"43103","nom_standard":"Grenier-Montgon","nom_a":null,"nom_de":null,"slug_ville":"grenier-montgon","departement_id":0,"code_postal":"43450","population":112,"superficie_km2":"512.60","latitude_centre":"45.2864","longitude_centre":"3.2123","distance_km":3.91},{"id":0,"code_insee":"43182","nom_standard":"Saint-Étienne-sur-Blesle","nom_a":null,"nom_de":null,"slug_ville":"saint-etienne-sur-blesle","departement_id":0,"code_postal":"43450","population":53,"superficie_km2":"1795.08","latitude_centre":"45.3064","longitude_centre":"3.1243","distance_km":4.09},{"id":21833,"code_insee":"43014","nom_standard":"Autrac","nom_a":null,"nom_de":null,"slug_ville":"autrac","departement_id":0,"code_postal":"43450","population":50,"superficie_km2":"846.48","latitude_centre":"45.335","longitude_centre":"3.1282","distance_km":4.62},{"id":0,"code_insee":"43247","nom_standard":"Torsiac","nom_a":null,"nom_de":null,"slug_ville":"torsiac","departement_id":0,"code_postal":"43450","population":62,"superficie_km2":"918.44","latitude_centre":"45.3509","longitude_centre":"3.1982","distance_km":4.79},{"id":0,"code_insee":"43088","nom_standard":"Espalem","nom_a":null,"nom_de":null,"slug_ville":"espalem","departement_id":0,"code_postal":"43450","population":329,"superficie_km2":"1472.19","latitude_centre":"45.3067","longitude_centre":"3.2376","distance_km":4.82},{"id":0,"code_insee":"43121","nom_standard":"Léotoing","nom_a":null,"nom_de":null,"slug_ville":"leotoing","departement_id":0,"code_postal":"43410","population":226,"superficie_km2":"1974.89","latitude_centre":"45.3502","longitude_centre":"3.242","distance_km":6.76},{"id":0,"code_insee":"43123","nom_standard":"Lorlanges","nom_a":null,"nom_de":null,"slug_ville":"lorlanges","departement_id":0,"code_postal":"43360","population":425,"superficie_km2":"1463.59","latitude_centre":"45.3249","longitude_centre":"3.261","distance_km":6.82},{"id":13893,"code_insee":"15013","nom_standard":"Auriac-l'Église","nom_a":null,"nom_de":null,"slug_ville":"auriac-l-eglise","departement_id":0,"code_postal":"15500","population":141,"superficie_km2":"2002.66","latitude_centre":"45.2663","longitude_centre":"3.1156","distance_km":6.84},{"id":13973,"code_insee":"15105","nom_standard":"Leyvaux","nom_a":null,"nom_de":null,"slug_ville":"leyvaux","departement_id":0,"code_postal":"43450","population":37,"superficie_km2":"1491.76","latitude_centre":"45.3272","longitude_centre":"3.086","distance_km":7.29},{"id":0,"code_insee":"15119","nom_standard":"Massiac","nom_a":null,"nom_de":null,"slug_ville":"massiac","departement_id":0,"code_postal":"15500","population":1796,"superficie_km2":"3479.96","latitude_centre":"45.2439","longitude_centre":"3.1954","distance_km":7.58},{"id":13967,"code_insee":"15098","nom_standard":"Laurie","nom_a":null,"nom_de":null,"slug_ville":"laurie","departement_id":0,"code_postal":"15500","population":84,"superficie_km2":"1938.21","latitude_centre":"45.284","longitude_centre":"3.0853","distance_km":7.7},{"id":0,"code_insee":"63007","nom_standard":"Apchat","nom_a":null,"nom_de":null,"slug_ville":"apchat","departement_id":0,"code_postal":"63420","population":162,"superficie_km2":"3677.91","latitude_centre":"45.3787","longitude_centre":"3.1488","distance_km":7.86},{"id":0,"code_insee":"43170","nom_standard":"Saint-Beauzire","nom_a":null,"nom_de":null,"slug_ville":"saint-beauzire","departement_id":0,"code_postal":"43100","population":457,"superficie_km2":"2362.96","latitude_centre":"45.2734","longitude_centre":"3.2776","distance_km":8.95},{"id":0,"code_insee":"43050","nom_standard":"Chambezon","nom_a":null,"nom_de":null,"slug_ville":"chambezon","departement_id":0,"code_postal":"43410","population":125,"superficie_km2":"514.77","latitude_centre":"45.3821","longitude_centre":"3.2393","distance_km":9.35},{"id":0,"code_insee":"43125","nom_standard":"Lubilhac","nom_a":null,"nom_de":null,"slug_ville":"lubilhac","departement_id":0,"code_postal":"43100","population":105,"superficie_km2":"2423.04","latitude_centre":"45.2459","longitude_centre":"3.2564","distance_km":9.55},{"id":13990,"code_insee":"15127","nom_standard":"Molompize","nom_a":null,"nom_de":null,"slug_ville":"molompize","departement_id":0,"code_postal":"15500","population":270,"superficie_km2":"1756.73","latitude_centre":"45.2276","longitude_centre":"3.1284","distance_km":9.97},{"id":0,"code_insee":"63356","nom_standard":"Saint-Gervazy","nom_a":null,"nom_de":null,"slug_ville":"saint-gervazy","departement_id":0,"code_postal":"63340","population":340,"superficie_km2":"1434.94","latitude_centre":"45.3998","longitude_centre":"3.2102","distance_km":10.26},{"id":0,"code_insee":"63009","nom_standard":"Ardes","nom_a":null,"nom_de":null,"slug_ville":"ardes","departement_id":0,"code_postal":"63420","population":592,"superficie_km2":"1663.30","latitude_centre":"45.3978","longitude_centre":"3.127","distance_km":10.42},{"id":13901,"code_insee":"15022","nom_standard":"Bonnac","nom_a":null,"nom_de":null,"slug_ville":"bonnac","departement_id":0,"code_postal":"15500","population":158,"superficie_km2":"2258.37","latitude_centre":"45.2114","longitude_centre":"3.1438","distance_km":11.33},{"id":0,"code_insee":"63017","nom_standard":"Augnat","nom_a":null,"nom_de":null,"slug_ville":"augnat","departement_id":0,"code_postal":"63340","population":183,"superficie_km2":"958.58","latitude_centre":"45.4129","longitude_centre":"3.1789","distance_km":11.37}]}