{"ville":{"id":31670,"code_insee":"76113","nom_standard":"Boissay","nom_a":null,"nom_de":null,"slug_ville":"boissay","departement_id":0,"code_postal":"76750","population":429,"superficie_km2":"666.74","latitude_centre":"49.5191","longitude_centre":"1.3602","dep_code":"76","dep_nom":"Seine-Maritime","dep_slug":"seine-maritime","reg_code":"28","reg_nom":"Normandie","reg_slug":"normandie"},"departement":{"code":"76","nom":"Seine-Maritime","slug":"seine-maritime"},"region":{"code":"28","nom":"Normandie","slug":"normandie"},"villes_proches":[{"id":0,"code_insee":"76554","nom_standard":"Saint-Aignan-sur-Ry","nom_a":null,"nom_de":null,"slug_ville":"saint-aignan-sur-ry","departement_id":0,"code_postal":"76116","population":341,"superficie_km2":"793.34","latitude_centre":"49.4976","longitude_centre":"1.3488","distance_km":2.53},{"id":0,"code_insee":"76163","nom_standard":"Catenay","nom_a":null,"nom_de":null,"slug_ville":"catenay","departement_id":0,"code_postal":"76116","population":702,"superficie_km2":"587.65","latitude_centre":"49.5102","longitude_centre":"1.3279","distance_km":2.53},{"id":0,"code_insee":"76243","nom_standard":"Ernemont-sur-Buchy","nom_a":null,"nom_de":null,"slug_ville":"ernemont-sur-buchy","departement_id":0,"code_postal":"76750","population":291,"superficie_km2":"406.38","latitude_centre":"49.5421","longitude_centre":"1.3607","distance_km":2.56},{"id":0,"code_insee":"76521","nom_standard":"Rebets","nom_a":null,"nom_de":null,"slug_ville":"rebets","departement_id":0,"code_postal":"76750","population":147,"superficie_km2":"369.72","latitude_centre":"49.5124","longitude_centre":"1.3957","distance_km":2.67},{"id":0,"code_insee":"76359","nom_standard":"Héronchelles","nom_a":null,"nom_de":null,"slug_ville":"heronchelles","departement_id":0,"code_postal":"76750","population":149,"superficie_km2":"668.13","latitude_centre":"49.5385","longitude_centre":"1.3823","distance_km":2.68},{"id":0,"code_insee":"76581","nom_standard":"Saint-Germain-des-Essourts","nom_a":null,"nom_de":null,"slug_ville":"saint-germain-des-essourts","departement_id":0,"code_postal":"76750","population":380,"superficie_km2":"926.58","latitude_centre":"49.5368","longitude_centre":"1.3158","distance_km":3.76},{"id":31665,"code_insee":"76107","nom_standard":"Bois-Guilbert","nom_a":null,"nom_de":null,"slug_ville":"bois-guilbert","departement_id":0,"code_postal":"76750","population":289,"superficie_km2":"809.92","latitude_centre":"49.5389","longitude_centre":"1.4155","distance_km":4.56},{"id":0,"code_insee":"76230","nom_standard":"Elbeuf-sur-Andelle","nom_a":null,"nom_de":null,"slug_ville":"elbeuf-sur-andelle","departement_id":0,"code_postal":"76780","population":431,"superficie_km2":"597.96","latitude_centre":"49.4788","longitude_centre":"1.3824","distance_km":4.76},{"id":0,"code_insee":"76571","nom_standard":"Sainte-Croix-sur-Buchy","nom_a":null,"nom_de":null,"slug_ville":"sainte-croix-sur-buchy","departement_id":0,"code_postal":"76750","population":661,"superficie_km2":"1373.03","latitude_centre":"49.5625","longitude_centre":"1.3458","distance_km":4.94},{"id":0,"code_insee":"76455","nom_standard":"Morville-le-Héron","nom_a":null,"nom_de":null,"slug_ville":"morville-le-heron","departement_id":0,"code_postal":"76780","population":538,"superficie_km2":"1595.94","latitude_centre":"49.49","longitude_centre":"1.412","distance_km":4.95},{"id":0,"code_insee":"76171","nom_standard":"La Chapelle-Saint-Ouen","nom_a":null,"nom_de":null,"slug_ville":"la-chapelle-saint-ouen","departement_id":0,"code_postal":"76780","population":147,"superficie_km2":"787.57","latitude_centre":"49.5197","longitude_centre":"1.4297","distance_km":5.02},{"id":0,"code_insee":"76100","nom_standard":"Blainville-Crevon","nom_a":null,"nom_de":null,"slug_ville":"blainville-crevon","departement_id":0,"code_postal":"76116","population":1226,"superficie_km2":"1476.48","latitude_centre":"49.5071","longitude_centre":"1.293","distance_km":5.03},{"id":0,"code_insee":"76548","nom_standard":"Ry","nom_a":null,"nom_de":null,"slug_ville":"ry","departement_id":0,"code_postal":"76116","population":787,"superficie_km2":"574.61","latitude_centre":"49.4736","longitude_centre":"1.3357","distance_km":5.36},{"id":0,"code_insee":"76396","nom_standard":"Longuerue","nom_a":null,"nom_de":null,"slug_ville":"longuerue","departement_id":0,"code_postal":"76750","population":346,"superficie_km2":"545.13","latitude_centre":"49.545","longitude_centre":"1.2853","distance_km":6.12},{"id":0,"code_insee":"76573","nom_standard":"Saint-Denis-le-Thiboult","nom_a":null,"nom_de":null,"slug_ville":"saint-denis-le-thiboult","departement_id":0,"code_postal":"76116","population":502,"superficie_km2":"1037.63","latitude_centre":"49.4601","longitude_centre":"1.3545","distance_km":6.57},{"id":31666,"code_insee":"76109","nom_standard":"Bois-Héroult","nom_a":null,"nom_de":null,"slug_ville":"bois-heroult","departement_id":0,"code_postal":"76750","population":167,"superficie_km2":"647.67","latitude_centre":"49.5691","longitude_centre":"1.4093","distance_km":6.59},{"id":0,"code_insee":"76316","nom_standard":"Grainville-sur-Ry","nom_a":null,"nom_de":null,"slug_ville":"grainville-sur-ry","departement_id":0,"code_postal":"76116","population":438,"superficie_km2":"544.30","latitude_centre":"49.4728","longitude_centre":"1.3003","distance_km":6.72},{"id":0,"code_insee":"76201","nom_standard":"Croisy-sur-Andelle","nom_a":null,"nom_de":null,"slug_ville":"croisy-sur-andelle","departement_id":0,"code_postal":"76780","population":516,"superficie_km2":"374.57","latitude_centre":"49.46","longitude_centre":"1.4085","distance_km":7.44},{"id":0,"code_insee":"76146","nom_standard":"Buchy","nom_a":null,"nom_de":null,"slug_ville":"buchy","departement_id":0,"code_postal":"76750","population":2815,"superficie_km2":"2634.89","latitude_centre":"49.5859","longitude_centre":"1.3394","distance_km":7.58},{"id":17784,"code_insee":"27672","nom_standard":"Vascœuil","nom_a":null,"nom_de":null,"slug_ville":"vascoeuil","departement_id":0,"code_postal":"27910","population":306,"superficie_km2":"746.29","latitude_centre":"49.4485","longitude_centre":"1.3793","distance_km":7.97}]}