{"ville":{"id":19170,"code_insee":"32059","nom_standard":"Bonas","nom_a":null,"nom_de":null,"slug_ville":"bonas","departement_id":0,"code_postal":"32410","population":106,"superficie_km2":"1014.86","latitude_centre":"43.7808","longitude_centre":"0.4068","dep_code":"32","dep_nom":"Gers","dep_slug":"gers","reg_code":"76","reg_nom":"Occitanie","reg_slug":"occitanie"},"departement":{"code":"32","nom":"Gers","slug":"gers"},"region":{"code":"76","nom":"Occitanie","slug":"occitanie"},"villes_proches":[{"id":0,"code_insee":"32402","nom_standard":"Saint-Paul-de-Baïse","nom_a":null,"nom_de":null,"slug_ville":"saint-paul-de-baise","departement_id":0,"code_postal":"32190","population":108,"superficie_km2":"1011.52","latitude_centre":"43.7811","longitude_centre":"0.3714","distance_km":2.84},{"id":0,"code_insee":"32162","nom_standard":"Jegun","nom_a":null,"nom_de":null,"slug_ville":"jegun","departement_id":0,"code_postal":"32360","population":1176,"superficie_km2":"3923.85","latitude_centre":"43.7637","longitude_centre":"0.4374","distance_km":3.11},{"id":0,"code_insee":"32083","nom_standard":"Castéra-Verduzan","nom_a":null,"nom_de":null,"slug_ville":"castera-verduzan","departement_id":0,"code_postal":"32410","population":1041,"superficie_km2":"2010.09","latitude_centre":"43.8026","longitude_centre":"0.4327","distance_km":3.19},{"id":0,"code_insee":"32352","nom_standard":"Rozès","nom_a":null,"nom_de":null,"slug_ville":"rozes","departement_id":0,"code_postal":"32190","population":113,"superficie_km2":"1085.33","latitude_centre":"43.8002","longitude_centre":"0.362","distance_km":4.19},{"id":0,"code_insee":"32382","nom_standard":"Saint-Jean-Poutge","nom_a":null,"nom_de":null,"slug_ville":"saint-jean-poutge","departement_id":0,"code_postal":"32190","population":310,"superficie_km2":"1078.08","latitude_centre":"43.7368","longitude_centre":"0.3825","distance_km":5.27},{"id":19136,"code_insee":"32024","nom_standard":"Ayguetinte","nom_a":null,"nom_de":null,"slug_ville":"ayguetinte","departement_id":0,"code_postal":"32410","population":156,"superficie_km2":"631.64","latitude_centre":"43.8308","longitude_centre":"0.4159","distance_km":5.61},{"id":19163,"code_insee":"32052","nom_standard":"Bezolles","nom_a":null,"nom_de":null,"slug_ville":"bezolles","departement_id":0,"code_postal":"32310","population":129,"superficie_km2":"1107.14","latitude_centre":"43.8209","longitude_centre":"0.355","distance_km":6.1},{"id":19119,"code_insee":"32003","nom_standard":"Antras","nom_a":null,"nom_de":null,"slug_ville":"antras","departement_id":0,"code_postal":"32360","population":40,"superficie_km2":"675.90","latitude_centre":"43.7304","longitude_centre":"0.4465","distance_km":6.45},{"id":19146,"code_insee":"32035","nom_standard":"Beaucaire","nom_a":null,"nom_de":null,"slug_ville":"beaucaire","departement_id":0,"code_postal":"32410","population":255,"superficie_km2":"1599.04","latitude_centre":"43.8336","longitude_centre":"0.3721","distance_km":6.5},{"id":0,"code_insee":"32231","nom_standard":"Marambat","nom_a":null,"nom_de":null,"slug_ville":"marambat","departement_id":0,"code_postal":"32190","population":419,"superficie_km2":"979.44","latitude_centre":"43.7779","longitude_centre":"0.3222","distance_km":6.8},{"id":0,"code_insee":"32196","nom_standard":"Larroque-Saint-Sernin","nom_a":null,"nom_de":null,"slug_ville":"larroque-saint-sernin","departement_id":0,"code_postal":"32410","population":162,"superficie_km2":"1792.89","latitude_centre":"43.8285","longitude_centre":"0.4711","distance_km":7.4},{"id":0,"code_insee":"32102","nom_standard":"Cézan","nom_a":null,"nom_de":null,"slug_ville":"cezan","departement_id":0,"code_postal":"32410","population":201,"superficie_km2":"1235.10","latitude_centre":"43.8035","longitude_centre":"0.4991","distance_km":7.83},{"id":0,"code_insee":"32166","nom_standard":"Justian","nom_a":null,"nom_de":null,"slug_ville":"justian","departement_id":0,"code_postal":"32190","population":108,"superficie_km2":"631.74","latitude_centre":"43.8148","longitude_centre":"0.2995","distance_km":9.41},{"id":0,"code_insee":"32178","nom_standard":"Lagardère","nom_a":null,"nom_de":null,"slug_ville":"lagardere","departement_id":0,"code_postal":"32310","population":77,"superficie_km2":"504.50","latitude_centre":"43.8401","longitude_centre":"0.3226","distance_km":9.44},{"id":0,"code_insee":"32071","nom_standard":"Caillavet","nom_a":null,"nom_de":null,"slug_ville":"caillavet","departement_id":0,"code_postal":"32190","population":162,"superficie_km2":"1462.43","latitude_centre":"43.7071","longitude_centre":"0.3435","distance_km":9.64},{"id":0,"code_insee":"32384","nom_standard":"Saint-Lary","nom_a":null,"nom_de":null,"slug_ville":"saint-lary","departement_id":0,"code_postal":"32360","population":271,"superficie_km2":"979.85","latitude_centre":"43.7189","longitude_centre":"0.4966","distance_km":9.97},{"id":19165,"code_insee":"32054","nom_standard":"Biran","nom_a":null,"nom_de":null,"slug_ville":"biran","departement_id":0,"code_postal":"32350","population":379,"superficie_km2":"3659.11","latitude_centre":"43.6908","longitude_centre":"0.4021","distance_km":10.01},{"id":0,"code_insee":"32459","nom_standard":"Valence-sur-Baïse","nom_a":null,"nom_de":null,"slug_ville":"valence-sur-baise","departement_id":0,"code_postal":"32310","population":1147,"superficie_km2":"2753.61","latitude_centre":"43.8722","longitude_centre":"0.3637","distance_km":10.74},{"id":0,"code_insee":"32404","nom_standard":"Saint-Puy","nom_a":null,"nom_de":null,"slug_ville":"saint-puy","departement_id":0,"code_postal":"32310","population":587,"superficie_km2":"3664.35","latitude_centre":"43.8705","longitude_centre":"0.4585","distance_km":10.8},{"id":0,"code_insee":"32224","nom_standard":"Maignaut-Tauzia","nom_a":null,"nom_de":null,"slug_ville":"maignaut-tauzia","departement_id":0,"code_postal":"32310","population":220,"superficie_km2":"1123.95","latitude_centre":"43.8872","longitude_centre":"0.399","distance_km":11.85}]}