{"ville":{"id":18744,"code_insee":"31076","nom_standard":"Bordes-de-Rivière","nom_a":null,"nom_de":null,"slug_ville":"bordes-de-riviere","departement_id":0,"code_postal":"31210","population":461,"superficie_km2":"846.15","latitude_centre":"43.1241","longitude_centre":"0.6347","dep_code":"31","dep_nom":"Haute-Garonne","dep_slug":"haute-garonne","reg_code":"76","reg_nom":"Occitanie","reg_slug":"occitanie"},"departement":{"code":"31","nom":"Haute-Garonne","slug":"haute-garonne"},"region":{"code":"76","nom":"Occitanie","slug":"occitanie"},"villes_proches":[{"id":0,"code_insee":"31147","nom_standard":"Clarac","nom_a":null,"nom_de":null,"slug_ville":"clarac","departement_id":0,"code_postal":"31210","population":672,"superficie_km2":"471.67","latitude_centre":"43.1113","longitude_centre":"0.615","distance_km":2.14},{"id":0,"code_insee":"31585","nom_standard":"Villeneuve-de-Rivière","nom_a":null,"nom_de":null,"slug_ville":"villeneuve-de-riviere","departement_id":0,"code_postal":"31800","population":1725,"superficie_km2":"1388.62","latitude_centre":"43.121","longitude_centre":"0.6681","distance_km":2.73},{"id":0,"code_insee":"31159","nom_standard":"Le Cuing","nom_a":null,"nom_de":null,"slug_ville":"le-cuing","departement_id":0,"code_postal":"31210","population":482,"superficie_km2":"1304.18","latitude_centre":"43.1479","longitude_centre":"0.6205","distance_km":2.89},{"id":0,"code_insee":"31430","nom_standard":"Ponlat-Taillebourg","nom_a":null,"nom_de":null,"slug_ville":"ponlat-taillebourg","departement_id":0,"code_postal":"31210","population":633,"superficie_km2":"867.07","latitude_centre":"43.1097","longitude_centre":"0.5943","distance_km":3.65},{"id":0,"code_insee":"31426","nom_standard":"Pointis-de-Rivière","nom_a":null,"nom_de":null,"slug_ville":"pointis-de-riviere","departement_id":0,"code_postal":"31210","population":825,"superficie_km2":"665.90","latitude_centre":"43.0909","longitude_centre":"0.626","distance_km":3.76},{"id":0,"code_insee":"31323","nom_standard":"Martres-de-Rivière","nom_a":null,"nom_de":null,"slug_ville":"martres-de-riviere","departement_id":0,"code_postal":"31210","population":418,"superficie_km2":"360.25","latitude_centre":"43.0834","longitude_centre":"0.6422","distance_km":4.57},{"id":0,"code_insee":"31305","nom_standard":"Loudet","nom_a":null,"nom_de":null,"slug_ville":"loudet","departement_id":0,"code_postal":"31580","population":191,"superficie_km2":"518.51","latitude_centre":"43.1397","longitude_centre":"0.5755","distance_km":5.11},{"id":0,"code_insee":"31302","nom_standard":"Lodes","nom_a":null,"nom_de":null,"slug_ville":"lodes","departement_id":0,"code_postal":"31800","population":308,"superficie_km2":"1396.77","latitude_centre":"43.1664","longitude_centre":"0.6608","distance_km":5.16},{"id":18715,"code_insee":"31031","nom_standard":"Ausson","nom_a":null,"nom_de":null,"slug_ville":"ausson","departement_id":0,"code_postal":"31210","population":596,"superficie_km2":"440.28","latitude_centre":"43.0916","longitude_centre":"0.5894","distance_km":5.16},{"id":0,"code_insee":"31487","nom_standard":"Saint-Ignan","nom_a":null,"nom_de":null,"slug_ville":"saint-ignan","departement_id":0,"code_postal":"31800","population":218,"superficie_km2":"539.53","latitude_centre":"43.1582","longitude_centre":"0.686","distance_km":5.63},{"id":0,"code_insee":"31247","nom_standard":"Labarthe-Rivière","nom_a":null,"nom_de":null,"slug_ville":"labarthe-riviere","departement_id":0,"code_postal":"31800","population":1298,"superficie_km2":"1397.54","latitude_centre":"43.0837","longitude_centre":"0.6786","distance_km":5.73},{"id":0,"code_insee":"31536","nom_standard":"Saux-et-Pomarède","nom_a":null,"nom_de":null,"slug_ville":"saux-et-pomarede","departement_id":0,"code_postal":"31800","population":245,"superficie_km2":"1273.75","latitude_centre":"43.1508","longitude_centre":"0.7043","distance_km":6.38},{"id":18701,"code_insee":"31013","nom_standard":"Ardiège","nom_a":null,"nom_de":null,"slug_ville":"ardiege","departement_id":0,"code_postal":"31210","population":381,"superficie_km2":"394.94","latitude_centre":"43.0647","longitude_centre":"0.6424","distance_km":6.63},{"id":0,"code_insee":"31565","nom_standard":"Valentine","nom_a":null,"nom_de":null,"slug_ville":"valentine","departement_id":0,"code_postal":"31800","population":869,"superficie_km2":"817.21","latitude_centre":"43.0886","longitude_centre":"0.7009","distance_km":6.67},{"id":0,"code_insee":"31238","nom_standard":"Huos","nom_a":null,"nom_de":null,"slug_ville":"huos","departement_id":0,"code_postal":"31210","population":491,"superficie_km2":"405.56","latitude_centre":"43.0673","longitude_centre":"0.6","distance_km":6.92},{"id":0,"code_insee":"31143","nom_standard":"Cier-de-Rivière","nom_a":null,"nom_de":null,"slug_ville":"cier-de-riviere","departement_id":0,"code_postal":"31510","population":266,"superficie_km2":"938.43","latitude_centre":"43.0605","longitude_centre":"0.6295","distance_km":7.08},{"id":0,"code_insee":"31513","nom_standard":"Saint-Plancard","nom_a":null,"nom_de":null,"slug_ville":"saint-plancard","departement_id":0,"code_postal":"31580","population":398,"superficie_km2":"1606.89","latitude_centre":"43.169","longitude_centre":"0.5683","distance_km":7.34},{"id":0,"code_insee":"31390","nom_standard":"Montréjeau","nom_a":null,"nom_de":null,"slug_ville":"montrejeau","departement_id":0,"code_postal":"31210","population":2648,"superficie_km2":"797.10","latitude_centre":"43.0876","longitude_centre":"0.5588","distance_km":7.38},{"id":0,"code_insee":"31224","nom_standard":"Gourdan-Polignan","nom_a":null,"nom_de":null,"slug_ville":"gourdan-polignan","departement_id":0,"code_postal":"31210","population":1177,"superficie_km2":"525.66","latitude_centre":"43.0708","longitude_centre":"0.5745","distance_km":7.68},{"id":0,"code_insee":"31276","nom_standard":"Larroque","nom_a":null,"nom_de":null,"slug_ville":"larroque","departement_id":0,"code_postal":"31580","population":293,"superficie_km2":"1992.90","latitude_centre":"43.1966","longitude_centre":"0.6115","distance_km":8.28}]}