{"ville":{"id":16001,"code_insee":"23026","nom_standard":"Bord-Saint-Georges","nom_a":null,"nom_de":null,"slug_ville":"bord-saint-georges","departement_id":0,"code_postal":"23230","population":368,"superficie_km2":"3244.63","latitude_centre":"46.2481","longitude_centre":"2.2854","dep_code":"23","dep_nom":"Creuse","dep_slug":"creuse","reg_code":"75","reg_nom":"Nouvelle-Aquitaine","reg_slug":"nouvelle-aquitaine"},"departement":{"code":"23","nom":"Creuse","slug":"creuse"},"region":{"code":"75","nom":"Nouvelle-Aquitaine","slug":"nouvelle-aquitaine"},"villes_proches":[{"id":15987,"code_insee":"23009","nom_standard":"Auge","nom_a":null,"nom_de":null,"slug_ville":"auge","departement_id":0,"code_postal":"23170","population":92,"superficie_km2":"1001.40","latitude_centre":"46.2365","longitude_centre":"2.3295","distance_km":3.63},{"id":0,"code_insee":"23255","nom_standard":"Trois-Fonds","nom_a":null,"nom_de":null,"slug_ville":"trois-fonds","departement_id":0,"code_postal":"23230","population":141,"superficie_km2":"965.74","latitude_centre":"46.2398","longitude_centre":"2.2362","distance_km":3.89},{"id":0,"code_insee":"23259","nom_standard":"Verneiges","nom_a":null,"nom_de":null,"slug_ville":"verneiges","departement_id":0,"code_postal":"23170","population":119,"superficie_km2":"764.63","latitude_centre":"46.2643","longitude_centre":"2.3387","distance_km":4.48},{"id":0,"code_insee":"23104","nom_standard":"Lavaufranche","nom_a":null,"nom_de":null,"slug_ville":"lavaufranche","departement_id":0,"code_postal":"23600","population":232,"superficie_km2":"1617.98","latitude_centre":"46.305","longitude_centre":"2.2738","distance_km":6.39},{"id":0,"code_insee":"23040","nom_standard":"La Celle-sous-Gouzon","nom_a":null,"nom_de":null,"slug_ville":"la-celle-sous-gouzon","departement_id":0,"code_postal":"23230","population":162,"superficie_km2":"1418.76","latitude_centre":"46.2211","longitude_centre":"2.2082","distance_km":6.65},{"id":0,"code_insee":"23254","nom_standard":"Toulx-Sainte-Croix","nom_a":null,"nom_de":null,"slug_ville":"toulx-sainte-croix","departement_id":0,"code_postal":"23600","population":252,"superficie_km2":"3516.97","latitude_centre":"46.2884","longitude_centre":"2.2133","distance_km":7.13},{"id":0,"code_insee":"23114","nom_standard":"Lussat","nom_a":null,"nom_de":null,"slug_ville":"lussat","departement_id":0,"code_postal":"23170","population":416,"superficie_km2":"4854.82","latitude_centre":"46.1881","longitude_centre":"2.3284","distance_km":7.45},{"id":0,"code_insee":"23243","nom_standard":"Saint-Silvain-sous-Toulx","nom_a":null,"nom_de":null,"slug_ville":"saint-silvain-sous-toulx","departement_id":0,"code_postal":"23140","population":146,"superficie_km2":"1482.76","latitude_centre":"46.2595","longitude_centre":"2.1864","distance_km":7.72},{"id":0,"code_insee":"23174","nom_standard":"Soumans","nom_a":null,"nom_de":null,"slug_ville":"soumans","departement_id":0,"code_postal":"23600","population":611,"superficie_km2":"3677.15","latitude_centre":"46.3086","longitude_centre":"2.3359","distance_km":7.77},{"id":0,"code_insee":"23106","nom_standard":"Lépaud","nom_a":null,"nom_de":null,"slug_ville":"lepaud","departement_id":0,"code_postal":"23170","population":359,"superficie_km2":"2413.61","latitude_centre":"46.2286","longitude_centre":"2.3845","distance_km":7.92},{"id":0,"code_insee":"23093","nom_standard":"Gouzon","nom_a":null,"nom_de":null,"slug_ville":"gouzon","departement_id":0,"code_postal":"23230","population":1558,"superficie_km2":"5065.56","latitude_centre":"46.1901","longitude_centre":"2.2193","distance_km":8.21},{"id":0,"code_insee":"23145","nom_standard":"Nouhant","nom_a":null,"nom_de":null,"slug_ville":"nouhant","departement_id":0,"code_postal":"23170","population":313,"superficie_km2":"2570.25","latitude_centre":"46.2924","longitude_centre":"2.3901","distance_km":9.44},{"id":0,"code_insee":"23240","nom_standard":"Saint-Silvain-Bas-le-Roc","nom_a":null,"nom_de":null,"slug_ville":"saint-silvain-bas-le-roc","departement_id":0,"code_postal":"23600","population":410,"superficie_km2":"1547.83","latitude_centre":"46.3312","longitude_centre":"2.2189","distance_km":10.56},{"id":0,"code_insee":"23209","nom_standard":"Saint-Loup","nom_a":null,"nom_de":null,"slug_ville":"saint-loup","departement_id":0,"code_postal":"23130","population":201,"superficie_km2":"1888.02","latitude_centre":"46.1471","longitude_centre":"2.2827","distance_km":11.23},{"id":0,"code_insee":"23152","nom_standard":"Pierrefitte","nom_a":null,"nom_de":null,"slug_ville":"pierrefitte","departement_id":0,"code_postal":"23130","population":67,"superficie_km2":"646.13","latitude_centre":"46.1513","longitude_centre":"2.2317","distance_km":11.53},{"id":11134,"code_insee":"03288","nom_standard":"Treignat","nom_a":null,"nom_de":null,"slug_ville":"treignat","departement_id":0,"code_postal":"03380","population":434,"superficie_km2":"2934.97","latitude_centre":"46.3469","longitude_centre":"2.3458","distance_km":11.93},{"id":0,"code_insee":"23108","nom_standard":"Leyrat","nom_a":null,"nom_de":null,"slug_ville":"leyrat","departement_id":0,"code_postal":"23600","population":143,"superficie_km2":"1840.72","latitude_centre":"46.3564","longitude_centre":"2.2985","distance_km":12.08},{"id":0,"code_insee":"23031","nom_standard":"Boussac","nom_a":null,"nom_de":null,"slug_ville":"boussac","departement_id":0,"code_postal":"23600","population":1236,"superficie_km2":"154.54","latitude_centre":"46.3482","longitude_centre":"2.2216","distance_km":12.16},{"id":0,"code_insee":"23251","nom_standard":"Tardes","nom_a":null,"nom_de":null,"slug_ville":"tardes","departement_id":0,"code_postal":"23170","population":119,"superficie_km2":"2160.27","latitude_centre":"46.1419","longitude_centre":"2.359","distance_km":13.1},{"id":0,"code_insee":"23204","nom_standard":"Saint-Julien-le-Châtel","nom_a":null,"nom_de":null,"slug_ville":"saint-julien-le-chatel","departement_id":0,"code_postal":"23130","population":158,"superficie_km2":"1535.13","latitude_centre":"46.122","longitude_centre":"2.2707","distance_km":14.07}]}