{"ville":{"id":11578,"code_insee":"07038","nom_standard":"Borne","nom_a":null,"nom_de":null,"slug_ville":"borne","departement_id":0,"code_postal":"07590","population":42,"superficie_km2":"3219.29","latitude_centre":"44.6115","longitude_centre":"4.0444","dep_code":"07","dep_nom":"Ardèche","dep_slug":"ardeche","reg_code":"84","reg_nom":"Auvergne-Rhône-Alpes","reg_slug":"auvergne-rhone-alpes"},"departement":{"code":"07","nom":"Ardèche","slug":"ardeche"},"region":{"code":"84","nom":"Auvergne-Rhône-Alpes","slug":"auvergne-rhone-alpes"},"villes_proches":[{"id":0,"code_insee":"07144","nom_standard":"Loubaresse","nom_a":null,"nom_de":null,"slug_ville":"loubaresse","departement_id":0,"code_postal":"07110","population":43,"superficie_km2":"912.73","latitude_centre":"44.5921","longitude_centre":"4.0555","distance_km":2.33},{"id":0,"code_insee":"07329","nom_standard":"Valgorge","nom_a":null,"nom_de":null,"slug_ville":"valgorge","departement_id":0,"code_postal":"07110","population":412,"superficie_km2":"2643.76","latitude_centre":"44.5918","longitude_centre":"4.1118","distance_km":5.77},{"id":0,"code_insee":"07232","nom_standard":"Saint-Étienne-de-Lugdarès","nom_a":null,"nom_de":null,"slug_ville":"saint-etienne-de-lugdares","departement_id":0,"code_postal":"07590","population":406,"superficie_km2":"5083.54","latitude_centre":"44.6468","longitude_centre":"3.974","distance_km":6.81},{"id":0,"code_insee":"07262","nom_standard":"Saint-Laurent-les-Bains-Laval-d'Aurelle","nom_a":null,"nom_de":null,"slug_ville":"saint-laurent-les-bains-laval-d-aurelle","departement_id":0,"code_postal":"07590","population":183,"superficie_km2":"3569.87","latitude_centre":"44.5906","longitude_centre":"3.9592","distance_km":7.13},{"id":0,"code_insee":"07153","nom_standard":"Mayres","nom_a":null,"nom_de":null,"slug_ville":"mayres","departement_id":0,"code_postal":"07330","population":262,"superficie_km2":"2957.95","latitude_centre":"44.6646","longitude_centre":"4.1001","distance_km":7.37},{"id":0,"code_insee":"07202","nom_standard":"Sablières","nom_a":null,"nom_de":null,"slug_ville":"sablieres","departement_id":0,"code_postal":"07260","population":166,"superficie_km2":"3836.95","latitude_centre":"44.5451","longitude_centre":"4.0675","distance_km":7.61},{"id":0,"code_insee":"07081","nom_standard":"Dompnac","nom_a":null,"nom_de":null,"slug_ville":"dompnac","departement_id":0,"code_postal":"07260","population":78,"superficie_km2":"1629.15","latitude_centre":"44.5607","longitude_centre":"4.1132","distance_km":7.85},{"id":11562,"code_insee":"07018","nom_standard":"Astet","nom_a":null,"nom_de":null,"slug_ville":"astet","departement_id":0,"code_postal":"07330","population":59,"superficie_km2":"3481.89","latitude_centre":"44.6841","longitude_centre":"4.0211","distance_km":8.28},{"id":0,"code_insee":"07315","nom_standard":"La Souche","nom_a":null,"nom_de":null,"slug_ville":"la-souche","departement_id":0,"code_postal":"07380","population":385,"superficie_km2":"3188.20","latitude_centre":"44.6258","longitude_centre":"4.1565","distance_km":9.01},{"id":0,"code_insee":"07136","nom_standard":"Laveyrune","nom_a":null,"nom_de":null,"slug_ville":"laveyrune","departement_id":0,"code_postal":"48250","population":111,"superficie_km2":"1352.04","latitude_centre":"44.6174","longitude_centre":"3.9255","distance_km":9.43},{"id":0,"code_insee":"07118","nom_standard":"Laboule","nom_a":null,"nom_de":null,"slug_ville":"laboule","departement_id":0,"code_postal":"07110","population":146,"superficie_km2":"1753.54","latitude_centre":"44.5928","longitude_centre":"4.1718","distance_km":10.3},{"id":0,"code_insee":"07163","nom_standard":"Montselgues","nom_a":null,"nom_de":null,"slug_ville":"montselgues","departement_id":0,"code_postal":"07140","population":86,"superficie_km2":"3639.24","latitude_centre":"44.5234","longitude_centre":"4.0037","distance_km":10.31},{"id":0,"code_insee":"07275","nom_standard":"Saint-Mélany","nom_a":null,"nom_de":null,"slug_ville":"saint-melany","departement_id":0,"code_postal":"07260","population":118,"superficie_km2":"1062.49","latitude_centre":"44.5391","longitude_centre":"4.1276","distance_km":10.4},{"id":11566,"code_insee":"07025","nom_standard":"Barnas","nom_a":null,"nom_de":null,"slug_ville":"barnas","departement_id":0,"code_postal":"07330","population":209,"superficie_km2":"2480.06","latitude_centre":"44.6698","longitude_centre":"4.1589","distance_km":11.14},{"id":0,"code_insee":"07175","nom_standard":"Le Plagnal","nom_a":null,"nom_de":null,"slug_ville":"le-plagnal","departement_id":0,"code_postal":"07590","population":66,"superficie_km2":"1564.21","latitude_centre":"44.697","longitude_centre":"3.9553","distance_km":11.83},{"id":0,"code_insee":"07154","nom_standard":"Mazan-l'Abbaye","nom_a":null,"nom_de":null,"slug_ville":"mazan-l-abbaye","departement_id":0,"code_postal":"07510","population":120,"superficie_km2":"4614.74","latitude_centre":"44.7272","longitude_centre":"4.084","distance_km":13.24},{"id":0,"code_insee":"07130","nom_standard":"Lanarce","nom_a":null,"nom_de":null,"slug_ville":"lanarce","departement_id":0,"code_postal":"07660","population":212,"superficie_km2":"2266.68","latitude_centre":"44.731","longitude_centre":"4.0027","distance_km":13.69},{"id":0,"code_insee":"07266","nom_standard":"Sainte-Marguerite-Lafigère","nom_a":null,"nom_de":null,"slug_ville":"sainte-marguerite-lafigere","departement_id":0,"code_postal":"07140","population":111,"superficie_km2":"981.31","latitude_centre":"44.4866","longitude_centre":"3.9975","distance_km":14.38},{"id":0,"code_insee":"07147","nom_standard":"Malarce-sur-la-Thines","nom_a":null,"nom_de":null,"slug_ville":"malarce-sur-la-thines","departement_id":0,"code_postal":"07140","population":268,"superficie_km2":"3784.19","latitude_centre":"44.4777","longitude_centre":"4.0512","distance_km":14.89},{"id":0,"code_insee":"07284","nom_standard":"Saint-Pierre-Saint-Jean","nom_a":null,"nom_de":null,"slug_ville":"saint-pierre-saint-jean","departement_id":0,"code_postal":"07140","population":195,"superficie_km2":"2372.22","latitude_centre":"44.4785","longitude_centre":"4.0971","distance_km":15.37}]}