{"ville":{"id":16683,"code_insee":"25079","nom_standard":"Boujailles","nom_a":null,"nom_de":null,"slug_ville":"boujailles","departement_id":0,"code_postal":"25560","population":461,"superficie_km2":"2817.71","latitude_centre":"46.887","longitude_centre":"6.0786","dep_code":"25","dep_nom":"Doubs","dep_slug":"doubs","reg_code":"27","reg_nom":"Bourgogne-Franche-Comté","reg_slug":"bourgogne-franche-comte"},"departement":{"code":"25","nom":"Doubs","slug":"doubs"},"region":{"code":"27","nom":"Bourgogne-Franche-Comté","slug":"bourgogne-franche-comte"},"villes_proches":[{"id":0,"code_insee":"25627","nom_standard":"Villers-sous-Chalamont","nom_a":null,"nom_de":null,"slug_ville":"villers-sous-chalamont","departement_id":0,"code_postal":"25270","population":293,"superficie_km2":"2259.11","latitude_centre":"46.8987","longitude_centre":"6.0562","distance_km":2.14},{"id":0,"code_insee":"25176","nom_standard":"Courvières","nom_a":null,"nom_de":null,"slug_ville":"courvieres","departement_id":0,"code_postal":"25560","population":317,"superficie_km2":"1095.03","latitude_centre":"46.866","longitude_centre":"6.0985","distance_km":2.78},{"id":0,"code_insee":"39187","nom_standard":"Cuvier","nom_a":null,"nom_de":null,"slug_ville":"cuvier","departement_id":0,"code_postal":"39250","population":277,"superficie_km2":"1056.98","latitude_centre":"46.8407","longitude_centre":"6.0661","distance_km":5.24},{"id":16649,"code_insee":"25026","nom_standard":"Arc-sous-Montenot","nom_a":null,"nom_de":null,"slug_ville":"arc-sous-montenot","departement_id":0,"code_postal":"25270","population":227,"superficie_km2":"1082.96","latitude_centre":"46.9148","longitude_centre":"6.0086","distance_km":6.15},{"id":0,"code_insee":"25259","nom_standard":"Frasne","nom_a":null,"nom_de":null,"slug_ville":"frasne","departement_id":0,"code_postal":"25560","population":1975,"superficie_km2":"3301.29","latitude_centre":"46.854","longitude_centre":"6.145","distance_km":6.24},{"id":0,"code_insee":"25202","nom_standard":"Dompierre-les-Tilleuls","nom_a":null,"nom_de":null,"slug_ville":"dompierre-les-tilleuls","departement_id":0,"code_postal":"25560","population":291,"superficie_km2":"1306.41","latitude_centre":"46.8865","longitude_centre":"6.1641","distance_km":6.5},{"id":0,"code_insee":"25621","nom_standard":"Villeneuve-d'Amont","nom_a":null,"nom_de":null,"slug_ville":"villeneuve-d-amont","departement_id":0,"code_postal":"25270","population":213,"superficie_km2":"1428.19","latitude_centre":"46.9396","longitude_centre":"6.037","distance_km":6.65},{"id":0,"code_insee":"39291","nom_standard":"Lemuy","nom_a":null,"nom_de":null,"slug_ville":"lemuy","departement_id":0,"code_postal":"39110","population":255,"superficie_km2":"2141.64","latitude_centre":"46.892","longitude_centre":"5.9861","distance_km":7.05},{"id":0,"code_insee":"39214","nom_standard":"Esserval-Tartre","nom_a":null,"nom_de":null,"slug_ville":"esserval-tartre","departement_id":0,"code_postal":"39250","population":140,"superficie_km2":"1205.56","latitude_centre":"46.8296","longitude_centre":"6.0305","distance_km":7.36},{"id":0,"code_insee":"39083","nom_standard":"Censeau","nom_a":null,"nom_de":null,"slug_ville":"censeau","departement_id":0,"code_postal":"39250","population":333,"superficie_km2":"979.32","latitude_centre":"46.8188","longitude_centre":"6.0792","distance_km":7.58},{"id":0,"code_insee":"39053","nom_standard":"Bief-du-Fourg","nom_a":null,"nom_de":null,"slug_ville":"bief-du-fourg","departement_id":0,"code_postal":"39250","population":218,"superficie_km2":"1013.22","latitude_centre":"46.8243","longitude_centre":"6.1225","distance_km":7.73},{"id":0,"code_insee":"39522","nom_standard":"Supt","nom_a":null,"nom_de":null,"slug_ville":"supt","departement_id":0,"code_postal":"39300","population":110,"superficie_km2":"1407.70","latitude_centre":"46.855","longitude_centre":"5.9868","distance_km":7.83},{"id":0,"code_insee":"25122","nom_standard":"Chapelle-d'Huin","nom_a":null,"nom_de":null,"slug_ville":"chapelle-d-huin","departement_id":0,"code_postal":"25270","population":549,"superficie_km2":"2387.90","latitude_centre":"46.9329","longitude_centre":"6.1704","distance_km":8.64},{"id":0,"code_insee":"25270","nom_standard":"Gevresin","nom_a":null,"nom_de":null,"slug_ville":"gevresin","departement_id":0,"code_postal":"25270","population":158,"superficie_km2":"706.24","latitude_centre":"46.9641","longitude_centre":"6.0495","distance_km":8.85},{"id":0,"code_insee":"25180","nom_standard":"Crouzet-Migette","nom_a":null,"nom_de":null,"slug_ville":"crouzet-migette","departement_id":0,"code_postal":"25270","population":118,"superficie_km2":"560.85","latitude_centre":"46.9563","longitude_centre":"6.0121","distance_km":9.21},{"id":0,"code_insee":"25334","nom_standard":"Levier","nom_a":null,"nom_de":null,"slug_ville":"levier","departement_id":0,"code_postal":"25270","population":2400,"superficie_km2":"4437.08","latitude_centre":"46.9655","longitude_centre":"6.1196","distance_km":9.27},{"id":0,"code_insee":"39427","nom_standard":"Plénise","nom_a":null,"nom_de":null,"slug_ville":"plenise","departement_id":0,"code_postal":"39250","population":64,"superficie_km2":"533.87","latitude_centre":"46.814","longitude_centre":"6.0193","distance_km":9.29},{"id":0,"code_insee":"39428","nom_standard":"Plénisette","nom_a":null,"nom_de":null,"slug_ville":"plenisette","departement_id":0,"code_postal":"39250","population":20,"superficie_km2":"271.91","latitude_centre":"46.8036","longitude_centre":"6.016","distance_km":10.42},{"id":0,"code_insee":"39329","nom_standard":"Mièges","nom_a":null,"nom_de":null,"slug_ville":"mieges","departement_id":0,"code_postal":"39250","population":165,"superficie_km2":"776.62","latitude_centre":"46.7933","longitude_centre":"6.0523","distance_km":10.61},{"id":0,"code_insee":"25404","nom_standard":"Montmahoux","nom_a":null,"nom_de":null,"slug_ville":"montmahoux","departement_id":0,"code_postal":"25270","population":94,"superficie_km2":"671.15","latitude_centre":"46.9817","longitude_centre":"6.0317","distance_km":11.12}]}