{"ville":{"id":28952,"code_insee":"65107","nom_standard":"Bourréac","nom_a":null,"nom_de":null,"slug_ville":"bourreac","departement_id":0,"code_postal":"65100","population":117,"superficie_km2":"127.97","latitude_centre":"43.1053","longitude_centre":"0.0031","dep_code":"65","dep_nom":"Hautes-Pyrénées","dep_slug":"hautes-pyrenees","reg_code":"76","reg_nom":"Occitanie","reg_slug":"occitanie"},"departement":{"code":"65","nom":"Hautes-Pyrénées","slug":"hautes-pyrenees"},"region":{"code":"76","nom":"Occitanie","slug":"occitanie"},"villes_proches":[{"id":0,"code_insee":"65271","nom_standard":"Lézignan","nom_a":null,"nom_de":null,"slug_ville":"lezignan","departement_id":0,"code_postal":"65100","population":355,"superficie_km2":"256.47","latitude_centre":"43.0999","longitude_centre":"-0.0047","distance_km":0.87},{"id":0,"code_insee":"65236","nom_standard":"Julos","nom_a":null,"nom_de":null,"slug_ville":"julos","departement_id":0,"code_postal":"65100","population":450,"superficie_km2":"595.60","latitude_centre":"43.1192","longitude_centre":"-0.0016","distance_km":1.59},{"id":28874,"code_insee":"65020","nom_standard":"Arcizac-ez-Angles","nom_a":null,"nom_de":null,"slug_ville":"arcizac-ez-angles","departement_id":0,"code_postal":"65100","population":248,"superficie_km2":"193.41","latitude_centre":"43.0951","longitude_centre":"0.0171","distance_km":1.61},{"id":0,"code_insee":"65355","nom_standard":"Paréac","nom_a":null,"nom_de":null,"slug_ville":"pareac","departement_id":0,"code_postal":"65100","population":73,"superficie_km2":"240.57","latitude_centre":"43.1159","longitude_centre":"0.0202","distance_km":1.82},{"id":0,"code_insee":"65164","nom_standard":"Escoubès-Pouts","nom_a":null,"nom_de":null,"slug_ville":"escoubes-pouts","departement_id":0,"code_postal":"65100","population":91,"superficie_km2":"275.20","latitude_centre":"43.1063","longitude_centre":"0.0267","distance_km":1.92},{"id":28865,"code_insee":"65011","nom_standard":"Les Angles","nom_a":null,"nom_de":null,"slug_ville":"les-angles","departement_id":0,"code_postal":"65100","population":132,"superficie_km2":"306.30","latitude_centre":"43.0838","longitude_centre":"0.0039","distance_km":2.39},{"id":0,"code_insee":"65203","nom_standard":"Gez-ez-Angles","nom_a":null,"nom_de":null,"slug_ville":"gez-ez-angles","departement_id":0,"code_postal":"65100","population":22,"superficie_km2":"241.10","latitude_centre":"43.0889","longitude_centre":"0.0245","distance_km":2.52},{"id":28902,"code_insee":"65052","nom_standard":"Averan","nom_a":null,"nom_de":null,"slug_ville":"averan","departement_id":0,"code_postal":"65380","population":86,"superficie_km2":"430.06","latitude_centre":"43.1355","longitude_centre":"-0.0001","distance_km":3.37},{"id":0,"code_insee":"65339","nom_standard":"Orincles","nom_a":null,"nom_de":null,"slug_ville":"orincles","departement_id":0,"code_postal":"65380","population":364,"superficie_km2":"580.56","latitude_centre":"43.1233","longitude_centre":"0.0386","distance_km":3.51},{"id":0,"code_insee":"65247","nom_standard":"Arrayou-Lahitte","nom_a":null,"nom_de":null,"slug_ville":"arrayou-lahitte","departement_id":0,"code_postal":"65100","population":99,"superficie_km2":"487.55","latitude_centre":"43.092","longitude_centre":"0.0437","distance_km":3.61},{"id":0,"code_insee":"65233","nom_standard":"Jarret","nom_a":null,"nom_de":null,"slug_ville":"jarret","departement_id":0,"code_postal":"65100","population":299,"superficie_km2":"445.16","latitude_centre":"43.0755","longitude_centre":"-0.0182","distance_km":3.74},{"id":28889,"code_insee":"65038","nom_standard":"Artigues","nom_a":null,"nom_de":null,"slug_ville":"artigues","departement_id":0,"code_postal":"65100","population":13,"superficie_km2":"144.43","latitude_centre":"43.0712","longitude_centre":"0.0007","distance_km":3.8},{"id":28915,"code_insee":"65067","nom_standard":"Barry","nom_a":null,"nom_de":null,"slug_ville":"barry","departement_id":0,"code_postal":"65380","population":136,"superficie_km2":"262.34","latitude_centre":"43.1385","longitude_centre":"0.0204","distance_km":3.95},{"id":0,"code_insee":"65421","nom_standard":"Sère-Lanso","nom_a":null,"nom_de":null,"slug_ville":"sere-lanso","departement_id":0,"code_postal":"65100","population":37,"superficie_km2":"417.56","latitude_centre":"43.068","longitude_centre":"0.0162","distance_km":4.28},{"id":28884,"code_insee":"65033","nom_standard":"Arrodets-ez-Angles","nom_a":null,"nom_de":null,"slug_ville":"arrodets-ez-angles","departement_id":0,"code_postal":"65100","population":113,"superficie_km2":"463.41","latitude_centre":"43.0701","longitude_centre":"0.0404","distance_km":4.95},{"id":28858,"code_insee":"65002","nom_standard":"Adé","nom_a":null,"nom_de":null,"slug_ville":"ade","departement_id":0,"code_postal":"65100","population":856,"superficie_km2":"751.16","latitude_centre":"43.1443","longitude_centre":"-0.0275","distance_km":5.0},{"id":0,"code_insee":"65386","nom_standard":"Saint-Créac","nom_a":null,"nom_de":null,"slug_ville":"saint-creac","departement_id":0,"code_postal":"65100","population":99,"superficie_km2":"213.94","latitude_centre":"43.0611","longitude_centre":"-0.0201","distance_km":5.26},{"id":28926,"code_insee":"65080","nom_standard":"Bénac","nom_a":null,"nom_de":null,"slug_ville":"benac","departement_id":0,"code_postal":"65380","population":528,"superficie_km2":"799.82","latitude_centre":"43.153","longitude_centre":"0.0299","distance_km":5.73},{"id":0,"code_insee":"65257","nom_standard":"Lanne","nom_a":null,"nom_de":null,"slug_ville":"lanne","departement_id":0,"code_postal":"65380","population":598,"superficie_km2":"576.88","latitude_centre":"43.1609","longitude_centre":"0.004","distance_km":6.18},{"id":0,"code_insee":"65237","nom_standard":"Juncalas","nom_a":null,"nom_de":null,"slug_ville":"juncalas","departement_id":0,"code_postal":"65100","population":174,"superficie_km2":"341.86","latitude_centre":"43.0492","longitude_centre":"-0.0002","distance_km":6.24}]}