{"ville":{"id":33405,"code_insee":"81035","nom_standard":"Bournazel","nom_a":null,"nom_de":null,"slug_ville":"bournazel","departement_id":0,"code_postal":"81170","population":223,"superficie_km2":"790.99","latitude_centre":"44.1032","longitude_centre":"1.9683","dep_code":"81","dep_nom":"Tarn","dep_slug":"tarn","reg_code":"76","reg_nom":"Occitanie","reg_slug":"occitanie"},"departement":{"code":"81","nom":"Tarn","slug":"tarn"},"region":{"code":"76","nom":"Occitanie","slug":"occitanie"},"villes_proches":[{"id":0,"code_insee":"81123","nom_standard":"Lacapelle-Ségalar","nom_a":null,"nom_de":null,"slug_ville":"lacapelle-segalar","departement_id":0,"code_postal":"81170","population":89,"superficie_km2":"678.87","latitude_centre":"44.1187","longitude_centre":"1.9941","distance_km":2.69},{"id":0,"code_insee":"81191","nom_standard":"Mouzieys-Panens","nom_a":null,"nom_de":null,"slug_ville":"mouzieys-panens","departement_id":0,"code_postal":"81170","population":256,"superficie_km2":"1336.15","latitude_centre":"44.1008","longitude_centre":"1.9323","distance_km":2.89},{"id":0,"code_insee":"81262","nom_standard":"Saint-Marcel-Campes","nom_a":null,"nom_de":null,"slug_ville":"saint-marcel-campes","departement_id":0,"code_postal":"81170","population":239,"superficie_km2":"2257.54","latitude_centre":"44.0856","longitude_centre":"2.0006","distance_km":3.24},{"id":0,"code_insee":"81263","nom_standard":"Saint-Martin-Laguépie","nom_a":null,"nom_de":null,"slug_ville":"saint-martin-laguepie","departement_id":0,"code_postal":"81170","population":400,"superficie_km2":"2197.37","latitude_centre":"44.1373","longitude_centre":"1.9613","distance_km":3.83},{"id":0,"code_insee":"81069","nom_standard":"Cordes-sur-Ciel","nom_a":null,"nom_de":null,"slug_ville":"cordes-sur-ciel","departement_id":0,"code_postal":"81170","population":879,"superficie_km2":"843.30","latitude_centre":"44.0688","longitude_centre":"1.9622","distance_km":3.86},{"id":0,"code_insee":"81045","nom_standard":"Les Cabannes","nom_a":null,"nom_de":null,"slug_ville":"les-cabannes","departement_id":0,"code_postal":"81170","population":379,"superficie_km2":"627.87","latitude_centre":"44.077","longitude_centre":"1.9279","distance_km":4.35},{"id":0,"code_insee":"81135","nom_standard":"Laparrouquial","nom_a":null,"nom_de":null,"slug_ville":"laparrouquial","departement_id":0,"code_postal":"81640","population":91,"superficie_km2":"841.34","latitude_centre":"44.1199","longitude_centre":"2.0302","distance_km":5.28},{"id":0,"code_insee":"81111","nom_standard":"Labarthe-Bleys","nom_a":null,"nom_de":null,"slug_ville":"labarthe-bleys","departement_id":0,"code_postal":"81170","population":74,"superficie_km2":"911.17","latitude_centre":"44.0869","longitude_centre":"1.892","distance_km":6.36},{"id":0,"code_insee":"81224","nom_standard":"Le Riols","nom_a":null,"nom_de":null,"slug_ville":"le-riols","departement_id":0,"code_postal":"81170","population":98,"superficie_km2":"498.83","latitude_centre":"44.1451","longitude_centre":"1.9137","distance_km":6.38},{"id":0,"code_insee":"81146","nom_standard":"Livers-Cazelles","nom_a":null,"nom_de":null,"slug_ville":"livers-cazelles","departement_id":0,"code_postal":"81170","population":239,"superficie_km2":"1322.32","latitude_centre":"44.0487","longitude_centre":"2.0011","distance_km":6.6},{"id":0,"code_insee":"81275","nom_standard":"Salles","nom_a":null,"nom_de":null,"slug_ville":"salles","departement_id":0,"code_postal":"81640","population":191,"superficie_km2":"821.27","latitude_centre":"44.0755","longitude_centre":"2.0415","distance_km":6.61},{"id":0,"code_insee":"82088","nom_standard":"Laguépie","nom_a":null,"nom_de":null,"slug_ville":"laguepie","departement_id":0,"code_postal":"82250","population":644,"superficie_km2":"1501.26","latitude_centre":"44.1637","longitude_centre":"1.96","distance_km":6.76},{"id":0,"code_insee":"81320","nom_standard":"Vindrac-Alayrac","nom_a":null,"nom_de":null,"slug_ville":"vindrac-alayrac","departement_id":0,"code_postal":"81170","population":159,"superficie_km2":"979.53","latitude_centre":"44.0589","longitude_centre":"1.9033","distance_km":7.16},{"id":0,"code_insee":"81290","nom_standard":"Souel","nom_a":null,"nom_de":null,"slug_ville":"souel","departement_id":0,"code_postal":"81170","population":175,"superficie_km2":"969.43","latitude_centre":"44.0361","longitude_centre":"1.9633","distance_km":7.47},{"id":33384,"code_insee":"81009","nom_standard":"Amarens","nom_a":null,"nom_de":null,"slug_ville":"amarens","departement_id":0,"code_postal":"81170","population":61,"superficie_km2":"481.98","latitude_centre":"44.0423","longitude_centre":"1.9244","distance_km":7.63},{"id":0,"code_insee":"81245","nom_standard":"Saint-Christophe","nom_a":null,"nom_de":null,"slug_ville":"saint-christophe","departement_id":0,"code_postal":"81190","population":137,"superficie_km2":"1439.72","latitude_centre":"44.1527","longitude_centre":"2.0398","distance_km":7.93},{"id":0,"code_insee":"81095","nom_standard":"Frausseilles","nom_a":null,"nom_de":null,"slug_ville":"frausseilles","departement_id":0,"code_postal":"81170","population":75,"superficie_km2":"586.49","latitude_centre":"44.0298","longitude_centre":"1.9258","distance_km":8.84},{"id":0,"code_insee":"81166","nom_standard":"Milhavet","nom_a":null,"nom_de":null,"slug_ville":"milhavet","departement_id":0,"code_postal":"81130","population":102,"superficie_km2":"444.19","latitude_centre":"44.0335","longitude_centre":"2.0279","distance_km":9.1},{"id":13400,"code_insee":"12210","nom_standard":"Saint-André-de-Najac","nom_a":null,"nom_de":null,"slug_ville":"saint-andre-de-najac","departement_id":0,"code_postal":"12270","population":456,"superficie_km2":"2530.88","latitude_centre":"44.1797","longitude_centre":"2.0209","distance_km":9.49},{"id":0,"code_insee":"81080","nom_standard":"Donnazac","nom_a":null,"nom_de":null,"slug_ville":"donnazac","departement_id":0,"code_postal":"81170","population":56,"superficie_km2":"476.07","latitude_centre":"44.013","longitude_centre":"1.946","distance_km":10.19}]}