{"ville":{"id":30177,"code_insee":"70089","nom_standard":"Bourguignon-lès-Morey","nom_a":null,"nom_de":null,"slug_ville":"bourguignon-les-morey","departement_id":0,"code_postal":"70120","population":43,"superficie_km2":"975.41","latitude_centre":"47.7046","longitude_centre":"5.708","dep_code":"70","dep_nom":"Haute-Saône","dep_slug":"haute-saone","reg_code":"27","reg_nom":"Bourgogne-Franche-Comté","reg_slug":"bourgogne-franche-comte"},"departement":{"code":"70","nom":"Haute-Saône","slug":"haute-saone"},"region":{"code":"27","nom":"Bourgogne-Franche-Comté","slug":"bourgogne-franche-comte"},"villes_proches":[{"id":24009,"code_insee":"52195","nom_standard":"Farincourt","nom_a":null,"nom_de":null,"slug_ville":"farincourt","departement_id":0,"code_postal":"52500","population":35,"superficie_km2":"503.75","latitude_centre":"47.6975","longitude_centre":"5.6812","distance_km":2.16},{"id":24265,"code_insee":"52546","nom_standard":"Voncourt","nom_a":null,"nom_de":null,"slug_ville":"voncourt","departement_id":0,"code_postal":"52500","population":17,"superficie_km2":"350.47","latitude_centre":"47.7172","longitude_centre":"5.6746","distance_km":2.86},{"id":0,"code_insee":"70135","nom_standard":"Charmes-Saint-Valbert","nom_a":null,"nom_de":null,"slug_ville":"charmes-saint-valbert","departement_id":0,"code_postal":"70120","population":32,"superficie_km2":"517.85","latitude_centre":"47.7317","longitude_centre":"5.7077","distance_km":3.01},{"id":0,"code_insee":"70373","nom_standard":"La Roche-Morey","nom_a":null,"nom_de":null,"slug_ville":"la-roche-morey","departement_id":0,"code_postal":"70120","population":297,"superficie_km2":"2966.22","latitude_centre":"47.6953","longitude_centre":"5.7552","distance_km":3.68},{"id":24231,"code_insee":"52503","nom_standard":"Valleroy","nom_a":null,"nom_de":null,"slug_ville":"valleroy","departement_id":0,"code_postal":"52500","population":24,"superficie_km2":"347.07","latitude_centre":"47.6972","longitude_centre":"5.6578","distance_km":3.85},{"id":0,"code_insee":"70350","nom_standard":"Molay","nom_a":null,"nom_de":null,"slug_ville":"molay","departement_id":0,"code_postal":"70120","population":66,"superficie_km2":"775.26","latitude_centre":"47.7356","longitude_centre":"5.742","distance_km":4.28},{"id":0,"code_insee":"70568","nom_standard":"Villers-Vaudey","nom_a":null,"nom_de":null,"slug_ville":"villers-vaudey","departement_id":0,"code_postal":"70120","population":58,"superficie_km2":"554.24","latitude_centre":"47.6754","longitude_centre":"5.7557","distance_km":4.83},{"id":24203,"code_insee":"52467","nom_standard":"Savigny","nom_a":null,"nom_de":null,"slug_ville":"savigny","departement_id":0,"code_postal":"52500","population":58,"superficie_km2":"611.05","latitude_centre":"47.7182","longitude_centre":"5.6448","distance_km":4.96},{"id":0,"code_insee":"70450","nom_standard":"La Rochelle","nom_a":null,"nom_de":null,"slug_ville":"la-rochelle","departement_id":0,"code_postal":"70120","population":40,"superficie_km2":"427.32","latitude_centre":"47.7515","longitude_centre":"5.7258","distance_km":5.38},{"id":24163,"code_insee":"52406","nom_standard":"Pressigny","nom_a":null,"nom_de":null,"slug_ville":"pressigny","departement_id":0,"code_postal":"52500","population":195,"superficie_km2":"2237.87","latitude_centre":"47.7465","longitude_centre":"5.6687","distance_km":5.51},{"id":24031,"code_insee":"52223","nom_standard":"Gilley","nom_a":null,"nom_de":null,"slug_ville":"gilley","departement_id":0,"code_postal":"52500","population":66,"superficie_km2":"1048.68","latitude_centre":"47.6917","longitude_centre":"5.6329","distance_km":5.8},{"id":0,"code_insee":"70251","nom_standard":"Francourt","nom_a":null,"nom_de":null,"slug_ville":"francourt","departement_id":0,"code_postal":"70180","population":100,"superficie_km2":"708.20","latitude_centre":"47.6526","longitude_centre":"5.7321","distance_km":6.06},{"id":0,"code_insee":"70153","nom_standard":"Cintrey","nom_a":null,"nom_de":null,"slug_ville":"cintrey","departement_id":0,"code_postal":"70120","population":96,"superficie_km2":"621.47","latitude_centre":"47.7532","longitude_centre":"5.7498","distance_km":6.24},{"id":0,"code_insee":"70247","nom_standard":"Fouvent-Saint-Andoche","nom_a":null,"nom_de":null,"slug_ville":"fouvent-saint-andoche","departement_id":0,"code_postal":"70600","population":197,"superficie_km2":"3499.60","latitude_centre":"47.6502","longitude_centre":"5.6637","distance_km":6.9},{"id":0,"code_insee":"70329","nom_standard":"Malvillers","nom_a":null,"nom_de":null,"slug_ville":"malvillers","departement_id":0,"code_postal":"70120","population":68,"superficie_km2":"717.11","latitude_centre":"47.7358","longitude_centre":"5.7877","distance_km":6.9},{"id":0,"code_insee":"70237","nom_standard":"Fleurey-lès-Lavoncourt","nom_a":null,"nom_de":null,"slug_ville":"fleurey-les-lavoncourt","departement_id":0,"code_postal":"70120","population":110,"superficie_km2":"936.40","latitude_centre":"47.6616","longitude_centre":"5.7818","distance_km":7.31},{"id":0,"code_insee":"70430","nom_standard":"La Quarte","nom_a":null,"nom_de":null,"slug_ville":"la-quarte","departement_id":0,"code_postal":"70120","population":61,"superficie_km2":"315.87","latitude_centre":"47.7717","longitude_centre":"5.6997","distance_km":7.49},{"id":0,"code_insee":"70442","nom_standard":"Renaucourt","nom_a":null,"nom_de":null,"slug_ville":"renaucourt","departement_id":0,"code_postal":"70120","population":116,"superficie_km2":"614.52","latitude_centre":"47.6412","longitude_centre":"5.7648","distance_km":8.23},{"id":0,"code_insee":"70574","nom_standard":"Volon","nom_a":null,"nom_de":null,"slug_ville":"volon","departement_id":0,"code_postal":"70180","population":59,"superficie_km2":"567.45","latitude_centre":"47.6261","longitude_centre":"5.7389","distance_km":9.03},{"id":0,"code_insee":"70448","nom_standard":"Roche-et-Raucourt","nom_a":null,"nom_de":null,"slug_ville":"roche-et-raucourt","departement_id":0,"code_postal":"70180","population":153,"superficie_km2":"1340.63","latitude_centre":"47.621","longitude_centre":"5.7075","distance_km":9.3}]}