{"ville":{"id":5705,"code_insee":"59099","nom_standard":"Bousies","nom_a":null,"nom_de":null,"slug_ville":"bousies","departement_id":660,"code_postal":"59222","population":1771,"superficie_km2":"10.00","latitude_centre":"50.1510010","longitude_centre":"3.6150000","dep_code":"59","dep_nom":"Nord","dep_slug":"nord","reg_code":"09","reg_nom":"Hauts-de-France","reg_slug":"hauts-de-france"},"departement":{"code":"59","nom":"Nord","slug":"nord"},"region":{"code":"09","nom":"Hauts-de-France","slug":"hauts-de-france"},"villes_proches":[{"id":5905,"code_insee":"59464","nom_standard":"Poix-du-Nord","nom_a":null,"nom_de":null,"slug_ville":"poix-du-nord","departement_id":660,"code_postal":"59218","population":2185,"superficie_km2":"9.00","latitude_centre":"50.1850014","longitude_centre":"3.6170001","distance_km":3.78},{"id":5754,"code_insee":"59194","nom_standard":"Englefontaine","nom_a":null,"nom_de":null,"slug_ville":"englefontaine","departement_id":660,"code_postal":"59530","population":1281,"superficie_km2":"5.00","latitude_centre":"50.1930008","longitude_centre":"3.6420000","distance_km":5.05},{"id":5835,"code_insee":"59331","nom_standard":"Landrecies","nom_a":null,"nom_de":null,"slug_ville":"landrecies","departement_id":660,"code_postal":"59550","population":3435,"superficie_km2":"22.00","latitude_centre":"50.1199989","longitude_centre":"3.6880000","distance_km":6.24},{"id":5963,"code_insee":"59571","nom_standard":"Solesmes","nom_a":null,"nom_de":null,"slug_ville":"solesmes","departement_id":660,"code_postal":"59730","population":4249,"superficie_km2":"23.00","latitude_centre":"50.1720009","longitude_centre":"3.5200000","distance_km":7.16},{"id":5891,"code_insee":"59430","nom_standard":"Neuvilly","nom_a":null,"nom_de":null,"slug_ville":"neuvilly","departement_id":660,"code_postal":"59360","population":1093,"superficie_km2":"13.00","latitude_centre":"50.1349983","longitude_centre":"3.5100000","distance_km":7.69},{"id":5727,"code_insee":"59136","nom_standard":"Le Cateau-Cambrésis","nom_a":null,"nom_de":null,"slug_ville":"le-cateau-cambresis","departement_id":660,"code_postal":"59360","population":6929,"superficie_km2":"27.00","latitude_centre":"50.0919991","longitude_centre":"3.5390000","distance_km":8.51},{"id":5865,"code_insee":"59384","nom_standard":"Maroilles","nom_a":null,"nom_de":null,"slug_ville":"maroilles","departement_id":660,"code_postal":"59550","population":1441,"superficie_km2":"22.00","latitude_centre":"50.1320000","longitude_centre":"3.7579999","distance_km":10.41},{"id":5916,"code_insee":"59481","nom_standard":"Le Quesnoy","nom_a":null,"nom_de":null,"slug_ville":"le-quesnoy","departement_id":660,"code_postal":"59530","population":4852,"superficie_km2":"14.00","latitude_centre":"50.2509995","longitude_centre":"3.6250000","distance_km":11.14},{"id":5989,"code_insee":"59614","nom_standard":"Viesly","nom_a":null,"nom_de":null,"slug_ville":"viesly","departement_id":660,"code_postal":"59271","population":1379,"superficie_km2":"11.00","latitude_centre":"50.1570015","longitude_centre":"3.4560001","distance_km":11.35},{"id":5992,"code_insee":"59619","nom_standard":"Villereau","nom_a":null,"nom_de":null,"slug_ville":"villereau","departement_id":660,"code_postal":"59530","population":1057,"superficie_km2":"6.00","latitude_centre":"50.2480011","longitude_centre":"3.6810000","distance_km":11.76},{"id":5809,"code_insee":"59289","nom_standard":"Haussy","nom_a":null,"nom_de":null,"slug_ville":"haussy","departement_id":660,"code_postal":"59294","population":1492,"superficie_km2":"16.00","latitude_centre":"50.2220001","longitude_centre":"3.4800000","distance_km":12.44},{"id":5950,"code_insee":"59545","nom_standard":"Saint-Souplet","nom_a":null,"nom_de":null,"slug_ville":"saint-souplet","departement_id":660,"code_postal":"59360","population":1203,"superficie_km2":"13.00","latitude_centre":"50.0530014","longitude_centre":"3.5160000","distance_km":12.98},{"id":5910,"code_insee":"59474","nom_standard":"Prisches","nom_a":null,"nom_de":null,"slug_ville":"prisches","departement_id":660,"code_postal":"59550","population":1043,"superficie_km2":"23.00","latitude_centre":"50.0779991","longitude_centre":"3.7590001","distance_km":13.09},{"id":5919,"code_insee":"59485","nom_standard":"Quiévy","nom_a":null,"nom_de":null,"slug_ville":"quievy","departement_id":660,"code_postal":"59214","population":1801,"superficie_km2":"7.00","latitude_centre":"50.1629982","longitude_centre":"3.4219999","distance_km":13.81},{"id":5690,"code_insee":"59068","nom_standard":"Berlaimont","nom_a":null,"nom_de":null,"slug_ville":"berlaimont","departement_id":660,"code_postal":"59145","population":3180,"superficie_km2":"13.00","latitude_centre":"50.2060013","longitude_centre":"3.7939999","distance_km":14.14},{"id":5793,"code_insee":"59265","nom_standard":"Gommegnies","nom_a":null,"nom_de":null,"slug_ville":"gommegnies","departement_id":660,"code_postal":"59144","population":2300,"superficie_km2":"16.00","latitude_centre":"50.2649994","longitude_centre":"3.7079999","distance_km":14.3},{"id":5984,"code_insee":"59608","nom_standard":"Vendegies-sur-Écaillon","nom_a":null,"nom_de":null,"slug_ville":"vendegies-sur-ecaillon","departement_id":660,"code_postal":"59213","population":1118,"superficie_km2":"7.00","latitude_centre":"50.2599983","longitude_centre":"3.5079999","distance_km":14.31},{"id":5728,"code_insee":"59139","nom_standard":"Caudry","nom_a":null,"nom_de":null,"slug_ville":"caudry","departement_id":660,"code_postal":"59540","population":14070,"superficie_km2":"13.00","latitude_centre":"50.1189995","longitude_centre":"3.4189999","distance_km":14.42},{"id":5946,"code_insee":"59533","nom_standard":"Saint-Hilaire-lez-Cambrai","nom_a":null,"nom_de":null,"slug_ville":"saint-hilaire-lez-cambrai","departement_id":660,"code_postal":"59292","population":1555,"superficie_km2":"7.00","latitude_centre":"50.1809998","longitude_centre":"3.4170001","distance_km":14.49},{"id":5692,"code_insee":"59074","nom_standard":"Bertry","nom_a":null,"nom_de":null,"slug_ville":"bertry","departement_id":660,"code_postal":"59980","population":2148,"superficie_km2":"9.00","latitude_centre":"50.0820007","longitude_centre":"3.4400001","distance_km":14.65}]}