{"ville":{"id":32804,"code_insee":"80126","nom_standard":"Bouttencourt","nom_a":null,"nom_de":null,"slug_ville":"bouttencourt","departement_id":0,"code_postal":"80220","population":927,"superficie_km2":"774.55","latitude_centre":"49.9537","longitude_centre":"1.6131","dep_code":"80","dep_nom":"Somme","dep_slug":"somme","reg_code":"32","reg_nom":"Hauts-de-France","reg_slug":"hauts-de-france"},"departement":{"code":"80","nom":"Somme","slug":"somme"},"region":{"code":"32","nom":"Hauts-de-France","slug":"hauts-de-france"},"villes_proches":[{"id":32798,"code_insee":"80120","nom_standard":"Bouillancourt-en-Séry","nom_a":null,"nom_de":null,"slug_ville":"bouillancourt-en-sery","departement_id":0,"code_postal":"80220","population":540,"superficie_km2":"1612.89","latitude_centre":"49.959","longitude_centre":"1.6302","distance_km":1.36},{"id":31900,"code_insee":"76441","nom_standard":"Monchaux-Soreng","nom_a":null,"nom_de":null,"slug_ville":"monchaux-soreng","departement_id":0,"code_postal":"76340","population":607,"superficie_km2":"1013.20","latitude_centre":"49.9454","longitude_centre":"1.5789","distance_km":2.62},{"id":31957,"code_insee":"76528","nom_standard":"Rieux","nom_a":null,"nom_de":null,"slug_ville":"rieux","departement_id":0,"code_postal":"76340","population":583,"superficie_km2":"699.94","latitude_centre":"49.9231","longitude_centre":"1.5809","distance_km":4.11},{"id":0,"code_insee":"80767","nom_standard":"Le Translay","nom_a":null,"nom_de":null,"slug_ville":"le-translay","departement_id":0,"code_postal":"80140","population":234,"superficie_km2":"561.81","latitude_centre":"49.9735","longitude_centre":"1.6631","distance_km":4.2},{"id":0,"code_insee":"80760","nom_standard":"Tilloy-Floriville","nom_a":null,"nom_de":null,"slug_ville":"tilloy-floriville","departement_id":0,"code_postal":"80220","population":353,"superficie_km2":"807.82","latitude_centre":"49.9915","longitude_centre":"1.5977","distance_km":4.35},{"id":0,"code_insee":"76101","nom_standard":"Blangy-sur-Bresle","nom_a":null,"nom_de":null,"slug_ville":"blangy-sur-bresle","departement_id":0,"code_postal":"76340","population":2819,"superficie_km2":"1742.58","latitude_centre":"49.9163","longitude_centre":"1.6316","distance_km":4.36},{"id":0,"code_insee":"80343","nom_standard":"Framicourt","nom_a":null,"nom_de":null,"slug_ville":"framicourt","departement_id":0,"code_postal":"80140","population":151,"superficie_km2":"501.62","latitude_centre":"49.9543","longitude_centre":"1.676","distance_km":4.5},{"id":0,"code_insee":"80587","nom_standard":"Neslette","nom_a":null,"nom_de":null,"slug_ville":"neslette","departement_id":0,"code_postal":"80140","population":89,"superficie_km2":"204.33","latitude_centre":"49.9261","longitude_centre":"1.6639","distance_km":4.76},{"id":31631,"code_insee":"76059","nom_standard":"Bazinval","nom_a":null,"nom_de":null,"slug_ville":"bazinval","departement_id":0,"code_postal":"76340","population":403,"superficie_km2":"714.06","latitude_centre":"49.9481","longitude_centre":"1.5457","distance_km":4.86},{"id":0,"code_insee":"80362","nom_standard":"Frettemeule","nom_a":null,"nom_de":null,"slug_ville":"frettemeule","departement_id":0,"code_postal":"80220","population":296,"superficie_km2":"745.89","latitude_centre":"49.9996","longitude_centre":"1.6383","distance_km":5.41},{"id":0,"code_insee":"80663","nom_standard":"Rambures","nom_a":null,"nom_de":null,"slug_ville":"rambures","departement_id":0,"code_postal":"80140","population":379,"superficie_km2":"992.01","latitude_centre":"49.9406","longitude_centre":"1.6904","distance_km":5.72},{"id":0,"code_insee":"80373","nom_standard":"Gamaches","nom_a":null,"nom_de":null,"slug_ville":"gamaches","departement_id":0,"code_postal":"80220","population":2397,"superficie_km2":"987.75","latitude_centre":"49.9977","longitude_centre":"1.5629","distance_km":6.07},{"id":31863,"code_insee":"76394","nom_standard":"Longroy","nom_a":null,"nom_de":null,"slug_ville":"longroy","departement_id":0,"code_postal":"76260","population":637,"superficie_km2":"533.91","latitude_centre":"49.9809","longitude_centre":"1.5392","distance_km":6.09},{"id":0,"code_insee":"80500","nom_standard":"Maisnières","nom_a":null,"nom_de":null,"slug_ville":"maisnieres","departement_id":0,"code_postal":"80220","population":472,"superficie_km2":"1272.40","latitude_centre":"50.0139","longitude_centre":"1.6132","distance_km":6.69},{"id":0,"code_insee":"80809","nom_standard":"Vismes","nom_a":null,"nom_de":null,"slug_ville":"vismes","departement_id":0,"code_postal":"80140","population":474,"superficie_km2":"1360.39","latitude_centre":"50.0004","longitude_centre":"1.6749","distance_km":6.82},{"id":31912,"code_insee":"76460","nom_standard":"Nesle-Normandeuse","nom_a":null,"nom_de":null,"slug_ville":"nesle-normandeuse","departement_id":0,"code_postal":"76340","population":503,"superficie_km2":"903.28","latitude_centre":"49.9003","longitude_centre":"1.6631","distance_km":6.93},{"id":31935,"code_insee":"76500","nom_standard":"Pierrecourt","nom_a":null,"nom_de":null,"slug_ville":"pierrecourt","departement_id":0,"code_postal":"76340","population":474,"superficie_km2":"960.70","latitude_centre":"49.8857","longitude_centre":"1.6369","distance_km":7.75},{"id":0,"code_insee":"80148","nom_standard":"Buigny-lès-Gamaches","nom_a":null,"nom_de":null,"slug_ville":"buigny-les-gamaches","departement_id":0,"code_postal":"80220","population":397,"superficie_km2":"481.30","latitude_centre":"50.0182","longitude_centre":"1.5679","distance_km":7.87},{"id":32031,"code_insee":"76645","nom_standard":"Saint-Riquier-en-Rivière","nom_a":null,"nom_de":null,"slug_ville":"saint-riquier-en-riviere","departement_id":0,"code_postal":"76340","population":159,"superficie_km2":"998.39","latitude_centre":"49.8841","longitude_centre":"1.5662","distance_km":8.44},{"id":32703,"code_insee":"80008","nom_standard":"Aigneville","nom_a":null,"nom_de":null,"slug_ville":"aigneville","departement_id":0,"code_postal":"80210","population":904,"superficie_km2":"1077.60","latitude_centre":"50.0356","longitude_centre":"1.6109","distance_km":9.11}]}