{"ville":{"id":23382,"code_insee":"51077","nom_standard":"Bouvancourt","nom_a":null,"nom_de":null,"slug_ville":"bouvancourt","departement_id":0,"code_postal":"51140","population":174,"superficie_km2":"1298.96","latitude_centre":"49.346","longitude_centre":"3.8575","dep_code":"51","dep_nom":"Marne","dep_slug":"marne","reg_code":"44","reg_nom":"Grand Est","reg_slug":"grand-est"},"departement":{"code":"51","nom":"Marne","slug":"marne"},"region":{"code":"44","nom":"Grand Est","slug":"grand-est"},"villes_proches":[{"id":10493,"code_insee":"02364","nom_standard":"Guyencourt","nom_a":null,"nom_de":null,"slug_ville":"guyencourt","departement_id":0,"code_postal":"02160","population":244,"superficie_km2":"423.28","latitude_centre":"49.3579","longitude_centre":"3.8412","distance_km":1.77},{"id":0,"code_insee":"51429","nom_standard":"Pévy","nom_a":null,"nom_de":null,"slug_ville":"pevy","departement_id":0,"code_postal":"51140","population":235,"superficie_km2":"729.64","latitude_centre":"49.3186","longitude_centre":"3.8531","distance_km":3.06},{"id":10280,"code_insee":"02104","nom_standard":"Bouffignereux","nom_a":null,"nom_de":null,"slug_ville":"bouffignereux","departement_id":0,"code_postal":"02160","population":96,"superficie_km2":"439.16","latitude_centre":"49.3776","longitude_centre":"3.847","distance_km":3.6},{"id":0,"code_insee":"51171","nom_standard":"Cormicy","nom_a":null,"nom_de":null,"slug_ville":"cormicy","departement_id":0,"code_postal":"51220","population":1500,"superficie_km2":"3174.66","latitude_centre":"49.3794","longitude_centre":"3.892","distance_km":4.48},{"id":0,"code_insee":"51604","nom_standard":"Ventelay","nom_a":null,"nom_de":null,"slug_ville":"ventelay","departement_id":0,"code_postal":"51140","population":253,"superficie_km2":"1473.86","latitude_centre":"49.3399","longitude_centre":"3.7953","distance_km":4.56},{"id":0,"code_insee":"51291","nom_standard":"Hermonville","nom_a":null,"nom_de":null,"slug_ville":"hermonville","departement_id":0,"code_postal":"51220","population":1419,"superficie_km2":"1331.09","latitude_centre":"49.3324","longitude_centre":"3.9171","distance_km":4.58},{"id":10748,"code_insee":"02656","nom_standard":"Roucy","nom_a":null,"nom_de":null,"slug_ville":"roucy","departement_id":0,"code_postal":"02160","population":365,"superficie_km2":"706.50","latitude_centre":"49.3787","longitude_centre":"3.8162","distance_km":4.71},{"id":0,"code_insee":"51102","nom_standard":"Cauroy-lès-Hermonville","nom_a":null,"nom_de":null,"slug_ville":"cauroy-les-hermonville","departement_id":0,"code_postal":"51220","population":514,"superficie_km2":"1024.36","latitude_centre":"49.3579","longitude_centre":"3.9212","distance_km":4.8},{"id":0,"code_insee":"51379","nom_standard":"Montigny-sur-Vesle","nom_a":null,"nom_de":null,"slug_ville":"montigny-sur-vesle","departement_id":0,"code_postal":"51140","population":569,"superficie_km2":"956.62","latitude_centre":"49.3118","longitude_centre":"3.7999","distance_km":5.65},{"id":0,"code_insee":"51448","nom_standard":"Prouilly","nom_a":null,"nom_de":null,"slug_ville":"prouilly","departement_id":0,"code_postal":"51140","population":549,"superficie_km2":"1038.52","latitude_centre":"49.2958","longitude_centre":"3.8446","distance_km":5.66},{"id":0,"code_insee":"51582","nom_standard":"Trigny","nom_a":null,"nom_de":null,"slug_ville":"trigny","departement_id":0,"code_postal":"51140","population":619,"superficie_km2":"1227.26","latitude_centre":"49.2975","longitude_centre":"3.8899","distance_km":5.88},{"id":10367,"code_insee":"02208","nom_standard":"Concevreux","nom_a":null,"nom_de":null,"slug_ville":"concevreux","departement_id":0,"code_postal":"02160","population":256,"superficie_km2":"1322.77","latitude_centre":"49.3781","longitude_centre":"3.7828","distance_km":6.48},{"id":0,"code_insee":"51145","nom_standard":"Chenay","nom_a":null,"nom_de":null,"slug_ville":"chenay","departement_id":0,"code_postal":"51140","population":221,"superficie_km2":"392.11","latitude_centre":"49.3022","longitude_centre":"3.9259","distance_km":6.95},{"id":0,"code_insee":"51308","nom_standard":"Jonchery-sur-Vesle","nom_a":null,"nom_de":null,"slug_ville":"jonchery-sur-vesle","departement_id":0,"code_postal":"51140","population":1822,"superficie_km2":"322.45","latitude_centre":"49.2875","longitude_centre":"3.8222","distance_km":6.99},{"id":10255,"code_insee":"02073","nom_standard":"Berry-au-Bac","nom_a":null,"nom_de":null,"slug_ville":"berry-au-bac","departement_id":0,"code_postal":"02190","population":722,"superficie_km2":"814.78","latitude_centre":"49.4076","longitude_centre":"3.8947","distance_km":7.36},{"id":10708,"code_insee":"02613","nom_standard":"Pontavert","nom_a":null,"nom_de":null,"slug_ville":"pontavert","departement_id":0,"code_postal":"02160","population":605,"superficie_km2":"1362.65","latitude_centre":"49.4189","longitude_centre":"3.8271","distance_km":8.4},{"id":0,"code_insee":"51391","nom_standard":"Muizon","nom_a":null,"nom_de":null,"slug_ville":"muizon","departement_id":0,"code_postal":"51140","population":2081,"superficie_km2":"712.40","latitude_centre":"49.2724","longitude_centre":"3.8851","distance_km":8.42},{"id":0,"code_insee":"51181","nom_standard":"Courcelles-Sapicourt","nom_a":null,"nom_de":null,"slug_ville":"courcelles-sapicourt","departement_id":0,"code_postal":"51140","population":396,"superficie_km2":"386.79","latitude_centre":"49.2685","longitude_centre":"3.8418","distance_km":8.69},{"id":0,"code_insee":"51081","nom_standard":"Branscourt","nom_a":null,"nom_de":null,"slug_ville":"branscourt","departement_id":0,"code_postal":"51140","population":308,"superficie_km2":"371.47","latitude_centre":"49.2701","longitude_centre":"3.8213","distance_km":8.84},{"id":10875,"code_insee":"02803","nom_standard":"La Ville-aux-Bois-lès-Pontavert","nom_a":null,"nom_de":null,"slug_ville":"la-ville-aux-bois-les-pontavert","departement_id":0,"code_postal":"02160","population":150,"superficie_km2":"846.00","latitude_centre":"49.4278","longitude_centre":"3.8536","distance_km":9.1}]}