{"ville":{"id":23384,"code_insee":"51079","nom_standard":"Bouzy","nom_a":null,"nom_de":null,"slug_ville":"bouzy","departement_id":0,"code_postal":"51150","population":825,"superficie_km2":"624.35","latitude_centre":"49.0861","longitude_centre":"4.1297","dep_code":"51","dep_nom":"Marne","dep_slug":"marne","reg_code":"44","reg_nom":"Grand Est","reg_slug":"grand-est"},"departement":{"code":"51","nom":"Marne","slug":"marne"},"region":{"code":"44","nom":"Grand Est","slug":"grand-est"},"villes_proches":[{"id":0,"code_insee":"51564","nom_standard":"Val de Livre","nom_a":null,"nom_de":null,"slug_ville":"val-de-livre","departement_id":0,"code_postal":"51150","population":586,"superficie_km2":"2229.87","latitude_centre":"49.105","longitude_centre":"4.1154","distance_km":2.35},{"id":23328,"code_insee":"51007","nom_standard":"Ambonnay","nom_a":null,"nom_de":null,"slug_ville":"ambonnay","departement_id":0,"code_postal":"51150","population":941,"superficie_km2":"1173.82","latitude_centre":"49.0926","longitude_centre":"4.1778","distance_km":3.58},{"id":0,"code_insee":"51576","nom_standard":"Tours-sur-Marne","nom_a":null,"nom_de":null,"slug_ville":"tours-sur-marne","departement_id":0,"code_postal":"51150","population":1360,"superficie_km2":"2320.61","latitude_centre":"49.0517","longitude_centre":"4.1258","distance_km":3.84},{"id":0,"code_insee":"51580","nom_standard":"Trépail","nom_a":null,"nom_de":null,"slug_ville":"trepail","departement_id":0,"code_postal":"51380","population":424,"superficie_km2":"835.74","latitude_centre":"49.1088","longitude_centre":"4.1815","distance_km":4.54},{"id":0,"code_insee":"51256","nom_standard":"Fontaine-sur-Ay","nom_a":null,"nom_de":null,"slug_ville":"fontaine-sur-ay","departement_id":0,"code_postal":"51160","population":316,"superficie_km2":"769.98","latitude_centre":"49.0915","longitude_centre":"4.065","distance_km":4.75},{"id":0,"code_insee":"51623","nom_standard":"Ville-en-Selve","nom_a":null,"nom_de":null,"slug_ville":"ville-en-selve","departement_id":0,"code_postal":"51500","population":296,"superficie_km2":"890.41","latitude_centre":"49.1241","longitude_centre":"4.0778","distance_km":5.67},{"id":0,"code_insee":"51161","nom_standard":"Condé-sur-Marne","nom_a":null,"nom_de":null,"slug_ville":"conde-sur-marne","departement_id":0,"code_postal":"51150","population":747,"superficie_km2":"1232.88","latitude_centre":"49.0459","longitude_centre":"4.1827","distance_km":5.91},{"id":23344,"code_insee":"51028","nom_standard":"Avenay-Val-d'Or","nom_a":null,"nom_de":null,"slug_ville":"avenay-val-d-or","departement_id":0,"code_postal":"51160","population":956,"superficie_km2":"1242.17","latitude_centre":"49.0743","longitude_centre":"4.0453","distance_km":6.29},{"id":0,"code_insee":"51301","nom_standard":"Isse","nom_a":null,"nom_de":null,"slug_ville":"isse","departement_id":0,"code_postal":"51150","population":112,"superficie_km2":"1093.84","latitude_centre":"49.0689","longitude_centre":"4.2151","distance_km":6.51},{"id":0,"code_insee":"51636","nom_standard":"Villers-Marmery","nom_a":null,"nom_de":null,"slug_ville":"villers-marmery","departement_id":0,"code_postal":"51380","population":579,"superficie_km2":"1067.41","latitude_centre":"49.1306","longitude_centre":"4.1964","distance_km":6.93},{"id":0,"code_insee":"51614","nom_standard":"Verzy","nom_a":null,"nom_de":null,"slug_ville":"verzy","departement_id":0,"code_postal":"51380","population":961,"superficie_km2":"1331.53","latitude_centre":"49.1451","longitude_centre":"4.1619","distance_km":6.97},{"id":0,"code_insee":"51030","nom_standard":"Aÿ-Champagne","nom_a":null,"nom_de":null,"slug_ville":"ay-champagne","departement_id":0,"code_postal":"51150","population":5103,"superficie_km2":"3209.75","latitude_centre":"49.0561","longitude_centre":"4.0414","distance_km":7.25},{"id":0,"code_insee":"51338","nom_standard":"Mailly-Champagne","nom_a":null,"nom_de":null,"slug_ville":"mailly-champagne","departement_id":0,"code_postal":"51500","population":617,"superficie_km2":"1015.73","latitude_centre":"49.1528","longitude_centre":"4.1123","distance_km":7.52},{"id":0,"code_insee":"51613","nom_standard":"Verzenay","nom_a":null,"nom_de":null,"slug_ville":"verzenay","departement_id":0,"code_postal":"51360","population":991,"superficie_km2":"1056.13","latitude_centre":"49.1588","longitude_centre":"4.1482","distance_km":8.2},{"id":0,"code_insee":"51333","nom_standard":"Ludes","nom_a":null,"nom_de":null,"slug_ville":"ludes","departement_id":0,"code_postal":"51500","population":687,"superficie_km2":"1227.31","latitude_centre":"49.1595","longitude_centre":"4.0841","distance_km":8.81},{"id":0,"code_insee":"51152","nom_standard":"Chigny-les-Roses","nom_a":null,"nom_de":null,"slug_ville":"chigny-les-roses","departement_id":0,"code_postal":"51500","population":521,"superficie_km2":"435.07","latitude_centre":"49.1514","longitude_centre":"4.0608","distance_km":8.82},{"id":0,"code_insee":"51434","nom_standard":"Plivot","nom_a":null,"nom_de":null,"slug_ville":"plivot","departement_id":0,"code_postal":"51150","population":755,"superficie_km2":"1269.02","latitude_centre":"49.0114","longitude_centre":"4.0767","distance_km":9.16},{"id":0,"code_insee":"51150","nom_standard":"Cherville","nom_a":null,"nom_de":null,"slug_ville":"cherville","departement_id":0,"code_postal":"51150","population":85,"superficie_km2":"381.39","latitude_centre":"49.0038","longitude_centre":"4.1523","distance_km":9.3},{"id":23338,"code_insee":"51018","nom_standard":"Athis","nom_a":null,"nom_de":null,"slug_ville":"athis","departement_id":0,"code_postal":"51150","population":885,"superficie_km2":"1686.04","latitude_centre":"49.0022","longitude_centre":"4.1302","distance_km":9.33},{"id":0,"code_insee":"51303","nom_standard":"Jâlons","nom_a":null,"nom_de":null,"slug_ville":"jalons","departement_id":0,"code_postal":"51150","population":549,"superficie_km2":"1025.70","latitude_centre":"49.0066","longitude_centre":"4.1752","distance_km":9.44}]}