{"ville":{"id":32812,"code_insee":"80135","nom_standard":"Bray-lès-Mareuil","nom_a":null,"nom_de":null,"slug_ville":"bray-les-mareuil","departement_id":0,"code_postal":"80580","population":249,"superficie_km2":"543.17","latitude_centre":"50.0512","longitude_centre":"1.8486","dep_code":"80","dep_nom":"Somme","dep_slug":"somme","reg_code":"32","reg_nom":"Hauts-de-France","reg_slug":"hauts-de-france"},"departement":{"code":"80","nom":"Somme","slug":"somme"},"region":{"code":"32","nom":"Hauts-de-France","slug":"hauts-de-france"},"villes_proches":[{"id":0,"code_insee":"80282","nom_standard":"Érondelle","nom_a":null,"nom_de":null,"slug_ville":"erondelle","departement_id":0,"code_postal":"80580","population":504,"superficie_km2":"399.24","latitude_centre":"50.0447","longitude_centre":"1.877","distance_km":2.15},{"id":0,"code_insee":"80512","nom_standard":"Mareuil-Caubert","nom_a":null,"nom_de":null,"slug_ville":"mareuil-caubert","departement_id":0,"code_postal":"80132","population":840,"superficie_km2":"913.88","latitude_centre":"50.0724","longitude_centre":"1.8315","distance_km":2.65},{"id":32738,"code_insee":"80051","nom_standard":"Bailleul","nom_a":null,"nom_de":null,"slug_ville":"bailleul","departement_id":0,"code_postal":"80490","population":253,"superficie_km2":"1404.70","latitude_centre":"50.0248","longitude_centre":"1.8547","distance_km":2.97},{"id":0,"code_insee":"80268","nom_standard":"Épagne-Épagnette","nom_a":null,"nom_de":null,"slug_ville":"epagne-epagnette","departement_id":0,"code_postal":"80580","population":510,"superficie_km2":"683.49","latitude_centre":"50.0777","longitude_centre":"1.8654","distance_km":3.18},{"id":0,"code_insee":"80444","nom_standard":"Huchenneville","nom_a":null,"nom_de":null,"slug_ville":"huchenneville","departement_id":0,"code_postal":"80132","population":679,"superficie_km2":"1150.71","latitude_centre":"50.0498","longitude_centre":"1.8025","distance_km":3.3},{"id":0,"code_insee":"80262","nom_standard":"Eaucourt-sur-Somme","nom_a":null,"nom_de":null,"slug_ville":"eaucourt-sur-somme","departement_id":0,"code_postal":"80580","population":357,"superficie_km2":"443.12","latitude_centre":"50.0708","longitude_centre":"1.8848","distance_km":3.38},{"id":0,"code_insee":"80476","nom_standard":"Liercourt","nom_a":null,"nom_de":null,"slug_ville":"liercourt","departement_id":0,"code_postal":"80580","population":327,"superficie_km2":"551.31","latitude_centre":"50.0329","longitude_centre":"1.8989","distance_km":4.13},{"id":0,"code_insee":"80482","nom_standard":"Limeux","nom_a":null,"nom_de":null,"slug_ville":"limeux","departement_id":0,"code_postal":"80490","population":142,"superficie_km2":"862.03","latitude_centre":"50.0171","longitude_centre":"1.8086","distance_km":4.75},{"id":0,"code_insee":"80635","nom_standard":"Pont-Remy","nom_a":null,"nom_de":null,"slug_ville":"pont-remy","departement_id":0,"code_postal":"80580","population":1438,"superficie_km2":"999.80","latitude_centre":"50.0628","longitude_centre":"1.917","distance_km":5.05},{"id":32758,"code_insee":"80076","nom_standard":"Béhen","nom_a":null,"nom_de":null,"slug_ville":"behen","departement_id":0,"code_postal":"80870","population":500,"superficie_km2":"982.84","latitude_centre":"50.0494","longitude_centre":"1.7636","distance_km":6.07},{"id":0,"code_insee":"80836","nom_standard":"Yonval","nom_a":null,"nom_de":null,"slug_ville":"yonval","departement_id":0,"code_postal":"80132","population":243,"superficie_km2":"398.73","latitude_centre":"50.0902","longitude_centre":"1.7855","distance_km":6.25},{"id":0,"code_insee":"80779","nom_standard":"Vauchelles-les-Quesnoy","nom_a":null,"nom_de":null,"slug_ville":"vauchelles-les-quesnoy","departement_id":0,"code_postal":"80132","population":815,"superficie_km2":"619.66","latitude_centre":"50.1019","longitude_centre":"1.8879","distance_km":6.3},{"id":0,"code_insee":"80736","nom_standard":"Sorel-en-Vimeu","nom_a":null,"nom_de":null,"slug_ville":"sorel-en-vimeu","departement_id":0,"code_postal":"80490","population":235,"superficie_km2":"409.74","latitude_centre":"50.0126","longitude_centre":"1.9131","distance_km":6.3},{"id":0,"code_insee":"80372","nom_standard":"Frucourt","nom_a":null,"nom_de":null,"slug_ville":"frucourt","departement_id":0,"code_postal":"80490","population":121,"superficie_km2":"519.86","latitude_centre":"49.9988","longitude_centre":"1.8125","distance_km":6.37},{"id":32760,"code_insee":"80078","nom_standard":"Bellancourt","nom_a":null,"nom_de":null,"slug_ville":"bellancourt","departement_id":0,"code_postal":"80132","population":494,"superficie_km2":"609.65","latitude_centre":"50.0933","longitude_centre":"1.9119","distance_km":6.51},{"id":0,"code_insee":"80406","nom_standard":"Hallencourt","nom_a":null,"nom_de":null,"slug_ville":"hallencourt","departement_id":0,"code_postal":"80490","population":1351,"superficie_km2":"2059.18","latitude_centre":"49.9966","longitude_centre":"1.8821","distance_km":6.53},{"id":0,"code_insee":"80001","nom_standard":"Abbeville","nom_a":null,"nom_de":null,"slug_ville":"abbeville","departement_id":0,"code_postal":"80100","population":22395,"superficie_km2":"2624.09","latitude_centre":"50.1101","longitude_centre":"1.8319","distance_km":6.66},{"id":0,"code_insee":"80196","nom_standard":"Citerne","nom_a":null,"nom_de":null,"slug_ville":"citerne","departement_id":0,"code_postal":"80490","population":240,"superficie_km2":"644.86","latitude_centre":"49.9788","longitude_centre":"1.8153","distance_km":8.39},{"id":0,"code_insee":"80529","nom_standard":"Mérélessart","nom_a":null,"nom_de":null,"slug_ville":"merelessart","departement_id":0,"code_postal":"80490","population":183,"superficie_km2":"375.08","latitude_centre":"49.9717","longitude_centre":"1.8482","distance_km":8.84},{"id":0,"code_insee":"80171","nom_standard":"Caours","nom_a":null,"nom_de":null,"slug_ville":"caours","departement_id":0,"code_postal":"80132","population":548,"superficie_km2":"615.83","latitude_centre":"50.1306","longitude_centre":"1.8812","distance_km":9.13}]}