{"ville":{"id":3218,"code_insee":"35037","nom_standard":"Bréal-sous-Montfort","nom_a":null,"nom_de":null,"slug_ville":"breal-sous-montfort","departement_id":636,"code_postal":"35310","population":6469,"superficie_km2":"34.00","latitude_centre":"48.0449982","longitude_centre":"-1.8660001","dep_code":"35","dep_nom":"Ille-et-Vilaine","dep_slug":"ille-et-vilaine","reg_code":"03","reg_nom":"Bretagne","reg_slug":"bretagne"},"departement":{"code":"35","nom":"Ille-et-Vilaine","slug":"ille-et-vilaine"},"region":{"code":"03","nom":"Bretagne","slug":"bretagne"},"villes_proches":[{"id":3270,"code_insee":"35123","nom_standard":"Goven","nom_a":null,"nom_de":null,"slug_ville":"goven","departement_id":636,"code_postal":"35580","population":4309,"superficie_km2":"40.00","latitude_centre":"48.0089989","longitude_centre":"-1.8380001","distance_km":4.51},{"id":3317,"code_insee":"35196","nom_standard":"Mordelles","nom_a":null,"nom_de":null,"slug_ville":"mordelles","departement_id":636,"code_postal":"35310","population":7658,"superficie_km2":"30.00","latitude_centre":"48.0859985","longitude_centre":"-1.8420000","distance_km":4.9},{"id":3394,"code_insee":"35319","nom_standard":"Saint-Thurial","nom_a":null,"nom_de":null,"slug_ville":"saint-thurial","departement_id":636,"code_postal":"35310","population":2152,"superficie_km2":"18.00","latitude_centre":"48.0340004","longitude_centre":"-1.9400001","distance_km":5.64},{"id":3409,"code_insee":"35351","nom_standard":"Le Verger","nom_a":null,"nom_de":null,"slug_ville":"le-verger","departement_id":636,"code_postal":"35160","population":1419,"superficie_km2":"7.00","latitude_centre":"48.0660019","longitude_centre":"-1.9370000","distance_km":5.77},{"id":3240,"code_insee":"35076","nom_standard":"Chavagne","nom_a":null,"nom_de":null,"slug_ville":"chavagne","departement_id":636,"code_postal":"35310","population":4415,"superficie_km2":"12.00","latitude_centre":"48.0559998","longitude_centre":"-1.7860000","distance_km":6.07},{"id":3400,"code_insee":"35331","nom_standard":"Talensac","nom_a":null,"nom_de":null,"slug_ville":"talensac","departement_id":636,"code_postal":"35160","population":2516,"superficie_km2":"22.00","latitude_centre":"48.0909996","longitude_centre":"-1.9260000","distance_km":6.79},{"id":3205,"code_insee":"35016","nom_standard":"Baulon","nom_a":null,"nom_de":null,"slug_ville":"baulon","departement_id":636,"code_postal":"35580","population":2197,"superficie_km2":"25.00","latitude_centre":"47.9949989","longitude_centre":"-1.9280000","distance_km":7.22},{"id":3243,"code_insee":"35080","nom_standard":"Cintré","nom_a":null,"nom_de":null,"slug_ville":"cintre","departement_id":636,"code_postal":"35310","population":2533,"superficie_km2":"8.00","latitude_centre":"48.1090012","longitude_centre":"-1.8870000","distance_km":7.29},{"id":3288,"code_insee":"35149","nom_standard":"Lassy","nom_a":null,"nom_de":null,"slug_ville":"lassy","departement_id":636,"code_postal":"35580","population":1802,"superficie_km2":"10.00","latitude_centre":"47.9720001","longitude_centre":"-1.8640000","distance_km":8.12},{"id":3348,"code_insee":"35240","nom_standard":"Le Rheu","nom_a":null,"nom_de":null,"slug_ville":"le-rheu","departement_id":636,"code_postal":"35650","population":9535,"superficie_km2":"19.00","latitude_centre":"48.0970001","longitude_centre":"-1.7819999","distance_km":8.51},{"id":3233,"code_insee":"35065","nom_standard":"La Chapelle-Thouarault","nom_a":null,"nom_de":null,"slug_ville":"la-chapelle-thouarault","departement_id":636,"code_postal":"35590","population":2252,"superficie_km2":"8.00","latitude_centre":"48.1250000","longitude_centre":"-1.8580000","distance_km":8.92},{"id":3222,"code_insee":"35047","nom_standard":"Bruz","nom_a":null,"nom_de":null,"slug_ville":"bruz","departement_id":636,"code_postal":"35170","population":19651,"superficie_km2":"30.00","latitude_centre":"48.0260010","longitude_centre":"-1.7480000","distance_km":9.02},{"id":3277,"code_insee":"35131","nom_standard":"L'Hermitage","nom_a":null,"nom_de":null,"slug_ville":"l-hermitage","departement_id":636,"code_postal":"35590","population":4692,"superficie_km2":"7.00","latitude_centre":"48.1220017","longitude_centre":"-1.8170000","distance_km":9.3},{"id":3310,"code_insee":"35187","nom_standard":"Monterfil","nom_a":null,"nom_de":null,"slug_ville":"monterfil","departement_id":636,"code_postal":"35160","population":1338,"superficie_km2":"17.00","latitude_centre":"48.0600014","longitude_centre":"-1.9900000","distance_km":9.37},{"id":3273,"code_insee":"35126","nom_standard":"Guichen","nom_a":null,"nom_de":null,"slug_ville":"guichen","departement_id":636,"code_postal":"35580","population":8995,"superficie_km2":"43.00","latitude_centre":"47.9650002","longitude_centre":"-1.7900000","distance_km":10.54},{"id":3406,"code_insee":"35340","nom_standard":"Treffendel","nom_a":null,"nom_de":null,"slug_ville":"treffendel","departement_id":636,"code_postal":"35380","population":1321,"superficie_km2":"19.00","latitude_centre":"48.0309982","longitude_centre":"-2.0079999","distance_km":10.67},{"id":3220,"code_insee":"35040","nom_standard":"Breteil","nom_a":null,"nom_de":null,"slug_ville":"breteil","departement_id":636,"code_postal":"35160","population":3670,"superficie_km2":"15.00","latitude_centre":"48.1380005","longitude_centre":"-1.9100000","distance_km":10.85},{"id":3372,"code_insee":"35281","nom_standard":"Saint-Jacques-de-la-Lande","nom_a":null,"nom_de":null,"slug_ville":"saint-jacques-de-la-lande","departement_id":636,"code_postal":"35136","population":13656,"superficie_km2":"12.00","latitude_centre":"48.0760002","longitude_centre":"-1.7240000","distance_km":11.1},{"id":3311,"code_insee":"35188","nom_standard":"Montfort-sur-Meu","nom_a":null,"nom_de":null,"slug_ville":"montfort-sur-meu","departement_id":636,"code_postal":"35160","population":6742,"superficie_km2":"14.00","latitude_centre":"48.1259995","longitude_centre":"-1.9630001","distance_km":11.53},{"id":3411,"code_insee":"35353","nom_standard":"Vezin-le-Coquet","nom_a":null,"nom_de":null,"slug_ville":"vezin-le-coquet","departement_id":636,"code_postal":"35132","population":6337,"superficie_km2":"8.00","latitude_centre":"48.1170006","longitude_centre":"-1.7500000","distance_km":11.76}]}