{"ville":{"id":12547,"code_insee":"10061","nom_standard":"Brévonnes","nom_a":null,"nom_de":null,"slug_ville":"brevonnes","departement_id":0,"code_postal":"10220","population":673,"superficie_km2":"2015.32","latitude_centre":"48.3478","longitude_centre":"4.4067","dep_code":"10","dep_nom":"Aube","dep_slug":"aube","reg_code":"44","reg_nom":"Grand Est","reg_slug":"grand-est"},"departement":{"code":"10","nom":"Aube","slug":"aube"},"region":{"code":"44","nom":"Grand Est","slug":"grand-est"},"villes_proches":[{"id":0,"code_insee":"10287","nom_standard":"Piney","nom_a":null,"nom_de":null,"slug_ville":"piney","departement_id":0,"code_postal":"10220","population":1387,"superficie_km2":"7147.84","latitude_centre":"48.3285","longitude_centre":"4.3585","distance_km":4.16},{"id":0,"code_insee":"10228","nom_standard":"Mathaux","nom_a":null,"nom_de":null,"slug_ville":"mathaux","departement_id":0,"code_postal":"10500","population":219,"superficie_km2":"1251.83","latitude_centre":"48.3556","longitude_centre":"4.4629","distance_km":4.24},{"id":0,"code_insee":"10283","nom_standard":"Pel-et-Der","nom_a":null,"nom_de":null,"slug_ville":"pel-et-der","departement_id":0,"code_postal":"10500","population":128,"superficie_km2":"1333.31","latitude_centre":"48.3937","longitude_centre":"4.4097","distance_km":5.11},{"id":0,"code_insee":"10313","nom_standard":"Radonvilliers","nom_a":null,"nom_de":null,"slug_ville":"radonvilliers","departement_id":0,"code_postal":"10500","population":320,"superficie_km2":"2345.54","latitude_centre":"48.339","longitude_centre":"4.4753","distance_km":5.16},{"id":12534,"code_insee":"10046","nom_standard":"Blaincourt-sur-Aube","nom_a":null,"nom_de":null,"slug_ville":"blaincourt-sur-aube","departement_id":0,"code_postal":"10500","population":97,"superficie_km2":"583.44","latitude_centre":"48.383","longitude_centre":"4.4544","distance_km":5.27},{"id":0,"code_insee":"10303","nom_standard":"Précy-Notre-Dame","nom_a":null,"nom_de":null,"slug_ville":"precy-notre-dame","departement_id":0,"code_postal":"10500","population":66,"superficie_km2":"459.28","latitude_centre":"48.3996","longitude_centre":"4.4377","distance_km":6.2},{"id":12511,"code_insee":"10019","nom_standard":"Val-d'Auzon","nom_a":null,"nom_de":null,"slug_ville":"val-d-auzon","departement_id":0,"code_postal":"10220","population":356,"superficie_km2":"2765.96","latitude_centre":"48.3973","longitude_centre":"4.3604","distance_km":6.48},{"id":0,"code_insee":"10138","nom_standard":"Épagne","nom_a":null,"nom_de":null,"slug_ville":"epagne","departement_id":0,"code_postal":"10500","population":126,"superficie_km2":"403.77","latitude_centre":"48.3977","longitude_centre":"4.4701","distance_km":7.26},{"id":0,"code_insee":"10123","nom_standard":"Dienville","nom_a":null,"nom_de":null,"slug_ville":"dienville","departement_id":0,"code_postal":"10500","population":813,"superficie_km2":"2055.37","latitude_centre":"48.3268","longitude_centre":"4.5102","distance_km":8.0},{"id":12499,"code_insee":"10005","nom_standard":"Amance","nom_a":null,"nom_de":null,"slug_ville":"amance","departement_id":0,"code_postal":"10140","population":245,"superficie_km2":"2306.53","latitude_centre":"48.2939","longitude_centre":"4.4822","distance_km":8.19},{"id":0,"code_insee":"10165","nom_standard":"Géraudot","nom_a":null,"nom_de":null,"slug_ville":"geraudot","departement_id":0,"code_postal":"10220","population":339,"superficie_km2":"1611.98","latitude_centre":"48.3017","longitude_centre":"4.3202","distance_km":8.2},{"id":0,"code_insee":"10304","nom_standard":"Précy-Saint-Martin","nom_a":null,"nom_de":null,"slug_ville":"precy-saint-martin","departement_id":0,"code_postal":"10500","population":177,"superficie_km2":"643.81","latitude_centre":"48.4155","longitude_centre":"4.4598","distance_km":8.49},{"id":0,"code_insee":"10200","nom_standard":"La Loge-aux-Chèvres","nom_a":null,"nom_de":null,"slug_ville":"la-loge-aux-chevres","departement_id":0,"code_postal":"10140","population":94,"superficie_km2":"286.90","latitude_centre":"48.2686","longitude_centre":"4.4078","distance_km":8.81},{"id":0,"code_insee":"10193","nom_standard":"Lesmont","nom_a":null,"nom_de":null,"slug_ville":"lesmont","departement_id":0,"code_postal":"10500","population":298,"superficie_km2":"1004.25","latitude_centre":"48.4287","longitude_centre":"4.4296","distance_km":9.15},{"id":0,"code_insee":"10243","nom_standard":"Molins-sur-Aube","nom_a":null,"nom_de":null,"slug_ville":"molins-sur-aube","departement_id":0,"code_postal":"10500","population":102,"superficie_km2":"623.91","latitude_centre":"48.4319","longitude_centre":"4.3872","distance_km":9.46},{"id":0,"code_insee":"10337","nom_standard":"Saint-Christophe-Dodinicourt","nom_a":null,"nom_de":null,"slug_ville":"saint-christophe-dodinicourt","departement_id":0,"code_postal":"10500","population":31,"superficie_km2":"500.42","latitude_centre":"48.4331","longitude_centre":"4.4757","distance_km":10.77},{"id":0,"code_insee":"10300","nom_standard":"Pougy","nom_a":null,"nom_de":null,"slug_ville":"pougy","departement_id":0,"code_postal":"10240","population":255,"superficie_km2":"897.44","latitude_centre":"48.437","longitude_centre":"4.3491","distance_km":10.79},{"id":0,"code_insee":"10423","nom_standard":"La Villeneuve-au-Chêne","nom_a":null,"nom_de":null,"slug_ville":"la-villeneuve-au-chene","departement_id":0,"code_postal":"10140","population":405,"superficie_km2":"1087.37","latitude_centre":"48.2485","longitude_centre":"4.391","distance_km":11.1},{"id":0,"code_insee":"10073","nom_standard":"Chalette-sur-Voire","nom_a":null,"nom_de":null,"slug_ville":"chalette-sur-voire","departement_id":0,"code_postal":"10500","population":134,"superficie_km2":"568.96","latitude_centre":"48.4521","longitude_centre":"4.4226","distance_km":11.66},{"id":0,"code_insee":"10078","nom_standard":"Champ-sur-Barse","nom_a":null,"nom_de":null,"slug_ville":"champ-sur-barse","departement_id":0,"code_postal":"10140","population":26,"superficie_km2":"714.66","latitude_centre":"48.2428","longitude_centre":"4.4097","distance_km":11.68}]}