{"ville":{"id":9515,"code_insee":"91111","nom_standard":"Briis-sous-Forges","nom_a":null,"nom_de":null,"slug_ville":"briis-sous-forges","departement_id":692,"code_postal":"91640","population":3380,"superficie_km2":"11.00","latitude_centre":"48.6269989","longitude_centre":"2.1310000","dep_code":"91","dep_nom":"Essonne","dep_slug":"essonne","reg_code":"10","reg_nom":"Île-de-France","reg_slug":"ile-de-france"},"departement":{"code":"91","nom":"Essonne","slug":"essonne"},"region":{"code":"10","nom":"Île-de-France","slug":"ile-de-france"},"villes_proches":[{"id":9543,"code_insee":"91243","nom_standard":"Fontenay-lès-Briis","nom_a":null,"nom_de":null,"slug_ville":"fontenay-les-briis","departement_id":692,"code_postal":"91640","population":2297,"superficie_km2":"10.00","latitude_centre":"48.6110001","longitude_centre":"2.1650000","distance_km":3.07},{"id":9609,"code_insee":"91634","nom_standard":"Vaugrigneuse","nom_a":null,"nom_de":null,"slug_ville":"vaugrigneuse","departement_id":692,"code_postal":"91640","population":1417,"superficie_km2":"6.00","latitude_centre":"48.6010017","longitude_centre":"2.1050000","distance_km":3.47},{"id":9545,"code_insee":"91249","nom_standard":"Forges-les-Bains","nom_a":null,"nom_de":null,"slug_ville":"forges-les-bains","departement_id":692,"code_postal":"91470","population":4132,"superficie_km2":"15.00","latitude_centre":"48.6199989","longitude_centre":"2.0829999","distance_km":3.61},{"id":9558,"code_insee":"91338","nom_standard":"Limours","nom_a":null,"nom_de":null,"slug_ville":"limours","departement_id":692,"code_postal":"91470","population":6431,"superficie_km2":"14.00","latitude_centre":"48.6459999","longitude_centre":"2.0810001","distance_km":4.24},{"id":9517,"code_insee":"91115","nom_standard":"Bruyères-le-Châtel","nom_a":null,"nom_de":null,"slug_ville":"bruyeres-le-chatel","departement_id":692,"code_postal":"91680","population":3584,"superficie_km2":"13.00","latitude_centre":"48.5999985","longitude_centre":"2.1870000","distance_km":5.1},{"id":9547,"code_insee":"91274","nom_standard":"Gometz-la-Ville","nom_a":null,"nom_de":null,"slug_ville":"gometz-la-ville","departement_id":692,"code_postal":"91400","population":1506,"superficie_km2":"10.00","latitude_centre":"48.6720009","longitude_centre":"2.1099999","distance_km":5.24},{"id":9596,"code_insee":"91568","nom_standard":"Saint-Maurice-Montcouronne","nom_a":null,"nom_de":null,"slug_ville":"saint-maurice-montcouronne","departement_id":692,"code_postal":"91530","population":1536,"superficie_km2":"9.00","latitude_centre":"48.5789986","longitude_centre":"2.1210001","distance_km":5.39},{"id":9548,"code_insee":"91275","nom_standard":"Gometz-le-Châtel","nom_a":null,"nom_de":null,"slug_ville":"gometz-le-chatel","departement_id":692,"code_postal":"91940","population":2615,"superficie_km2":"5.00","latitude_centre":"48.6749992","longitude_centre":"2.1429999","distance_km":5.41},{"id":9564,"code_insee":"91363","nom_standard":"Marcoussis","nom_a":null,"nom_de":null,"slug_ville":"marcoussis","departement_id":692,"code_postal":"91460","population":8430,"superficie_km2":"17.00","latitude_centre":"48.6459999","longitude_centre":"2.2060001","distance_km":5.9},{"id":9571,"code_insee":"91411","nom_standard":"Les Molières","nom_a":null,"nom_de":null,"slug_ville":"les-molieres","departement_id":692,"code_postal":"91470","population":1896,"superficie_km2":"7.00","latitude_centre":"48.6720009","longitude_centre":"2.0730000","distance_km":6.57},{"id":9496,"code_insee":"91017","nom_standard":"Angervilliers","nom_a":null,"nom_de":null,"slug_ville":"angervilliers","departement_id":692,"code_postal":"91470","population":1731,"superficie_km2":"9.00","latitude_centre":"48.5909996","longitude_centre":"2.0590000","distance_km":6.64},{"id":9512,"code_insee":"91105","nom_standard":"Breuillet","nom_a":null,"nom_de":null,"slug_ville":"breuillet","departement_id":692,"code_postal":"91650","population":8873,"superficie_km2":"7.00","latitude_centre":"48.5719986","longitude_centre":"2.1659999","distance_km":6.64},{"id":9579,"code_insee":"91461","nom_standard":"Ollainville","nom_a":null,"nom_de":null,"slug_ville":"ollainville","departement_id":692,"code_postal":"91340","population":5314,"superficie_km2":"11.00","latitude_centre":"48.6059990","longitude_centre":"2.2190001","distance_km":6.88},{"id":9625,"code_insee":"91692","nom_standard":"Les Ulis","nom_a":null,"nom_de":null,"slug_ville":"les-ulis","departement_id":692,"code_postal":"91940","population":25253,"superficie_km2":"5.00","latitude_centre":"48.6800003","longitude_centre":"2.1849999","distance_km":7.1},{"id":8331,"code_insee":"78087","nom_standard":"Bonnelles","nom_a":null,"nom_de":null,"slug_ville":"bonnelles","departement_id":679,"code_postal":"78830","population":2123,"superficie_km2":"11.00","latitude_centre":"48.6180000","longitude_centre":"2.0300000","distance_km":7.49},{"id":9607,"code_insee":"91630","nom_standard":"Le Val-Saint-Germain","nom_a":null,"nom_de":null,"slug_ville":"le-val-saint-germain","departement_id":692,"code_postal":"91530","population":1524,"superficie_km2":"13.00","latitude_centre":"48.5680008","longitude_centre":"2.0810001","distance_km":7.52},{"id":9518,"code_insee":"91122","nom_standard":"Bures-sur-Yvette","nom_a":null,"nom_de":null,"slug_ville":"bures-sur-yvette","departement_id":692,"code_postal":"91440","population":9254,"superficie_km2":"4.00","latitude_centre":"48.6930008","longitude_centre":"2.1580000","distance_km":7.6},{"id":9546,"code_insee":"91272","nom_standard":"Gif-sur-Yvette","nom_a":null,"nom_de":null,"slug_ville":"gif-sur-yvette","departement_id":692,"code_postal":"91190","population":22352,"superficie_km2":"12.00","latitude_centre":"48.6990013","longitude_centre":"2.1280000","distance_km":8.01},{"id":9513,"code_insee":"91106","nom_standard":"Breux-Jouy","nom_a":null,"nom_de":null,"slug_ville":"breux-jouy","departement_id":692,"code_postal":"91650","population":1281,"superficie_km2":"5.00","latitude_centre":"48.5550003","longitude_centre":"2.1600001","distance_km":8.29},{"id":9534,"code_insee":"91207","nom_standard":"Égly","nom_a":null,"nom_de":null,"slug_ville":"egly","departement_id":692,"code_postal":"91520","population":6756,"superficie_km2":"4.00","latitude_centre":"48.5779991","longitude_centre":"2.2210000","distance_km":8.57}]}