{"ville":{"id":16698,"code_insee":"25097","nom_standard":"Brognard","nom_a":null,"nom_de":null,"slug_ville":"brognard","departement_id":0,"code_postal":"25600","population":471,"superficie_km2":"290.11","latitude_centre":"47.5279","longitude_centre":"6.8653","dep_code":"25","dep_nom":"Doubs","dep_slug":"doubs","reg_code":"27","reg_nom":"Bourgogne-Franche-Comté","reg_slug":"bourgogne-franche-comte"},"departement":{"code":"25","nom":"Doubs","slug":"doubs"},"region":{"code":"27","nom":"Bourgogne-Franche-Comté","slug":"bourgogne-franche-comte"},"villes_proches":[{"id":0,"code_insee":"25614","nom_standard":"Vieux-Charmont","nom_a":null,"nom_de":null,"slug_ville":"vieux-charmont","departement_id":0,"code_postal":"25600","population":2786,"superficie_km2":"253.53","latitude_centre":"47.525","longitude_centre":"6.8431","distance_km":1.7},{"id":0,"code_insee":"25428","nom_standard":"Nommay","nom_a":null,"nom_de":null,"slug_ville":"nommay","departement_id":0,"code_postal":"25600","population":1596,"superficie_km2":"325.16","latitude_centre":"47.537","longitude_centre":"6.8454","distance_km":1.8},{"id":0,"code_insee":"25188","nom_standard":"Dambenois","nom_a":null,"nom_de":null,"slug_ville":"dambenois","departement_id":0,"code_postal":"25600","population":733,"superficie_km2":"328.37","latitude_centre":"47.5447","longitude_centre":"6.8735","distance_km":1.97},{"id":16637,"code_insee":"25011","nom_standard":"Allenjoie","nom_a":null,"nom_de":null,"slug_ville":"allenjoie","departement_id":0,"code_postal":"25490","population":719,"superficie_km2":"655.45","latitude_centre":"47.5351","longitude_centre":"6.8951","distance_km":2.38},{"id":0,"code_insee":"25228","nom_standard":"Étupes","nom_a":null,"nom_de":null,"slug_ville":"etupes","departement_id":0,"code_postal":"25460","population":3689,"superficie_km2":"997.80","latitude_centre":"47.5056","longitude_centre":"6.8734","distance_km":2.55},{"id":0,"code_insee":"25547","nom_standard":"Sochaux","nom_a":null,"nom_de":null,"slug_ville":"sochaux","departement_id":0,"code_postal":"25600","population":3721,"superficie_km2":"217.05","latitude_centre":"47.5146","longitude_centre":"6.8305","distance_km":3.0},{"id":0,"code_insee":"25237","nom_standard":"Fesches-le-Châtel","nom_a":null,"nom_de":null,"slug_ville":"fesches-le-chatel","departement_id":0,"code_postal":"25490","population":2129,"superficie_km2":"345.65","latitude_centre":"47.519","longitude_centre":"6.9034","distance_km":3.03},{"id":0,"code_insee":"25284","nom_standard":"Grand-Charmont","nom_a":null,"nom_de":null,"slug_ville":"grand-charmont","departement_id":0,"code_postal":"25200","population":5873,"superficie_km2":"450.40","latitude_centre":"47.5332","longitude_centre":"6.823","distance_km":3.23},{"id":0,"code_insee":"25230","nom_standard":"Exincourt","nom_a":null,"nom_de":null,"slug_ville":"exincourt","departement_id":0,"code_postal":"25400","population":3277,"superficie_km2":"349.75","latitude_centre":"47.5017","longitude_centre":"6.8371","distance_km":3.6},{"id":0,"code_insee":"25555","nom_standard":"Taillecourt","nom_a":null,"nom_de":null,"slug_ville":"taillecourt","departement_id":0,"code_postal":"25400","population":1144,"superficie_km2":"187.48","latitude_centre":"47.494","longitude_centre":"6.8527","distance_km":3.89},{"id":0,"code_insee":"90097","nom_standard":"Trévenans","nom_a":null,"nom_de":null,"slug_ville":"trevenans","departement_id":0,"code_postal":"90400","population":1310,"superficie_km2":"592.23","latitude_centre":"47.5663","longitude_centre":"6.8696","distance_km":4.28},{"id":0,"code_insee":"90022","nom_standard":"Châtenois-les-Forges","nom_a":null,"nom_de":null,"slug_ville":"chatenois-les-forges","departement_id":0,"code_postal":"90700","population":2608,"superficie_km2":"873.06","latitude_centre":"47.5602","longitude_centre":"6.834","distance_km":4.29},{"id":0,"code_insee":"90069","nom_standard":"Méziré","nom_a":null,"nom_de":null,"slug_ville":"mezire","departement_id":0,"code_postal":"90120","population":1255,"superficie_km2":"394.91","latitude_centre":"47.5318","longitude_centre":"6.9239","distance_km":4.42},{"id":0,"code_insee":"25190","nom_standard":"Dampierre-les-Bois","nom_a":null,"nom_de":null,"slug_ville":"dampierre-les-bois","departement_id":0,"code_postal":"25490","population":1615,"superficie_km2":"476.75","latitude_centre":"47.5073","longitude_centre":"6.9181","distance_km":4.58},{"id":0,"code_insee":"90017","nom_standard":"Bourogne","nom_a":null,"nom_de":null,"slug_ville":"bourogne","departement_id":0,"code_postal":"90140","population":1741,"superficie_km2":"1357.40","latitude_centre":"47.5623","longitude_centre":"6.9063","distance_km":4.91},{"id":0,"code_insee":"90011","nom_standard":"Bermont","nom_a":null,"nom_de":null,"slug_ville":"bermont","departement_id":0,"code_postal":"90400","population":358,"superficie_km2":"284.07","latitude_centre":"47.5757","longitude_centre":"6.8416","distance_km":5.6},{"id":0,"code_insee":"25196","nom_standard":"Dasle","nom_a":null,"nom_de":null,"slug_ville":"dasle","departement_id":0,"code_postal":"25230","population":1363,"superficie_km2":"561.40","latitude_centre":"47.4822","longitude_centre":"6.897","distance_km":5.61},{"id":0,"code_insee":"25031","nom_standard":"Audincourt","nom_a":null,"nom_de":null,"slug_ville":"audincourt","departement_id":0,"code_postal":"25400","population":14071,"superficie_km2":"877.58","latitude_centre":"47.4779","longitude_centre":"6.8498","distance_km":5.68},{"id":0,"code_insee":"90035","nom_standard":"Dorans","nom_a":null,"nom_de":null,"slug_ville":"dorans","departement_id":0,"code_postal":"90400","population":824,"superficie_km2":"381.64","latitude_centre":"47.5865","longitude_centre":"6.8398","distance_km":6.79},{"id":0,"code_insee":"90094","nom_standard":"Sevenans","nom_a":null,"nom_de":null,"slug_ville":"sevenans","departement_id":0,"code_postal":"90400","population":688,"superficie_km2":"204.84","latitude_centre":"47.5898","longitude_centre":"6.8718","distance_km":6.9}]}