{"ville":{"id":18508,"code_insee":"30054","nom_standard":"Brouzet-lès-Quissac","nom_a":null,"nom_de":null,"slug_ville":"brouzet-les-quissac","departement_id":0,"code_postal":"30260","population":301,"superficie_km2":"1592.35","latitude_centre":"43.863","longitude_centre":"3.9863","dep_code":"30","dep_nom":"Gard","dep_slug":"gard","reg_code":"76","reg_nom":"Occitanie","reg_slug":"occitanie"},"departement":{"code":"30","nom":"Gard","slug":"gard"},"region":{"code":"76","nom":"Occitanie","slug":"occitanie"},"villes_proches":[{"id":0,"code_insee":"30148","nom_standard":"Liouc","nom_a":null,"nom_de":null,"slug_ville":"liouc","departement_id":0,"code_postal":"30260","population":330,"superficie_km2":"963.70","latitude_centre":"43.8896","longitude_centre":"3.9833","distance_km":2.97},{"id":0,"code_insee":"30069","nom_standard":"Carnas","nom_a":null,"nom_de":null,"slug_ville":"carnas","departement_id":0,"code_postal":"30260","population":537,"superficie_km2":"1580.65","latitude_centre":"43.8334","longitude_centre":"3.9886","distance_km":3.3},{"id":0,"code_insee":"30309","nom_standard":"Sardan","nom_a":null,"nom_de":null,"slug_ville":"sardan","departement_id":0,"code_postal":"30260","population":347,"superficie_km2":"632.77","latitude_centre":"43.8657","longitude_centre":"4.0335","distance_km":3.8},{"id":0,"code_insee":"30095","nom_standard":"Corconne","nom_a":null,"nom_de":null,"slug_ville":"corconne","departement_id":0,"code_postal":"30260","population":620,"superficie_km2":"1309.59","latitude_centre":"43.874","longitude_centre":"3.9406","distance_km":3.86},{"id":0,"code_insee":"30121","nom_standard":"Gailhan","nom_a":null,"nom_de":null,"slug_ville":"gailhan","departement_id":0,"code_postal":"30260","population":313,"superficie_km2":"548.52","latitude_centre":"43.8467","longitude_centre":"4.031","distance_km":4.02},{"id":0,"code_insee":"34318","nom_standard":"Vacquières","nom_a":null,"nom_de":null,"slug_ville":"vacquieres","departement_id":0,"code_postal":"34270","population":772,"superficie_km2":"1470.90","latitude_centre":"43.8286","longitude_centre":"3.953","distance_km":4.67},{"id":0,"code_insee":"30192","nom_standard":"Orthoux-Sérignac-Quilhan","nom_a":null,"nom_de":null,"slug_ville":"orthoux-serignac-quilhan","departement_id":0,"code_postal":"30260","population":440,"superficie_km2":"1406.65","latitude_centre":"43.8838","longitude_centre":"4.0392","distance_km":4.83},{"id":0,"code_insee":"30244","nom_standard":"Saint-Clément","nom_a":null,"nom_de":null,"slug_ville":"saint-clement","departement_id":0,"code_postal":"30260","population":364,"superficie_km2":"491.74","latitude_centre":"43.828","longitude_centre":"4.0267","distance_km":5.06},{"id":0,"code_insee":"30144","nom_standard":"Lecques","nom_a":null,"nom_de":null,"slug_ville":"lecques","departement_id":0,"code_postal":"30250","population":473,"superficie_km2":"523.58","latitude_centre":"43.8423","longitude_centre":"4.0561","distance_km":6.05},{"id":0,"code_insee":"34297","nom_standard":"Sauteyrargues","nom_a":null,"nom_de":null,"slug_ville":"sauteyrargues","departement_id":0,"code_postal":"34270","population":441,"superficie_km2":"1278.75","latitude_centre":"43.8311","longitude_centre":"3.9187","distance_km":6.48},{"id":0,"code_insee":"30210","nom_standard":"Quissac","nom_a":null,"nom_de":null,"slug_ville":"quissac","departement_id":0,"code_postal":"30260","population":3528,"superficie_km2":"2321.63","latitude_centre":"43.9213","longitude_centre":"3.9985","distance_km":6.56},{"id":18488,"code_insee":"30018","nom_standard":"Aspères","nom_a":null,"nom_de":null,"slug_ville":"asperes","departement_id":0,"code_postal":"30250","population":563,"superficie_km2":"1001.76","latitude_centre":"43.8066","longitude_centre":"4.0325","distance_km":7.28},{"id":0,"code_insee":"34112","nom_standard":"Garrigues","nom_a":null,"nom_de":null,"slug_ville":"garrigues","departement_id":0,"code_postal":"34160","population":236,"superficie_km2":"493.58","latitude_centre":"43.7996","longitude_centre":"4.0129","distance_km":7.37},{"id":18505,"code_insee":"30050","nom_standard":"Bragassargues","nom_a":null,"nom_de":null,"slug_ville":"bragassargues","departement_id":0,"code_postal":"30260","population":169,"superficie_km2":"764.32","latitude_centre":"43.9181","longitude_centre":"4.0475","distance_km":7.85},{"id":0,"code_insee":"30311","nom_standard":"Sauve","nom_a":null,"nom_de":null,"slug_ville":"sauve","departement_id":0,"code_postal":"30610","population":1988,"superficie_km2":"3167.58","latitude_centre":"43.9354","longitude_centre":"3.9626","distance_km":8.27},{"id":0,"code_insee":"30306","nom_standard":"Salinelles","nom_a":null,"nom_de":null,"slug_ville":"salinelles","departement_id":0,"code_postal":"30250","population":585,"superficie_km2":"887.23","latitude_centre":"43.8095","longitude_centre":"4.0634","distance_km":8.58},{"id":0,"code_insee":"34110","nom_standard":"Galargues","nom_a":null,"nom_de":null,"slug_ville":"galargues","departement_id":0,"code_postal":"34160","population":752,"superficie_km2":"1139.80","latitude_centre":"43.7844","longitude_centre":"4.0141","distance_km":9.02},{"id":0,"code_insee":"34048","nom_standard":"Campagne","nom_a":null,"nom_de":null,"slug_ville":"campagne","departement_id":0,"code_postal":"34160","population":318,"superficie_km2":"487.93","latitude_centre":"43.7868","longitude_centre":"4.0332","distance_km":9.27},{"id":0,"code_insee":"30150","nom_standard":"Logrian-Florian","nom_a":null,"nom_de":null,"slug_ville":"logrian-florian","departement_id":0,"code_postal":"30610","population":270,"superficie_km2":"875.13","latitude_centre":"43.9483","longitude_centre":"4.0221","distance_km":9.91},{"id":0,"code_insee":"34043","nom_standard":"Buzignargues","nom_a":null,"nom_de":null,"slug_ville":"buzignargues","departement_id":0,"code_postal":"34160","population":378,"superficie_km2":"461.01","latitude_centre":"43.7721","longitude_centre":"3.9951","distance_km":10.13}]}