{"ville":{"id":32829,"code_insee":"80153","nom_standard":"Bus-lès-Artois","nom_a":null,"nom_de":null,"slug_ville":"bus-les-artois","departement_id":0,"code_postal":"80560","population":140,"superficie_km2":"674.48","latitude_centre":"50.1056","longitude_centre":"2.5393","dep_code":"80","dep_nom":"Somme","dep_slug":"somme","reg_code":"32","reg_nom":"Hauts-de-France","reg_slug":"hauts-de-france"},"departement":{"code":"80","nom":"Somme","slug":"somme"},"region":{"code":"32","nom":"Hauts-de-France","slug":"hauts-de-france"},"villes_proches":[{"id":32774,"code_insee":"80095","nom_standard":"Bertrancourt","nom_a":null,"nom_de":null,"slug_ville":"bertrancourt","departement_id":0,"code_postal":"80560","population":220,"superficie_km2":"617.74","latitude_centre":"50.1014","longitude_centre":"2.5651","distance_km":1.9},{"id":27588,"code_insee":"62242","nom_standard":"Couin","nom_a":null,"nom_de":null,"slug_ville":"couin","departement_id":0,"code_postal":"62760","population":76,"superficie_km2":"579.38","latitude_centre":"50.1309","longitude_centre":"2.5334","distance_km":2.84},{"id":0,"code_insee":"80493","nom_standard":"Louvencourt","nom_a":null,"nom_de":null,"slug_ville":"louvencourt","departement_id":0,"code_postal":"80560","population":289,"superficie_km2":"776.79","latitude_centre":"50.0917","longitude_centre":"2.5047","distance_km":2.91},{"id":0,"code_insee":"80705","nom_standard":"Saint-Léger-lès-Authie","nom_a":null,"nom_de":null,"slug_ville":"saint-leger-les-authie","departement_id":0,"code_postal":"80560","population":79,"superficie_km2":"431.59","latitude_centre":"50.1258","longitude_centre":"2.5118","distance_km":2.98},{"id":0,"code_insee":"80201","nom_standard":"Coigneux","nom_a":null,"nom_de":null,"slug_ville":"coigneux","departement_id":0,"code_postal":"80560","population":45,"superficie_km2":"290.38","latitude_centre":"50.1304","longitude_centre":"2.5578","distance_km":3.06},{"id":0,"code_insee":"80217","nom_standard":"Courcelles-au-Bois","nom_a":null,"nom_de":null,"slug_ville":"courcelles-au-bois","departement_id":0,"code_postal":"80560","population":69,"superficie_km2":"203.17","latitude_centre":"50.1054","longitude_centre":"2.5828","distance_km":3.1},{"id":32730,"code_insee":"80043","nom_standard":"Authie","nom_a":null,"nom_de":null,"slug_ville":"authie","departement_id":0,"code_postal":"80560","population":246,"superficie_km2":"1001.99","latitude_centre":"50.1195","longitude_centre":"2.4935","distance_km":3.61},{"id":32744,"code_insee":"80057","nom_standard":"Bayencourt","nom_a":null,"nom_de":null,"slug_ville":"bayencourt","departement_id":0,"code_postal":"80560","population":70,"superficie_km2":"185.90","latitude_centre":"50.1311","longitude_centre":"2.5729","distance_km":3.71},{"id":32699,"code_insee":"80003","nom_standard":"Acheux-en-Amiénois","nom_a":null,"nom_de":null,"slug_ville":"acheux-en-amienois","departement_id":0,"code_postal":"80560","population":590,"superficie_km2":"718.17","latitude_centre":"50.0716","longitude_centre":"2.5319","distance_km":3.82},{"id":0,"code_insee":"80329","nom_standard":"Forceville","nom_a":null,"nom_de":null,"slug_ville":"forceville","departement_id":0,"code_postal":"80560","population":163,"superficie_km2":"768.70","latitude_centre":"50.0666","longitude_centre":"2.5563","distance_km":4.5},{"id":0,"code_insee":"80470","nom_standard":"Léalvillers","nom_a":null,"nom_de":null,"slug_ville":"lealvillers","departement_id":0,"code_postal":"80560","population":156,"superficie_km2":"223.22","latitude_centre":"50.0687","longitude_centre":"2.5074","distance_km":4.69},{"id":27929,"code_insee":"62733","nom_standard":"Sailly-au-Bois","nom_a":null,"nom_de":null,"slug_ville":"sailly-au-bois","departement_id":0,"code_postal":"62111","population":285,"superficie_km2":"930.53","latitude_centre":"50.1223","longitude_centre":"2.6002","distance_km":4.72},{"id":0,"code_insee":"80203","nom_standard":"Colincamps","nom_a":null,"nom_de":null,"slug_ville":"colincamps","departement_id":0,"code_postal":"80560","population":80,"superficie_km2":"443.95","latitude_centre":"50.1016","longitude_centre":"2.6073","distance_km":4.87},{"id":0,"code_insee":"80498","nom_standard":"Mailly-Maillet","nom_a":null,"nom_de":null,"slug_ville":"mailly-maillet","departement_id":0,"code_postal":"80560","population":628,"superficie_km2":"1125.08","latitude_centre":"50.08","longitude_centre":"2.6015","distance_km":5.27},{"id":27973,"code_insee":"62800","nom_standard":"Souastre","nom_a":null,"nom_de":null,"slug_ville":"souastre","departement_id":0,"code_postal":"62111","population":375,"superficie_km2":"725.97","latitude_centre":"50.15","longitude_centre":"2.5676","distance_km":5.33},{"id":32716,"code_insee":"80028","nom_standard":"Arquèves","nom_a":null,"nom_de":null,"slug_ville":"arqueves","departement_id":0,"code_postal":"80560","population":152,"superficie_km2":"770.33","latitude_centre":"50.0751","longitude_centre":"2.4776","distance_km":5.56},{"id":27715,"code_insee":"62430","nom_standard":"Hénu","nom_a":null,"nom_de":null,"slug_ville":"henu","departement_id":0,"code_postal":"62760","population":147,"superficie_km2":"428.76","latitude_centre":"50.1556","longitude_centre":"2.5335","distance_km":5.58},{"id":27863,"code_insee":"62649","nom_standard":"Pas-en-Artois","nom_a":null,"nom_de":null,"slug_ville":"pas-en-artois","departement_id":0,"code_postal":"62760","population":768,"superficie_km2":"1085.56","latitude_centre":"50.1532","longitude_centre":"2.4899","distance_km":6.36},{"id":0,"code_insee":"80425","nom_standard":"Hédauville","nom_a":null,"nom_de":null,"slug_ville":"hedauville","departement_id":0,"code_postal":"80560","population":106,"superficie_km2":"408.83","latitude_centre":"50.0492","longitude_centre":"2.5672","distance_km":6.58},{"id":0,"code_insee":"80776","nom_standard":"Varennes","nom_a":null,"nom_de":null,"slug_ville":"varennes","departement_id":0,"code_postal":"80560","population":222,"superficie_km2":"730.92","latitude_centre":"50.0432","longitude_centre":"2.5159","distance_km":7.14}]}