{"ville":{"id":28534,"code_insee":"64154","nom_standard":"Bussunarits-Sarrasquette","nom_a":null,"nom_de":null,"slug_ville":"bussunarits-sarrasquette","departement_id":0,"code_postal":"64220","population":210,"superficie_km2":"1199.38","latitude_centre":"43.1689","longitude_centre":"-1.1465","dep_code":"64","dep_nom":"Pyrénées-Atlantiques","dep_slug":"pyrenees-atlantiques","reg_code":"75","reg_nom":"Nouvelle-Aquitaine","reg_slug":"nouvelle-aquitaine"},"departement":{"code":"64","nom":"Pyrénées-Atlantiques","slug":"pyrenees-atlantiques"},"region":{"code":"75","nom":"Nouvelle-Aquitaine","slug":"nouvelle-aquitaine"},"villes_proches":[{"id":0,"code_insee":"64297","nom_standard":"Lacarre","nom_a":null,"nom_de":null,"slug_ville":"lacarre","departement_id":0,"code_postal":"64220","population":171,"superficie_km2":"447.08","latitude_centre":"43.19","longitude_centre":"-1.1563","distance_km":2.48},{"id":28424,"code_insee":"64008","nom_standard":"Ahaxe-Alciette-Bascassan","nom_a":null,"nom_de":null,"slug_ville":"ahaxe-alciette-bascassan","departement_id":0,"code_postal":"64220","population":261,"superficie_km2":"1454.91","latitude_centre":"43.141","longitude_centre":"-1.1571","distance_km":3.22},{"id":0,"code_insee":"64229","nom_standard":"Gamarthe","nom_a":null,"nom_de":null,"slug_ville":"gamarthe","departement_id":0,"code_postal":"64220","population":125,"superficie_km2":"986.24","latitude_centre":"43.1958","longitude_centre":"-1.1318","distance_km":3.22},{"id":0,"code_insee":"64155","nom_standard":"Bustince-Iriberry","nom_a":null,"nom_de":null,"slug_ville":"bustince-iriberry","departement_id":0,"code_postal":"64220","population":102,"superficie_km2":"570.24","latitude_centre":"43.1895","longitude_centre":"-1.186","distance_km":3.94},{"id":0,"code_insee":"64267","nom_standard":"Ibarrolle","nom_a":null,"nom_de":null,"slug_ville":"ibarrolle","departement_id":0,"code_postal":"64120","population":73,"superficie_km2":"895.46","latitude_centre":"43.1909","longitude_centre":"-1.0971","distance_km":4.69},{"id":0,"code_insee":"64484","nom_standard":"Saint-Jean-le-Vieux","nom_a":null,"nom_de":null,"slug_ville":"saint-jean-le-vieux","departement_id":0,"code_postal":"64220","population":900,"superficie_km2":"1163.84","latitude_centre":"43.1733","longitude_centre":"-1.2071","distance_km":4.94},{"id":28428,"code_insee":"64013","nom_standard":"Ainhice-Mongelos","nom_a":null,"nom_de":null,"slug_ville":"ainhice-mongelos","departement_id":0,"code_postal":"64220","population":168,"superficie_km2":"1018.43","latitude_centre":"43.2136","longitude_centre":"-1.1579","distance_km":5.06},{"id":28426,"code_insee":"64011","nom_standard":"Aincille","nom_a":null,"nom_de":null,"slug_ville":"aincille","departement_id":0,"code_postal":"64220","population":117,"superficie_km2":"625.02","latitude_centre":"43.1352","longitude_centre":"-1.1965","distance_km":5.52},{"id":0,"code_insee":"64265","nom_standard":"Hosta","nom_a":null,"nom_de":null,"slug_ville":"hosta","departement_id":0,"code_postal":"64120","population":100,"superficie_km2":"1730.11","latitude_centre":"43.1438","longitude_centre":"-1.078","distance_km":6.22},{"id":0,"code_insee":"64283","nom_standard":"Jaxu","nom_a":null,"nom_de":null,"slug_ville":"jaxu","departement_id":0,"code_postal":"64220","population":206,"superficie_km2":"1068.34","latitude_centre":"43.2032","longitude_centre":"-1.2096","distance_km":6.38},{"id":0,"code_insee":"64166","nom_standard":"Caro","nom_a":null,"nom_de":null,"slug_ville":"caro","departement_id":0,"code_postal":"64220","population":170,"superficie_km2":"405.51","latitude_centre":"43.1487","longitude_centre":"-1.2226","distance_km":6.57},{"id":0,"code_insee":"64485","nom_standard":"Saint-Jean-Pied-de-Port","nom_a":null,"nom_de":null,"slug_ville":"saint-jean-pied-de-port","departement_id":0,"code_postal":"64220","population":1479,"superficie_km2":"275.18","latitude_centre":"43.157","longitude_centre":"-1.2338","distance_km":7.2},{"id":0,"code_insee":"64314","nom_standard":"Larceveau-Arros-Cibits","nom_a":null,"nom_de":null,"slug_ville":"larceveau-arros-cibits","departement_id":0,"code_postal":"64120","population":449,"superficie_km2":"1834.19","latitude_centre":"43.2245","longitude_centre":"-1.0995","distance_km":7.26},{"id":0,"code_insee":"64487","nom_standard":"Saint-Just-Ibarre","nom_a":null,"nom_de":null,"slug_ville":"saint-just-ibarre","departement_id":0,"code_postal":"64120","population":197,"superficie_km2":"3020.90","latitude_centre":"43.1619","longitude_centre":"-1.0573","distance_km":7.28},{"id":28500,"code_insee":"64107","nom_standard":"Béhorléguy","nom_a":null,"nom_de":null,"slug_ville":"behorleguy","departement_id":0,"code_postal":"64220","population":66,"superficie_km2":"2053.44","latitude_centre":"43.1191","longitude_centre":"-1.0824","distance_km":7.6},{"id":0,"code_insee":"64275","nom_standard":"Ispoure","nom_a":null,"nom_de":null,"slug_ville":"ispoure","departement_id":0,"code_postal":"64220","population":667,"superficie_km2":"789.13","latitude_centre":"43.185","longitude_centre":"-1.2385","distance_km":7.67},{"id":28531,"code_insee":"64150","nom_standard":"Bunus","nom_a":null,"nom_de":null,"slug_ville":"bunus","departement_id":0,"code_postal":"64120","population":133,"superficie_km2":"665.33","latitude_centre":"43.2073","longitude_centre":"-1.0604","distance_km":8.18},{"id":0,"code_insee":"64528","nom_standard":"Suhescun","nom_a":null,"nom_de":null,"slug_ville":"suhescun","departement_id":0,"code_postal":"64780","population":165,"superficie_km2":"1189.91","latitude_centre":"43.2347","longitude_centre":"-1.1957","distance_km":8.33},{"id":0,"code_insee":"64327","nom_standard":"Lecumberry","nom_a":null,"nom_de":null,"slug_ville":"lecumberry","departement_id":0,"code_postal":"64220","population":196,"superficie_km2":"5812.93","latitude_centre":"43.085","longitude_centre":"-1.1229","distance_km":9.52},{"id":0,"code_insee":"64313","nom_standard":"Lantabat","nom_a":null,"nom_de":null,"slug_ville":"lantabat","departement_id":0,"code_postal":"64640","population":297,"superficie_km2":"2912.45","latitude_centre":"43.2634","longitude_centre":"-1.1321","distance_km":10.57}]}