{"ville":{"id":1198,"code_insee":"17074","nom_standard":"Bussac-Forêt","nom_a":null,"nom_de":null,"slug_ville":"bussac-foret","departement_id":617,"code_postal":"17210","population":1085,"superficie_km2":"35.00","latitude_centre":"45.2019997","longitude_centre":"-0.3790000","dep_code":"17","dep_nom":"Charente-Maritime","dep_slug":"charente-maritime","reg_code":"15","reg_nom":"Nouvelle-Aquitaine","reg_slug":"nouvelle-aquitaine"},"departement":{"code":"17","nom":"Charente-Maritime","slug":"charente-maritime"},"region":{"code":"15","nom":"Nouvelle-Aquitaine","slug":"nouvelle-aquitaine"},"villes_proches":[{"id":2999,"code_insee":"33492","nom_standard":"Saint-Yzan-de-Soudiac","nom_a":null,"nom_de":null,"slug_ville":"saint-yzan-de-soudiac","departement_id":634,"code_postal":"33920","population":2527,"superficie_km2":"11.00","latitude_centre":"45.1520004","longitude_centre":"-0.4050000","distance_km":5.92},{"id":2991,"code_insee":"33473","nom_standard":"Saint-Savin","nom_a":null,"nom_de":null,"slug_ville":"saint-savin","departement_id":634,"code_postal":"33920","population":3347,"superficie_km2":"34.00","latitude_centre":"45.1640015","longitude_centre":"-0.4410000","distance_km":6.44},{"id":2899,"code_insee":"33233","nom_standard":"Laruscade","nom_a":null,"nom_de":null,"slug_ville":"laruscade","departement_id":634,"code_postal":"33620","population":2814,"superficie_km2":"46.00","latitude_centre":"45.1240006","longitude_centre":"-0.3440000","distance_km":9.1},{"id":1250,"code_insee":"17243","nom_standard":"Montlieu-la-Garde","nom_a":null,"nom_de":null,"slug_ville":"montlieu-la-garde","departement_id":617,"code_postal":"17210","population":1211,"superficie_km2":"32.00","latitude_centre":"45.2340012","longitude_centre":"-0.2710000","distance_km":9.18},{"id":2980,"code_insee":"33439","nom_standard":"Saint-Mariens","nom_a":null,"nom_de":null,"slug_ville":"saint-mariens","departement_id":634,"code_postal":"33620","population":1628,"superficie_km2":"12.00","latitude_centre":"45.1209984","longitude_centre":"-0.4050000","distance_km":9.23},{"id":1248,"code_insee":"17240","nom_standard":"Montendre","nom_a":null,"nom_de":null,"slug_ville":"montendre","departement_id":617,"code_postal":"17130","population":3228,"superficie_km2":"26.00","latitude_centre":"45.2879982","longitude_centre":"-0.3880000","distance_km":9.59},{"id":2959,"code_insee":"33382","nom_standard":"Saint-Christoly-de-Blaye","nom_a":null,"nom_de":null,"slug_ville":"saint-christoly-de-blaye","departement_id":634,"code_postal":"33920","population":1877,"superficie_km2":"28.00","latitude_centre":"45.1440010","longitude_centre":"-0.4960000","distance_km":11.21},{"id":2948,"code_insee":"33351","nom_standard":"Reignac","nom_a":null,"nom_de":null,"slug_ville":"reignac","departement_id":634,"code_postal":"33860","population":1622,"superficie_km2":"37.00","latitude_centre":"45.2290001","longitude_centre":"-0.5170000","distance_km":11.22},{"id":2854,"code_insee":"33114","nom_standard":"Cavignac","nom_a":null,"nom_de":null,"slug_ville":"cavignac","departement_id":634,"code_postal":"33620","population":2388,"superficie_km2":"7.00","latitude_centre":"45.0960007","longitude_centre":"-0.3820000","distance_km":11.79},{"id":2859,"code_insee":"33123","nom_standard":"Cézac","nom_a":null,"nom_de":null,"slug_ville":"cezac","departement_id":634,"code_postal":"33620","population":2694,"superficie_km2":"19.00","latitude_centre":"45.0859985","longitude_centre":"-0.4310000","distance_km":13.53},{"id":2864,"code_insee":"33142","nom_standard":"Cubnezais","nom_a":null,"nom_de":null,"slug_ville":"cubnezais","departement_id":634,"code_postal":"33620","population":1807,"superficie_km2":"10.00","latitude_centre":"45.0730019","longitude_centre":"-0.4200000","distance_km":14.7},{"id":2915,"code_insee":"33272","nom_standard":"Marsas","nom_a":null,"nom_de":null,"slug_ville":"marsas","departement_id":634,"code_postal":"33620","population":1226,"superficie_km2":"8.00","latitude_centre":"45.0629997","longitude_centre":"-0.3760000","distance_km":15.46},{"id":2848,"code_insee":"33101","nom_standard":"Cartelègue","nom_a":null,"nom_de":null,"slug_ville":"cartelegue","departement_id":634,"code_postal":"33390","population":1261,"superficie_km2":"11.00","latitude_centre":"45.1910019","longitude_centre":"-0.5780000","distance_km":15.64},{"id":1200,"code_insee":"17077","nom_standard":"Cercoux","nom_a":null,"nom_de":null,"slug_ville":"cercoux","departement_id":617,"code_postal":"17270","population":1279,"superficie_km2":"42.00","latitude_centre":"45.1269989","longitude_centre":"-0.2080000","distance_km":15.79},{"id":2868,"code_insee":"33159","nom_standard":"Étauliers","nom_a":null,"nom_de":null,"slug_ville":"etauliers","departement_id":634,"code_postal":"33820","population":1534,"superficie_km2":"13.00","latitude_centre":"45.2210007","longitude_centre":"-0.5820000","distance_km":16.04},{"id":2944,"code_insee":"33341","nom_standard":"Pugnac","nom_a":null,"nom_de":null,"slug_ville":"pugnac","departement_id":634,"code_postal":"33710","population":2392,"superficie_km2":"14.00","latitude_centre":"45.0839996","longitude_centre":"-0.4990000","distance_km":16.15},{"id":1249,"code_insee":"17241","nom_standard":"Montguyon","nom_a":null,"nom_de":null,"slug_ville":"montguyon","departement_id":617,"code_postal":"17270","population":1567,"superficie_km2":"18.00","latitude_centre":"45.2099991","longitude_centre":"-0.1700000","distance_km":16.4},{"id":1209,"code_insee":"17104","nom_standard":"Chevanceaux","nom_a":null,"nom_de":null,"slug_ville":"chevanceaux","departement_id":617,"code_postal":"17210","population":1112,"superficie_km2":"22.00","latitude_centre":"45.2989998","longitude_centre":"-0.2130000","distance_km":16.89},{"id":2913,"code_insee":"33264","nom_standard":"Maransin","nom_a":null,"nom_de":null,"slug_ville":"maransin","departement_id":634,"code_postal":"33230","population":1040,"superficie_km2":"30.00","latitude_centre":"45.0730019","longitude_centre":"-0.2540000","distance_km":17.37},{"id":2876,"code_insee":"33183","nom_standard":"Gauriaguet","nom_a":null,"nom_de":null,"slug_ville":"gauriaguet","departement_id":634,"code_postal":"33240","population":1478,"superficie_km2":"5.00","latitude_centre":"45.0460014","longitude_centre":"-0.3960000","distance_km":17.4}]}