{"ville":{"id":14735,"code_insee":"18040","nom_standard":"Bussy","nom_a":null,"nom_de":null,"slug_ville":"bussy","departement_id":0,"code_postal":"18130","population":354,"superficie_km2":"2695.54","latitude_centre":"46.9001","longitude_centre":"2.6223","dep_code":"18","dep_nom":"Cher","dep_slug":"cher","reg_code":"24","reg_nom":"Centre-Val de Loire","reg_slug":"centre-val-de-loire"},"departement":{"code":"18","nom":"Cher","slug":"cher"},"region":{"code":"24","nom":"Centre-Val de Loire","slug":"centre-val-de-loire"},"villes_proches":[{"id":0,"code_insee":"18121","nom_standard":"Lantan","nom_a":null,"nom_de":null,"slug_ville":"lantan","departement_id":0,"code_postal":"18130","population":96,"superficie_km2":"1365.40","latitude_centre":"46.9035","longitude_centre":"2.6589","distance_km":2.81},{"id":0,"code_insee":"18087","nom_standard":"Dun-sur-Auron","nom_a":null,"nom_de":null,"slug_ville":"dun-sur-auron","departement_id":0,"code_postal":"18130","population":3524,"superficie_km2":"4997.80","latitude_centre":"46.8918","longitude_centre":"2.5538","distance_km":5.29},{"id":0,"code_insee":"18173","nom_standard":"Osmery","nom_a":null,"nom_de":null,"slug_ville":"osmery","departement_id":0,"code_postal":"18130","population":264,"superficie_km2":"2700.22","latitude_centre":"46.9385","longitude_centre":"2.6698","distance_km":5.59},{"id":0,"code_insee":"18068","nom_standard":"Cogny","nom_a":null,"nom_de":null,"slug_ville":"cogny","departement_id":0,"code_postal":"18130","population":31,"superficie_km2":"1696.70","latitude_centre":"46.8498","longitude_centre":"2.6501","distance_km":5.98},{"id":0,"code_insee":"18045","nom_standard":"Chalivoy-Milon","nom_a":null,"nom_de":null,"slug_ville":"chalivoy-milon","departement_id":0,"code_postal":"18130","population":388,"superficie_km2":"1987.13","latitude_centre":"46.858","longitude_centre":"2.6925","distance_km":7.1},{"id":0,"code_insee":"18177","nom_standard":"Parnay","nom_a":null,"nom_de":null,"slug_ville":"parnay","departement_id":0,"code_postal":"18130","population":49,"superficie_km2":"1742.52","latitude_centre":"46.8537","longitude_centre":"2.5559","distance_km":7.22},{"id":0,"code_insee":"18289","nom_standard":"Vornay","nom_a":null,"nom_de":null,"slug_ville":"vornay","departement_id":0,"code_postal":"18130","population":584,"superficie_km2":"2678.38","latitude_centre":"46.9682","longitude_centre":"2.5934","distance_km":7.88},{"id":14729,"code_insee":"18031","nom_standard":"Blet","nom_a":null,"nom_de":null,"slug_ville":"blet","departement_id":0,"code_postal":"18350","population":566,"superficie_km2":"3089.56","latitude_centre":"46.8839","longitude_centre":"2.7292","distance_km":8.32},{"id":0,"code_insee":"18277","nom_standard":"Verneuil","nom_a":null,"nom_de":null,"slug_ville":"verneuil","departement_id":0,"code_postal":"18210","population":34,"superficie_km2":"1131.93","latitude_centre":"46.8227","longitude_centre":"2.5992","distance_km":8.78},{"id":0,"code_insee":"18204","nom_standard":"Saint-Denis-de-Palin","nom_a":null,"nom_de":null,"slug_ville":"saint-denis-de-palin","departement_id":0,"code_postal":"18130","population":274,"superficie_km2":"3095.56","latitude_centre":"46.9394","longitude_centre":"2.5214","distance_km":8.82},{"id":0,"code_insee":"18191","nom_standard":"Raymond","nom_a":null,"nom_de":null,"slug_ville":"raymond","departement_id":0,"code_postal":"18130","population":172,"superficie_km2":"933.65","latitude_centre":"46.9704","longitude_centre":"2.6898","distance_km":9.35},{"id":0,"code_insee":"18261","nom_standard":"Thaumiers","nom_a":null,"nom_de":null,"slug_ville":"thaumiers","departement_id":0,"code_postal":"18210","population":387,"superficie_km2":"2769.15","latitude_centre":"46.8185","longitude_centre":"2.6625","distance_km":9.57},{"id":14710,"code_insee":"18006","nom_standard":"Annoix","nom_a":null,"nom_de":null,"slug_ville":"annoix","departement_id":0,"code_postal":"18340","population":250,"superficie_km2":"1218.53","latitude_centre":"46.9712","longitude_centre":"2.545","distance_km":9.85},{"id":0,"code_insee":"18119","nom_standard":"Jussy-Champagne","nom_a":null,"nom_de":null,"slug_ville":"jussy-champagne","departement_id":0,"code_postal":"18130","population":205,"superficie_km2":"2775.54","latitude_centre":"46.9886","longitude_centre":"2.6484","distance_km":10.04},{"id":0,"code_insee":"18072","nom_standard":"Cornusse","nom_a":null,"nom_de":null,"slug_ville":"cornusse","departement_id":0,"code_postal":"18350","population":226,"superficie_km2":"1986.87","latitude_centre":"46.9555","longitude_centre":"2.7303","distance_km":10.26},{"id":0,"code_insee":"18054","nom_standard":"Charly","nom_a":null,"nom_de":null,"slug_ville":"charly","departement_id":0,"code_postal":"18350","population":226,"superficie_km2":"2607.14","latitude_centre":"46.9049","longitude_centre":"2.7581","distance_km":10.33},{"id":0,"code_insee":"18071","nom_standard":"Contres","nom_a":null,"nom_de":null,"slug_ville":"contres","departement_id":0,"code_postal":"18130","population":35,"superficie_km2":"1599.33","latitude_centre":"46.8603","longitude_centre":"2.4956","distance_km":10.6},{"id":0,"code_insee":"18183","nom_standard":"Le Pondy","nom_a":null,"nom_de":null,"slug_ville":"le-pondy","departement_id":0,"code_postal":"18210","population":147,"superficie_km2":"661.49","latitude_centre":"46.8009","longitude_centre":"2.6422","distance_km":11.13},{"id":0,"code_insee":"18081","nom_standard":"Crosses","nom_a":null,"nom_de":null,"slug_ville":"crosses","departement_id":0,"code_postal":"18340","population":375,"superficie_km2":"2685.39","latitude_centre":"47.0071","longitude_centre":"2.5669","distance_km":12.62},{"id":14716,"code_insee":"18013","nom_standard":"Arpheuilles","nom_a":null,"nom_de":null,"slug_ville":"arpheuilles","departement_id":0,"code_postal":"18200","population":299,"superficie_km2":"4800.05","latitude_centre":"46.7887","longitude_centre":"2.5726","distance_km":12.95}]}