{"ville":{"id":13546,"code_insee":"14121","nom_standard":"Cahagnolles","nom_a":null,"nom_de":null,"slug_ville":"cahagnolles","departement_id":0,"code_postal":"14490","population":252,"superficie_km2":"728.38","latitude_centre":"49.1634","longitude_centre":"-0.7757","dep_code":"14","dep_nom":"Calvados","dep_slug":"calvados","reg_code":"28","reg_nom":"Normandie","reg_slug":"normandie"},"departement":{"code":"14","nom":"Calvados","slug":"calvados"},"region":{"code":"28","nom":"Normandie","slug":"normandie"},"villes_proches":[{"id":0,"code_insee":"14590","nom_standard":"Sainte-Honorine-de-Ducy","nom_a":null,"nom_de":null,"slug_ville":"sainte-honorine-de-ducy","departement_id":0,"code_postal":"14240","population":136,"superficie_km2":"504.40","latitude_centre":"49.1379","longitude_centre":"-0.7855","distance_km":2.92},{"id":0,"code_insee":"14282","nom_standard":"Foulognes","nom_a":null,"nom_de":null,"slug_ville":"foulognes","departement_id":0,"code_postal":"14240","population":220,"superficie_km2":"655.56","latitude_centre":"49.1353","longitude_centre":"-0.8066","distance_km":3.85},{"id":0,"code_insee":"14506","nom_standard":"Planquery","nom_a":null,"nom_de":null,"slug_ville":"planquery","departement_id":0,"code_postal":"14490","population":249,"superficie_km2":"1448.91","latitude_centre":"49.1645","longitude_centre":"-0.8288","distance_km":3.86},{"id":0,"code_insee":"14140","nom_standard":"Castillon","nom_a":null,"nom_de":null,"slug_ville":"castillon","departement_id":0,"code_postal":"14490","population":368,"superficie_km2":"1112.60","latitude_centre":"49.1966","longitude_centre":"-0.8024","distance_km":4.17},{"id":0,"code_insee":"14643","nom_standard":"Saint-Paul-du-Vernay","nom_a":null,"nom_de":null,"slug_ville":"saint-paul-du-vernay","departement_id":0,"code_postal":"14490","population":831,"superficie_km2":"1535.11","latitude_centre":"49.1988","longitude_centre":"-0.7532","distance_km":4.26},{"id":0,"code_insee":"14716","nom_standard":"Trungy","nom_a":null,"nom_de":null,"slug_ville":"trungy","departement_id":0,"code_postal":"14490","population":209,"superficie_km2":"719.89","latitude_centre":"49.1914","longitude_centre":"-0.726","distance_km":4.77},{"id":0,"code_insee":"14035","nom_standard":"Balleroy-sur-Drôme","nom_a":null,"nom_de":null,"slug_ville":"balleroy-sur-drome","departement_id":0,"code_postal":"14490","population":1303,"superficie_km2":"1200.68","latitude_centre":"49.1931","longitude_centre":"-0.8325","distance_km":5.29},{"id":0,"code_insee":"14143","nom_standard":"Caumont-sur-Aure","nom_a":null,"nom_de":null,"slug_ville":"caumont-sur-aure","departement_id":0,"code_postal":"14240","population":2431,"superficie_km2":"4050.23","latitude_centre":"49.113","longitude_centre":"-0.8053","distance_km":6.0},{"id":0,"code_insee":"14581","nom_standard":"Aurseulles","nom_a":null,"nom_de":null,"slug_ville":"aurseulles","departement_id":0,"code_postal":"14240","population":1896,"superficie_km2":"4651.64","latitude_centre":"49.1338","longitude_centre":"-0.6993","distance_km":6.46},{"id":0,"code_insee":"14468","nom_standard":"Noron-la-Poterie","nom_a":null,"nom_de":null,"slug_ville":"noron-la-poterie","departement_id":0,"code_postal":"14490","population":332,"superficie_km2":"304.94","latitude_centre":"49.2237","longitude_centre":"-0.7756","distance_km":6.71},{"id":0,"code_insee":"14664","nom_standard":"Sallen","nom_a":null,"nom_de":null,"slug_ville":"sallen","departement_id":0,"code_postal":"14240","population":322,"superficie_km2":"1147.46","latitude_centre":"49.1171","longitude_centre":"-0.8438","distance_km":7.14},{"id":0,"code_insee":"14364","nom_standard":"Lingèvres","nom_a":null,"nom_de":null,"slug_ville":"lingevres","departement_id":0,"code_postal":"14250","population":448,"superficie_km2":"1462.24","latitude_centre":"49.1738","longitude_centre":"-0.6786","distance_km":7.15},{"id":0,"code_insee":"14346","nom_standard":"Juaye-Mondaye","nom_a":null,"nom_de":null,"slug_ville":"juaye-mondaye","departement_id":0,"code_postal":"14250","population":703,"superficie_km2":"1610.07","latitude_centre":"49.2051","longitude_centre":"-0.6861","distance_km":7.99},{"id":13495,"code_insee":"14019","nom_standard":"Arganchy","nom_a":null,"nom_de":null,"slug_ville":"arganchy","departement_id":0,"code_postal":"14400","population":220,"superficie_km2":"709.39","latitude_centre":"49.2295","longitude_centre":"-0.7304","distance_km":8.05},{"id":0,"code_insee":"14714","nom_standard":"Le Tronquay","nom_a":null,"nom_de":null,"slug_ville":"le-tronquay","departement_id":0,"code_postal":"14490","population":745,"superficie_km2":"1329.27","latitude_centre":"49.2303","longitude_centre":"-0.8187","distance_km":8.07},{"id":13490,"code_insee":"14003","nom_standard":"Agy","nom_a":null,"nom_de":null,"slug_ville":"agy","departement_id":0,"code_postal":"14400","population":320,"superficie_km2":"426.69","latitude_centre":"49.2372","longitude_centre":"-0.7793","distance_km":8.21},{"id":0,"code_insee":"14679","nom_standard":"Subles","nom_a":null,"nom_de":null,"slug_ville":"subles","departement_id":0,"code_postal":"14400","population":690,"superficie_km2":"247.62","latitude_centre":"49.2379","longitude_centre":"-0.7477","distance_km":8.53},{"id":0,"code_insee":"14130","nom_standard":"Campigny","nom_a":null,"nom_de":null,"slug_ville":"campigny","departement_id":0,"code_postal":"14490","population":184,"superficie_km2":"566.96","latitude_centre":"49.2458","longitude_centre":"-0.7991","distance_km":9.32},{"id":13491,"code_insee":"14007","nom_standard":"Amayé-sur-Seulles","nom_a":null,"nom_de":null,"slug_ville":"amaye-sur-seulles","departement_id":0,"code_postal":"14310","population":215,"superficie_km2":"566.07","latitude_centre":"49.0824","longitude_centre":"-0.7162","distance_km":9.99},{"id":0,"code_insee":"14529","nom_standard":"Ranchy","nom_a":null,"nom_de":null,"slug_ville":"ranchy","departement_id":0,"code_postal":"14400","population":270,"superficie_km2":"520.08","latitude_centre":"49.2552","longitude_centre":"-0.7627","distance_km":10.25}]}