{"ville":{"id":23023,"code_insee":"50094","nom_standard":"Camprond","nom_a":null,"nom_de":null,"slug_ville":"camprond","departement_id":0,"code_postal":"50210","population":374,"superficie_km2":"625.40","latitude_centre":"49.0893","longitude_centre":"-1.3397","dep_code":"50","dep_nom":"Manche","dep_slug":"manche","reg_code":"28","reg_nom":"Normandie","reg_slug":"normandie"},"departement":{"code":"50","nom":"Manche","slug":"manche"},"region":{"code":"28","nom":"Normandie","slug":"normandie"},"villes_proches":[{"id":0,"code_insee":"50279","nom_standard":"Le Lorey","nom_a":null,"nom_de":null,"slug_ville":"le-lorey","departement_id":0,"code_postal":"50570","population":555,"superficie_km2":"1475.05","latitude_centre":"49.0976","longitude_centre":"-1.3026","distance_km":2.85},{"id":0,"code_insee":"50340","nom_standard":"Montcuit","nom_a":null,"nom_de":null,"slug_ville":"montcuit","departement_id":0,"code_postal":"50490","population":180,"superficie_km2":"489.19","latitude_centre":"49.1171","longitude_centre":"-1.3478","distance_km":3.15},{"id":23021,"code_insee":"50092","nom_standard":"Cambernon","nom_a":null,"nom_de":null,"slug_ville":"cambernon","departement_id":0,"code_postal":"50200","population":677,"superficie_km2":"1707.70","latitude_centre":"49.0853","longitude_centre":"-1.3846","distance_km":3.3},{"id":0,"code_insee":"50569","nom_standard":"Savigny","nom_a":null,"nom_de":null,"slug_ville":"savigny","departement_id":0,"code_postal":"50210","population":430,"superficie_km2":"1029.97","latitude_centre":"49.0572","longitude_centre":"-1.3299","distance_km":3.64},{"id":22997,"code_insee":"50044","nom_standard":"Belval","nom_a":null,"nom_de":null,"slug_ville":"belval","departement_id":0,"code_postal":"50210","population":333,"superficie_km2":"571.92","latitude_centre":"49.0547","longitude_centre":"-1.3513","distance_km":3.94},{"id":23022,"code_insee":"50093","nom_standard":"Cametours","nom_a":null,"nom_de":null,"slug_ville":"cametours","departement_id":0,"code_postal":"50570","population":434,"superficie_km2":"736.83","latitude_centre":"49.072","longitude_centre":"-1.2832","distance_km":4.54},{"id":0,"code_insee":"50232","nom_standard":"Hauteville-la-Guichard","nom_a":null,"nom_de":null,"slug_ville":"hauteville-la-guichard","departement_id":0,"code_postal":"50570","population":440,"superficie_km2":"1177.75","latitude_centre":"49.1255","longitude_centre":"-1.3038","distance_km":4.8},{"id":0,"code_insee":"50145","nom_standard":"Courcy","nom_a":null,"nom_de":null,"slug_ville":"courcy","departement_id":0,"code_postal":"50200","population":639,"superficie_km2":"1151.96","latitude_centre":"49.0517","longitude_centre":"-1.392","distance_km":5.66},{"id":0,"code_insee":"50345","nom_standard":"Monthuchon","nom_a":null,"nom_de":null,"slug_ville":"monthuchon","departement_id":0,"code_postal":"50200","population":705,"superficie_km2":"778.70","latitude_centre":"49.0891","longitude_centre":"-1.4191","distance_km":5.78},{"id":0,"code_insee":"50181","nom_standard":"Feugères","nom_a":null,"nom_de":null,"slug_ville":"feugeres","departement_id":0,"code_postal":"50190","population":356,"superficie_km2":"829.80","latitude_centre":"49.1463","longitude_centre":"-1.3154","distance_km":6.58},{"id":0,"code_insee":"50292","nom_standard":"Marigny-Le-Lozon","nom_a":null,"nom_de":null,"slug_ville":"marigny-le-lozon","departement_id":0,"code_postal":"50570","population":2761,"superficie_km2":"1941.35","latitude_centre":"49.1256","longitude_centre":"-1.2609","distance_km":7.01},{"id":0,"code_insee":"50098","nom_standard":"Carantilly","nom_a":null,"nom_de":null,"slug_ville":"carantilly","departement_id":0,"code_postal":"50570","population":619,"superficie_km2":"1088.78","latitude_centre":"49.0659","longitude_centre":"-1.2499","distance_km":7.04},{"id":0,"code_insee":"50350","nom_standard":"Montpinchon","nom_a":null,"nom_de":null,"slug_ville":"montpinchon","departement_id":0,"code_postal":"50210","population":543,"superficie_km2":"1722.81","latitude_centre":"49.0266","longitude_centre":"-1.3218","distance_km":7.09},{"id":0,"code_insee":"50550","nom_standard":"Saint-Sauveur-Villages","nom_a":null,"nom_de":null,"slug_ville":"saint-sauveur-villages","departement_id":0,"code_postal":"50200","population":3208,"superficie_km2":"5432.88","latitude_centre":"49.1342","longitude_centre":"-1.4117","distance_km":7.24},{"id":0,"code_insee":"50111","nom_standard":"Cerisy-la-Salle","nom_a":null,"nom_de":null,"slug_ville":"cerisy-la-salle","departement_id":0,"code_postal":"50210","population":1005,"superficie_km2":"1703.20","latitude_centre":"49.037","longitude_centre":"-1.271","distance_km":7.67},{"id":0,"code_insee":"50389","nom_standard":"Ouville","nom_a":null,"nom_de":null,"slug_ville":"ouville","departement_id":0,"code_postal":"50210","population":439,"superficie_km2":"1145.01","latitude_centre":"49.0221","longitude_centre":"-1.3655","distance_km":7.71},{"id":0,"code_insee":"50376","nom_standard":"Nicorps","nom_a":null,"nom_de":null,"slug_ville":"nicorps","departement_id":0,"code_postal":"50200","population":354,"superficie_km2":"561.88","latitude_centre":"49.0327","longitude_centre":"-1.4107","distance_km":8.15},{"id":0,"code_insee":"50510","nom_standard":"Saint-Martin-d'Aubigny","nom_a":null,"nom_de":null,"slug_ville":"saint-martin-d-aubigny","departement_id":0,"code_postal":"50190","population":606,"superficie_km2":"1513.05","latitude_centre":"49.1658","longitude_centre":"-1.3553","distance_km":8.58},{"id":0,"code_insee":"50464","nom_standard":"Saint-Denis-le-Vêtu","nom_a":null,"nom_de":null,"slug_ville":"saint-denis-le-vetu","departement_id":0,"code_postal":"50210","population":590,"superficie_km2":"1410.94","latitude_centre":"48.9932","longitude_centre":"-1.3748","distance_km":10.99},{"id":0,"code_insee":"50437","nom_standard":"Roncey","nom_a":null,"nom_de":null,"slug_ville":"roncey","departement_id":0,"code_postal":"50210","population":770,"superficie_km2":"1231.87","latitude_centre":"48.9849","longitude_centre":"-1.3319","distance_km":11.62}]}