{"ville":{"id":18296,"code_insee":"2B054","nom_standard":"Campile","nom_a":null,"nom_de":null,"slug_ville":"campile","departement_id":0,"code_postal":"20290","population":181,"superficie_km2":"976.03","latitude_centre":"42.4947","longitude_centre":"9.3575","dep_code":"2B","dep_nom":"Haute-Corse","dep_slug":"haute-corse","reg_code":"94","reg_nom":"Corse","reg_slug":"corse"},"departement":{"code":"2B","nom":"Haute-Corse","slug":"haute-corse"},"region":{"code":"94","nom":"Corse","slug":"corse"},"villes_proches":[{"id":0,"code_insee":"2B102","nom_standard":"Crocicchia","nom_a":null,"nom_de":null,"slug_ville":"crocicchia","departement_id":0,"code_postal":"20290","population":81,"superficie_km2":"426.32","latitude_centre":"42.4737","longitude_centre":"9.3528","distance_km":2.37},{"id":0,"code_insee":"2B355","nom_standard":"Volpajola","nom_a":null,"nom_de":null,"slug_ville":"volpajola","departement_id":0,"code_postal":"20290","population":418,"superficie_km2":"1297.12","latitude_centre":"42.5237","longitude_centre":"9.3699","distance_km":3.38},{"id":0,"code_insee":"2B206","nom_standard":"Penta-Acquatella","nom_a":null,"nom_de":null,"slug_ville":"penta-acquatella","departement_id":0,"code_postal":"20290","population":41,"superficie_km2":"306.39","latitude_centre":"42.4651","longitude_centre":"9.3729","distance_km":3.53},{"id":18289,"code_insee":"2B039","nom_standard":"Bisinchi","nom_a":null,"nom_de":null,"slug_ville":"bisinchi","departement_id":0,"code_postal":"20235","population":183,"superficie_km2":"1269.39","latitude_centre":"42.4816","longitude_centre":"9.3137","distance_km":3.88},{"id":0,"code_insee":"2B250","nom_standard":"Prunelli-di-Casacconi","nom_a":null,"nom_de":null,"slug_ville":"prunelli-di-casacconi","departement_id":0,"code_postal":"20290","population":151,"superficie_km2":"600.65","latitude_centre":"42.5094","longitude_centre":"9.4043","distance_km":4.17},{"id":0,"code_insee":"2B195","nom_standard":"Ortiporio","nom_a":null,"nom_de":null,"slug_ville":"ortiporio","departement_id":0,"code_postal":"20290","population":139,"superficie_km2":"502.24","latitude_centre":"42.4568","longitude_centre":"9.3457","distance_km":4.32},{"id":0,"code_insee":"2B055","nom_standard":"Campitello","nom_a":null,"nom_de":null,"slug_ville":"campitello","departement_id":0,"code_postal":"20252","population":107,"superficie_km2":"817.63","latitude_centre":"42.5272","longitude_centre":"9.3279","distance_km":4.35},{"id":0,"code_insee":"2B166","nom_standard":"Monte","nom_a":null,"nom_de":null,"slug_ville":"monte","departement_id":0,"code_postal":"20290","population":650,"superficie_km2":"1483.93","latitude_centre":"42.4874","longitude_centre":"9.4118","distance_km":4.53},{"id":0,"code_insee":"2B192","nom_standard":"Olmo","nom_a":null,"nom_de":null,"slug_ville":"olmo","departement_id":0,"code_postal":"20290","population":138,"superficie_km2":"442.52","latitude_centre":"42.5018","longitude_centre":"9.4139","distance_km":4.69},{"id":0,"code_insee":"2B274","nom_standard":"Scolca","nom_a":null,"nom_de":null,"slug_ville":"scolca","departement_id":0,"code_postal":"20290","population":92,"superficie_km2":"687.65","latitude_centre":"42.5389","longitude_centre":"9.3675","distance_km":4.98},{"id":0,"code_insee":"2B069","nom_standard":"Casabianca","nom_a":null,"nom_de":null,"slug_ville":"casabianca","departement_id":0,"code_postal":"20237","population":123,"superficie_km2":"366.06","latitude_centre":"42.4467","longitude_centre":"9.3748","distance_km":5.52},{"id":0,"code_insee":"2B079","nom_standard":"Castello-di-Rostino","nom_a":null,"nom_de":null,"slug_ville":"castello-di-rostino","departement_id":0,"code_postal":"20235","population":522,"superficie_km2":"1248.43","latitude_centre":"42.4732","longitude_centre":"9.2967","distance_km":5.53},{"id":18288,"code_insee":"2B036","nom_standard":"Bigorno","nom_a":null,"nom_de":null,"slug_ville":"bigorno","departement_id":0,"code_postal":"20252","population":97,"superficie_km2":"895.10","latitude_centre":"42.5274","longitude_centre":"9.3044","distance_km":5.67},{"id":0,"code_insee":"2B125","nom_standard":"Giocatojo","nom_a":null,"nom_de":null,"slug_ville":"giocatojo","departement_id":0,"code_postal":"20237","population":46,"superficie_km2":"244.89","latitude_centre":"42.4442","longitude_centre":"9.3439","distance_km":5.73},{"id":0,"code_insee":"2B350","nom_standard":"Vignale","nom_a":null,"nom_de":null,"slug_ville":"vignale","departement_id":0,"code_postal":"20290","population":222,"superficie_km2":"1082.01","latitude_centre":"42.539","longitude_centre":"9.3997","distance_km":6.02},{"id":0,"code_insee":"2B145","nom_standard":"Loreto-di-Casinca","nom_a":null,"nom_de":null,"slug_ville":"loreto-di-casinca","departement_id":0,"code_postal":"20215","population":188,"superficie_km2":"812.32","latitude_centre":"42.4767","longitude_centre":"9.4268","distance_km":6.02},{"id":0,"code_insee":"2B241","nom_standard":"Poggio-Marinaccio","nom_a":null,"nom_de":null,"slug_ville":"poggio-marinaccio","departement_id":0,"code_postal":"20237","population":38,"superficie_km2":"290.56","latitude_centre":"42.4374","longitude_centre":"9.3493","distance_km":6.41},{"id":0,"code_insee":"2B214","nom_standard":"Piano","nom_a":null,"nom_de":null,"slug_ville":"piano","departement_id":0,"code_postal":"20215","population":17,"superficie_km2":"342.86","latitude_centre":"42.4407","longitude_centre":"9.3964","distance_km":6.8},{"id":0,"code_insee":"2B255","nom_standard":"Quercitello","nom_a":null,"nom_de":null,"slug_ville":"quercitello","departement_id":0,"code_postal":"20237","population":53,"superficie_km2":"297.30","latitude_centre":"42.4279","longitude_centre":"9.3511","distance_km":7.45},{"id":0,"code_insee":"2B246","nom_standard":"La Porta","nom_a":null,"nom_de":null,"slug_ville":"la-porta","departement_id":0,"code_postal":"20237","population":187,"superficie_km2":"512.86","latitude_centre":"42.4271","longitude_centre":"9.3602","distance_km":7.52}]}