{"ville":{"id":2021,"code_insee":"27126","nom_standard":"Campigny","nom_a":null,"nom_de":null,"slug_ville":"campigny","departement_id":628,"code_postal":"27500","population":1106,"superficie_km2":"11.00","latitude_centre":"49.3180008","longitude_centre":"0.5620000","dep_code":"27","dep_nom":"Eure","dep_slug":"eure","reg_code":"14","reg_nom":"Normandie","reg_slug":"normandie"},"departement":{"code":"27","nom":"Eure","slug":"eure"},"region":{"code":"14","nom":"Normandie","slug":"normandie"},"villes_proches":[{"id":2029,"code_insee":"27174","nom_standard":"Corneville-sur-Risle","nom_a":null,"nom_de":null,"slug_ville":"corneville-sur-risle","departement_id":628,"code_postal":"27500","population":1374,"superficie_km2":"13.00","latitude_centre":"49.3409996","longitude_centre":"0.5980000","distance_km":3.65},{"id":2084,"code_insee":"27467","nom_standard":"Pont-Audemer","nom_a":null,"nom_de":null,"slug_ville":"pont-audemer","departement_id":628,"code_postal":"27500","population":9848,"superficie_km2":"10.00","latitude_centre":"49.3460007","longitude_centre":"0.5340000","distance_km":3.72},{"id":2069,"code_insee":"27385","nom_standard":"Manneville-sur-Risle","nom_a":null,"nom_de":null,"slug_ville":"manneville-sur-risle","departement_id":628,"code_postal":"27500","population":1456,"superficie_km2":"9.00","latitude_centre":"49.3610001","longitude_centre":"0.5460000","distance_km":4.92},{"id":2046,"code_insee":"27263","nom_standard":"Le Perrey","nom_a":null,"nom_de":null,"slug_ville":"le-perrey","departement_id":628,"code_postal":"27680","population":1229,"superficie_km2":"10.00","latitude_centre":"49.3779984","longitude_centre":"0.5740000","distance_km":6.73},{"id":2111,"code_insee":"27656","nom_standard":"Toutainville","nom_a":null,"nom_de":null,"slug_ville":"toutainville","departement_id":628,"code_postal":"27500","population":1290,"superficie_km2":"12.00","latitude_centre":"49.3569984","longitude_centre":"0.4590000","distance_km":8.63},{"id":2015,"code_insee":"27107","nom_standard":"Bourneville-Sainte-Croix","nom_a":null,"nom_de":null,"slug_ville":"bourneville-sainte-croix","departement_id":628,"code_postal":"27500","population":1343,"superficie_km2":"11.00","latitude_centre":"49.3919983","longitude_centre":"0.6200000","distance_km":9.24},{"id":2038,"code_insee":"27218","nom_standard":"Épaignes","nom_a":null,"nom_de":null,"slug_ville":"epaignes","departement_id":628,"code_postal":"27260","population":1558,"superficie_km2":"26.00","latitude_centre":"49.2729988","longitude_centre":"0.4540000","distance_km":9.29},{"id":2066,"code_insee":"27367","nom_standard":"Lieurey","nom_a":null,"nom_de":null,"slug_ville":"lieurey","departement_id":628,"code_postal":"27560","population":1477,"superficie_km2":"18.00","latitude_centre":"49.2330017","longitude_centre":"0.5010000","distance_km":10.44},{"id":2089,"code_insee":"27497","nom_standard":"Rougemontiers","nom_a":null,"nom_de":null,"slug_ville":"rougemontiers","departement_id":628,"code_postal":"27350","population":1032,"superficie_km2":"12.00","latitude_centre":"49.3580017","longitude_centre":"0.7250000","distance_km":12.62},{"id":2011,"code_insee":"27100","nom_standard":"Boulleville","nom_a":null,"nom_de":null,"slug_ville":"boulleville","departement_id":628,"code_postal":"27210","population":1209,"superficie_km2":"7.00","latitude_centre":"49.3699989","longitude_centre":"0.3930000","distance_km":13.54},{"id":2090,"code_insee":"27500","nom_standard":"Routot","nom_a":null,"nom_de":null,"slug_ville":"routot","departement_id":628,"code_postal":"27350","population":1670,"superficie_km2":"7.00","latitude_centre":"49.3849983","longitude_centre":"0.7260000","distance_km":14.02},{"id":2028,"code_insee":"27170","nom_standard":"Cormeilles","nom_a":null,"nom_de":null,"slug_ville":"cormeilles","departement_id":628,"code_postal":"27260","population":1166,"superficie_km2":"3.00","latitude_centre":"49.2519989","longitude_centre":"0.3850000","distance_km":14.79},{"id":8021,"code_insee":"76499","nom_standard":"Petiville","nom_a":null,"nom_de":null,"slug_ville":"petiville","departement_id":677,"code_postal":"76330","population":1142,"superficie_km2":"17.00","latitude_centre":"49.4539986","longitude_centre":"0.5840000","distance_km":15.21},{"id":2009,"code_insee":"27089","nom_standard":"Thénouville","nom_a":null,"nom_de":null,"slug_ville":"thenouville","departement_id":628,"code_postal":"27290","population":1009,"superficie_km2":"3.00","latitude_centre":"49.2989998","longitude_centre":"0.7720000","distance_km":15.37},{"id":2012,"code_insee":"27102","nom_standard":"Bouquetot","nom_a":null,"nom_de":null,"slug_ville":"bouquetot","departement_id":628,"code_postal":"27310","population":1027,"superficie_km2":"13.00","latitude_centre":"49.3610001","longitude_centre":"0.7700000","distance_km":15.81},{"id":2003,"code_insee":"27065","nom_standard":"Beuzeville","nom_a":null,"nom_de":null,"slug_ville":"beuzeville","departement_id":628,"code_postal":"27210","population":4689,"superficie_km2":"23.00","latitude_centre":"49.3380013","longitude_centre":"0.3430000","distance_km":16.03},{"id":2027,"code_insee":"27169","nom_standard":"Conteville","nom_a":null,"nom_de":null,"slug_ville":"conteville","departement_id":628,"code_postal":"27210","population":1019,"superficie_km2":"11.00","latitude_centre":"49.4179993","longitude_centre":"0.3910000","distance_km":16.64},{"id":2057,"code_insee":"27316","nom_standard":"Hauville","nom_a":null,"nom_de":null,"slug_ville":"hauville","departement_id":628,"code_postal":"27350","population":1294,"superficie_km2":"15.00","latitude_centre":"49.3969994","longitude_centre":"0.7670000","distance_km":17.25},{"id":8080,"code_insee":"76727","nom_standard":"Vatteville-la-Rue","nom_a":null,"nom_de":null,"slug_ville":"vatteville-la-rue","departement_id":677,"code_postal":"76940","population":1133,"superficie_km2":"49.00","latitude_centre":"49.4539986","longitude_centre":"0.6840000","distance_km":17.51},{"id":2008,"code_insee":"27085","nom_standard":"Flancourt-Crescy-en-Roumois","nom_a":null,"nom_de":null,"slug_ville":"flancourt-crescy-en-roumois","departement_id":628,"code_postal":"27310","population":1569,"superficie_km2":"4.00","latitude_centre":"49.3170013","longitude_centre":"0.8070000","distance_km":17.76}]}