{"ville":{"id":27561,"code_insee":"62206","nom_standard":"Campigneulles-les-Grandes","nom_a":null,"nom_de":null,"slug_ville":"campigneulles-les-grandes","departement_id":0,"code_postal":"62170","population":295,"superficie_km2":"536.31","latitude_centre":"50.4323","longitude_centre":"1.7069","dep_code":"62","dep_nom":"Pas-de-Calais","dep_slug":"pas-de-calais","reg_code":"32","reg_nom":"Hauts-de-France","reg_slug":"hauts-de-france"},"departement":{"code":"62","nom":"Pas-de-Calais","slug":"pas-de-calais"},"region":{"code":"32","nom":"Hauts-de-France","slug":"hauts-de-france"},"villes_proches":[{"id":0,"code_insee":"62207","nom_standard":"Campigneulles-les-Petites","nom_a":null,"nom_de":null,"slug_ville":"campigneulles-les-petites","departement_id":0,"code_postal":"62170","population":521,"superficie_km2":"620.66","latitude_centre":"50.4399","longitude_centre":"1.7353","distance_km":2.18},{"id":27429,"code_insee":"62015","nom_standard":"Airon-Notre-Dame","nom_a":null,"nom_de":null,"slug_ville":"airon-notre-dame","departement_id":0,"code_postal":"62180","population":261,"superficie_km2":"509.96","latitude_centre":"50.4416","longitude_centre":"1.6711","distance_km":2.74},{"id":0,"code_insee":"62799","nom_standard":"Sorrus","nom_a":null,"nom_de":null,"slug_ville":"sorrus","departement_id":0,"code_postal":"62170","population":942,"superficie_km2":"680.77","latitude_centre":"50.4565","longitude_centre":"1.7159","distance_km":2.77},{"id":27430,"code_insee":"62016","nom_standard":"Airon-Saint-Vaast","nom_a":null,"nom_de":null,"slug_ville":"airon-saint-vaast","departement_id":0,"code_postal":"62180","population":185,"superficie_km2":"589.47","latitude_centre":"50.4262","longitude_centre":"1.6687","distance_km":2.79},{"id":0,"code_insee":"62870","nom_standard":"Wailly-Beaucamp","nom_a":null,"nom_de":null,"slug_ville":"wailly-beaucamp","departement_id":0,"code_postal":"62170","population":1062,"superficie_km2":"1428.51","latitude_centre":"50.4065","longitude_centre":"1.7246","distance_km":3.13},{"id":0,"code_insee":"62742","nom_standard":"Saint-Aubin","nom_a":null,"nom_de":null,"slug_ville":"saint-aubin","departement_id":0,"code_postal":"62170","population":289,"superficie_km2":"443.99","latitude_centre":"50.4562","longitude_centre":"1.6689","distance_km":3.78},{"id":0,"code_insee":"62289","nom_standard":"Écuires","nom_a":null,"nom_de":null,"slug_ville":"ecuires","departement_id":0,"code_postal":"62170","population":682,"superficie_km2":"915.07","latitude_centre":"50.4372","longitude_centre":"1.7703","distance_km":4.52},{"id":0,"code_insee":"62688","nom_standard":"Rang-du-Fliers","nom_a":null,"nom_de":null,"slug_ville":"rang-du-fliers","departement_id":0,"code_postal":"62180","population":4297,"superficie_km2":"1071.51","latitude_centre":"50.4209","longitude_centre":"1.6454","distance_km":4.54},{"id":0,"code_insee":"62535","nom_standard":"La Madelaine-sous-Montreuil","nom_a":null,"nom_de":null,"slug_ville":"la-madelaine-sous-montreuil","departement_id":0,"code_postal":"62170","population":149,"superficie_km2":"245.55","latitude_centre":"50.4659","longitude_centre":"1.7473","distance_km":4.71},{"id":0,"code_insee":"62849","nom_standard":"Verton","nom_a":null,"nom_de":null,"slug_ville":"verton","departement_id":0,"code_postal":"62180","population":2571,"superficie_km2":"1102.36","latitude_centre":"50.4026","longitude_centre":"1.6497","distance_km":5.23},{"id":27556,"code_insee":"62196","nom_standard":"La Calotterie","nom_a":null,"nom_de":null,"slug_ville":"la-calotterie","departement_id":0,"code_postal":"62170","population":582,"superficie_km2":"947.05","latitude_centre":"50.4799","longitude_centre":"1.7204","distance_km":5.38},{"id":0,"code_insee":"62499","nom_standard":"Lépine","nom_a":null,"nom_de":null,"slug_ville":"lepine","departement_id":0,"code_postal":"62170","population":291,"superficie_km2":"1076.70","latitude_centre":"50.3849","longitude_centre":"1.7279","distance_km":5.48},{"id":0,"code_insee":"62588","nom_standard":"Montreuil-sur-Mer","nom_a":null,"nom_de":null,"slug_ville":"montreuil-sur-mer","departement_id":0,"code_postal":"62170","population":1912,"superficie_km2":"280.07","latitude_centre":"50.4654","longitude_centre":"1.777","distance_km":6.18},{"id":0,"code_insee":"62752","nom_standard":"Saint-Josse","nom_a":null,"nom_de":null,"slug_ville":"saint-josse","departement_id":0,"code_postal":"62170","population":1041,"superficie_km2":"2093.76","latitude_centre":"50.483","longitude_centre":"1.6641","distance_km":6.4},{"id":0,"code_insee":"62866","nom_standard":"Waben","nom_a":null,"nom_de":null,"slug_ville":"waben","departement_id":0,"code_postal":"62180","population":449,"superficie_km2":"872.11","latitude_centre":"50.3801","longitude_centre":"1.6535","distance_km":6.93},{"id":27504,"code_insee":"62124","nom_standard":"Beutin","nom_a":null,"nom_de":null,"slug_ville":"beutin","departement_id":0,"code_postal":"62170","population":436,"superficie_km2":"296.12","latitude_centre":"50.497","longitude_centre":"1.7283","distance_km":7.35},{"id":0,"code_insee":"62233","nom_standard":"Conchil-le-Temple","nom_a":null,"nom_de":null,"slug_ville":"conchil-le-temple","departement_id":0,"code_postal":"62180","population":1073,"superficie_km2":"1642.23","latitude_centre":"50.3685","longitude_centre":"1.6753","distance_km":7.44},{"id":27444,"code_insee":"62044","nom_standard":"Attin","nom_a":null,"nom_de":null,"slug_ville":"attin","departement_id":0,"code_postal":"62170","population":885,"superficie_km2":"659.48","latitude_centre":"50.4926","longitude_centre":"1.7533","distance_km":7.47},{"id":27544,"code_insee":"62176","nom_standard":"Bréxent-Énocq","nom_a":null,"nom_de":null,"slug_ville":"brexent-enocq","departement_id":0,"code_postal":"62170","population":634,"superficie_km2":"727.21","latitude_centre":"50.5066","longitude_centre":"1.7235","distance_km":8.34},{"id":0,"code_insee":"62815","nom_standard":"Tigny-Noyelle","nom_a":null,"nom_de":null,"slug_ville":"tigny-noyelle","departement_id":0,"code_postal":"62180","population":163,"superficie_km2":"667.92","latitude_centre":"50.356","longitude_centre":"1.7087","distance_km":8.49}]}