{"ville":{"id":29314,"code_insee":"66039","nom_standard":"Caramany","nom_a":null,"nom_de":null,"slug_ville":"caramany","departement_id":0,"code_postal":"66720","population":129,"superficie_km2":"1424.98","latitude_centre":"42.7388","longitude_centre":"2.5572","dep_code":"66","dep_nom":"Pyrénées-Orientales","dep_slug":"pyrenees-orientales","reg_code":"76","reg_nom":"Occitanie","reg_slug":"occitanie"},"departement":{"code":"66","nom":"Pyrénées-Orientales","slug":"pyrenees-orientales"},"region":{"code":"76","nom":"Occitanie","slug":"occitanie"},"villes_proches":[{"id":0,"code_insee":"66216","nom_standard":"Trilla","nom_a":null,"nom_de":null,"slug_ville":"trilla","departement_id":0,"code_postal":"66220","population":77,"superficie_km2":"914.20","latitude_centre":"42.7369","longitude_centre":"2.5229","distance_km":2.81},{"id":0,"code_insee":"66092","nom_standard":"Lansac","nom_a":null,"nom_de":null,"slug_ville":"lansac","departement_id":0,"code_postal":"66720","population":89,"superficie_km2":"526.46","latitude_centre":"42.7685","longitude_centre":"2.5651","distance_km":3.36},{"id":29297,"code_insee":"66006","nom_standard":"Ansignan","nom_a":null,"nom_de":null,"slug_ville":"ansignan","departement_id":0,"code_postal":"66220","population":164,"superficie_km2":"798.36","latitude_centre":"42.7646","longitude_centre":"2.5233","distance_km":3.99},{"id":0,"code_insee":"66169","nom_standard":"Saint-Arnac","nom_a":null,"nom_de":null,"slug_ville":"saint-arnac","departement_id":0,"code_postal":"66220","population":99,"superficie_km2":"690.21","latitude_centre":"42.7737","longitude_centre":"2.5343","distance_km":4.31},{"id":0,"code_insee":"66111","nom_standard":"Montalba-le-Château","nom_a":null,"nom_de":null,"slug_ville":"montalba-le-chateau","departement_id":0,"code_postal":"66130","population":163,"superficie_km2":"1597.65","latitude_centre":"42.699","longitude_centre":"2.5658","distance_km":4.48},{"id":0,"code_insee":"66215","nom_standard":"Trévillach","nom_a":null,"nom_de":null,"slug_ville":"trevillach","departement_id":0,"code_postal":"66130","population":201,"superficie_km2":"1744.04","latitude_centre":"42.7091","longitude_centre":"2.5105","distance_km":5.05},{"id":0,"code_insee":"66158","nom_standard":"Rasiguères","nom_a":null,"nom_de":null,"slug_ville":"rasigueres","departement_id":0,"code_postal":"66720","population":165,"superficie_km2":"1387.96","latitude_centre":"42.7732","longitude_centre":"2.5979","distance_km":5.07},{"id":29302,"code_insee":"66019","nom_standard":"Bélesta","nom_a":null,"nom_de":null,"slug_ville":"belesta","departement_id":0,"code_postal":"66720","population":270,"superficie_km2":"2049.25","latitude_centre":"42.7241","longitude_centre":"2.6228","distance_km":5.6},{"id":0,"code_insee":"66042","nom_standard":"Cassagnes","nom_a":null,"nom_de":null,"slug_ville":"cassagnes","departement_id":0,"code_postal":"66720","population":294,"superficie_km2":"1522.89","latitude_centre":"42.7415","longitude_centre":"2.626","distance_km":5.63},{"id":0,"code_insee":"66139","nom_standard":"Pézilla-de-Conflent","nom_a":null,"nom_de":null,"slug_ville":"pezilla-de-conflent","departement_id":0,"code_postal":"66730","population":46,"superficie_km2":"675.91","latitude_centre":"42.7356","longitude_centre":"2.4884","distance_km":5.63},{"id":0,"code_insee":"66097","nom_standard":"Lesquerde","nom_a":null,"nom_de":null,"slug_ville":"lesquerde","departement_id":0,"code_postal":"66220","population":141,"superficie_km2":"1566.04","latitude_centre":"42.7927","longitude_centre":"2.5381","distance_km":6.19},{"id":0,"code_insee":"66076","nom_standard":"Feilluns","nom_a":null,"nom_de":null,"slug_ville":"feilluns","departement_id":0,"code_postal":"66730","population":59,"superficie_km2":"670.76","latitude_centre":"42.7613","longitude_centre":"2.4877","distance_km":6.2},{"id":0,"code_insee":"66143","nom_standard":"Planèzes","nom_a":null,"nom_de":null,"slug_ville":"planezes","departement_id":0,"code_postal":"66720","population":99,"superficie_km2":"622.72","latitude_centre":"42.7736","longitude_centre":"2.6215","distance_km":6.52},{"id":0,"code_insee":"66201","nom_standard":"Tarerach","nom_a":null,"nom_de":null,"slug_ville":"tarerach","departement_id":0,"code_postal":"66320","population":42,"superficie_km2":"823.70","latitude_centre":"42.6816","longitude_centre":"2.5081","distance_km":7.52},{"id":0,"code_insee":"66184","nom_standard":"Saint-Martin-de-Fenouillet","nom_a":null,"nom_de":null,"slug_ville":"saint-martin-de-fenouillet","departement_id":0,"code_postal":"66220","population":49,"superficie_km2":"934.86","latitude_centre":"42.7848","longitude_centre":"2.4777","distance_km":8.26},{"id":0,"code_insee":"66096","nom_standard":"Latour-de-France","nom_a":null,"nom_de":null,"slug_ville":"latour-de-france","departement_id":0,"code_postal":"66720","population":1043,"superficie_km2":"1409.41","latitude_centre":"42.7701","longitude_centre":"2.6498","distance_km":8.32},{"id":0,"code_insee":"66088","nom_standard":"Ille-sur-Têt","nom_a":null,"nom_de":null,"slug_ville":"ille-sur-tet","departement_id":0,"code_postal":"66130","population":5556,"superficie_km2":"3168.83","latitude_centre":"42.6746","longitude_centre":"2.6167","distance_km":8.64},{"id":0,"code_insee":"66165","nom_standard":"Rodès","nom_a":null,"nom_de":null,"slug_ville":"rodes","departement_id":0,"code_postal":"66320","population":758,"superficie_km2":"1862.19","latitude_centre":"42.6563","longitude_centre":"2.5485","distance_km":9.2},{"id":29298,"code_insee":"66007","nom_standard":"Arboussols","nom_a":null,"nom_de":null,"slug_ville":"arboussols","departement_id":0,"code_postal":"66320","population":130,"superficie_km2":"1406.94","latitude_centre":"42.6669","longitude_centre":"2.4953","distance_km":9.46},{"id":0,"code_insee":"66107","nom_standard":"Maury","nom_a":null,"nom_de":null,"slug_ville":"maury","departement_id":0,"code_postal":"66460","population":773,"superficie_km2":"3462.36","latitude_centre":"42.816","longitude_centre":"2.6194","distance_km":9.97}]}