{"ville":{"id":8798,"code_insee":"83032","nom_standard":"Carcès","nom_a":null,"nom_de":null,"slug_ville":"carces","departement_id":684,"code_postal":"83570","population":3405,"superficie_km2":"36.00","latitude_centre":"43.4690018","longitude_centre":"6.1760001","dep_code":"83","dep_nom":"Var","dep_slug":"var","reg_code":"18","reg_nom":"Provence-Alpes-Côte d'Azur","reg_slug":"provence-alpes-cote-d-azur"},"departement":{"code":"83","nom":"Var","slug":"var"},"region":{"code":"18","nom":"Provence-Alpes-Côte d'Azur","slug":"provence-alpes-cote-d-azur"},"villes_proches":[{"id":8836,"code_insee":"83083","nom_standard":"Montfort-sur-Argens","nom_a":null,"nom_de":null,"slug_ville":"montfort-sur-argens","departement_id":684,"code_postal":"83570","population":1466,"superficie_km2":"12.00","latitude_centre":"43.4809990","longitude_centre":"6.1259999","distance_km":4.25},{"id":8806,"code_insee":"83046","nom_standard":"Cotignac","nom_a":null,"nom_de":null,"slug_ville":"cotignac","departement_id":684,"code_postal":"83570","population":2136,"superficie_km2":"44.00","latitude_centre":"43.5229988","longitude_centre":"6.1450000","distance_km":6.5},{"id":8792,"code_insee":"83026","nom_standard":"Cabasse","nom_a":null,"nom_de":null,"slug_ville":"cabasse","departement_id":684,"code_postal":"83340","population":1951,"superficie_km2":"46.00","latitude_centre":"43.4269981","longitude_centre":"6.2319999","distance_km":6.5},{"id":8811,"code_insee":"83051","nom_standard":"Entrecasteaux","nom_a":null,"nom_de":null,"slug_ville":"entrecasteaux","departement_id":684,"code_postal":"83570","population":1127,"superficie_km2":"32.00","latitude_centre":"43.5120010","longitude_centre":"6.2350001","distance_km":6.75},{"id":8881,"code_insee":"83136","nom_standard":"Le Thoronet","nom_a":null,"nom_de":null,"slug_ville":"le-thoronet","departement_id":684,"code_postal":"83340","population":2613,"superficie_km2":"37.00","latitude_centre":"43.4589996","longitude_centre":"6.2830000","distance_km":8.71},{"id":8886,"code_insee":"83143","nom_standard":"Le Val","nom_a":null,"nom_de":null,"slug_ville":"le-val","departement_id":684,"code_postal":"83143","population":4270,"superficie_km2":"39.00","latitude_centre":"43.4449997","longitude_centre":"6.0520000","distance_km":10.36},{"id":8816,"code_insee":"83057","nom_standard":"Flassans-sur-Issole","nom_a":null,"nom_de":null,"slug_ville":"flassans-sur-issole","departement_id":684,"code_postal":"83340","population":3621,"superficie_km2":"45.00","latitude_centre":"43.3759995","longitude_centre":"6.2220001","distance_km":10.99},{"id":8790,"code_insee":"83023","nom_standard":"Brignoles","nom_a":null,"nom_de":null,"slug_ville":"brignoles","departement_id":684,"code_postal":"83170","population":17664,"superficie_km2":"71.00","latitude_centre":"43.3989983","longitude_centre":"6.0770001","distance_km":11.16},{"id":8868,"code_insee":"83121","nom_standard":"Salernes","nom_a":null,"nom_de":null,"slug_ville":"salernes","departement_id":684,"code_postal":"83690","population":3784,"superficie_km2":"40.00","latitude_centre":"43.5620003","longitude_centre":"6.2290001","distance_km":11.19},{"id":8796,"code_insee":"83030","nom_standard":"Camps-la-Source","nom_a":null,"nom_de":null,"slug_ville":"camps-la-source","departement_id":684,"code_postal":"83170","population":1901,"superficie_km2":"23.00","latitude_centre":"43.3720017","longitude_centre":"6.1209998","distance_km":11.66},{"id":8891,"code_insee":"83149","nom_standard":"Villecroze","nom_a":null,"nom_de":null,"slug_ville":"villecroze","departement_id":684,"code_postal":"83690","population":1494,"superficie_km2":"21.00","latitude_centre":"43.5639992","longitude_centre":"6.2849998","distance_km":13.74},{"id":8787,"code_insee":"83018","nom_standard":"Besse-sur-Issole","nom_a":null,"nom_de":null,"slug_ville":"besse-sur-issole","departement_id":684,"code_postal":"83890","population":3095,"superficie_km2":"37.00","latitude_centre":"43.3400002","longitude_centre":"6.1780000","distance_km":14.35},{"id":8831,"code_insee":"83073","nom_standard":"Le Luc","nom_a":null,"nom_de":null,"slug_ville":"le-luc","departement_id":684,"code_postal":"83340","population":11053,"superficie_km2":"44.00","latitude_centre":"43.3800011","longitude_centre":"6.3060002","distance_km":14.43},{"id":8830,"code_insee":"83072","nom_standard":"Lorgues","nom_a":null,"nom_de":null,"slug_ville":"lorgues","departement_id":684,"code_postal":"83510","population":9542,"superficie_km2":"65.00","latitude_centre":"43.4819984","longitude_centre":"6.3590002","distance_km":14.84},{"id":8859,"code_insee":"83111","nom_standard":"Sainte-Anastasie-sur-Issole","nom_a":null,"nom_de":null,"slug_ville":"sainte-anastasie-sur-issole","departement_id":684,"code_postal":"83136","population":2117,"superficie_km2":"11.00","latitude_centre":"43.3330002","longitude_centre":"6.1250000","distance_km":15.67},{"id":8818,"code_insee":"83059","nom_standard":"Forcalqueiret","nom_a":null,"nom_de":null,"slug_ville":"forcalqueiret","departement_id":684,"code_postal":"83136","population":3269,"superficie_km2":"11.00","latitude_centre":"43.3370018","longitude_centre":"6.0910001","distance_km":16.2},{"id":8817,"code_insee":"83058","nom_standard":"Flayosc","nom_a":null,"nom_de":null,"slug_ville":"flayosc","departement_id":684,"code_postal":"83780","population":4354,"superficie_km2":"46.00","latitude_centre":"43.5419998","longitude_centre":"6.3629999","distance_km":17.13},{"id":8803,"code_insee":"83037","nom_standard":"La Celle","nom_a":null,"nom_de":null,"slug_ville":"la-celle","departement_id":684,"code_postal":"83170","population":1592,"superficie_km2":"22.00","latitude_centre":"43.3839989","longitude_centre":"5.9990001","distance_km":17.14},{"id":8789,"code_insee":"83021","nom_standard":"Bras","nom_a":null,"nom_de":null,"slug_ville":"bras","departement_id":684,"code_postal":"83149","population":2632,"superficie_km2":"36.00","latitude_centre":"43.4700012","longitude_centre":"5.9580002","distance_km":17.59},{"id":8780,"code_insee":"83007","nom_standard":"Aups","nom_a":null,"nom_de":null,"slug_ville":"aups","departement_id":684,"code_postal":"83630","population":2317,"superficie_km2":"65.00","latitude_centre":"43.6250000","longitude_centre":"6.2210002","distance_km":17.72}]}