{"ville":{"id":28541,"code_insee":"64165","nom_standard":"Cardesse","nom_a":null,"nom_de":null,"slug_ville":"cardesse","departement_id":0,"code_postal":"64360","population":293,"superficie_km2":"768.57","latitude_centre":"43.2654","longitude_centre":"-0.5918","dep_code":"64","dep_nom":"Pyrénées-Atlantiques","dep_slug":"pyrenees-atlantiques","reg_code":"75","reg_nom":"Nouvelle-Aquitaine","reg_slug":"nouvelle-aquitaine"},"departement":{"code":"64","nom":"Pyrénées-Atlantiques","slug":"pyrenees-atlantiques"},"region":{"code":"75","nom":"Nouvelle-Aquitaine","slug":"nouvelle-aquitaine"},"villes_proches":[{"id":0,"code_insee":"64393","nom_standard":"Monein","nom_a":null,"nom_de":null,"slug_ville":"monein","departement_id":0,"code_postal":"64360","population":4446,"superficie_km2":"8090.13","latitude_centre":"43.2905","longitude_centre":"-0.5628","distance_km":3.65},{"id":0,"code_insee":"64328","nom_standard":"Ledeuix","nom_a":null,"nom_de":null,"slug_ville":"ledeuix","departement_id":0,"code_postal":"64400","population":1029,"superficie_km2":"1353.23","latitude_centre":"43.2326","longitude_centre":"-0.6126","distance_km":4.02},{"id":0,"code_insee":"64219","nom_standard":"Estialescq","nom_a":null,"nom_de":null,"slug_ville":"estialescq","departement_id":0,"code_postal":"64290","population":257,"superficie_km2":"507.97","latitude_centre":"43.2236","longitude_centre":"-0.5539","distance_km":5.57},{"id":0,"code_insee":"64551","nom_standard":"Verdets","nom_a":null,"nom_de":null,"slug_ville":"verdets","departement_id":0,"code_postal":"64400","population":300,"superficie_km2":"558.03","latitude_centre":"43.2318","longitude_centre":"-0.6431","distance_km":5.59},{"id":0,"code_insee":"64245","nom_standard":"Goès","nom_a":null,"nom_de":null,"slug_ville":"goes","departement_id":0,"code_postal":"64400","population":520,"superficie_km2":"478.06","latitude_centre":"43.216","longitude_centre":"-0.5782","distance_km":5.6},{"id":0,"code_insee":"64197","nom_standard":"Cuqueron","nom_a":null,"nom_de":null,"slug_ville":"cuqueron","departement_id":0,"code_postal":"64360","population":189,"superficie_km2":"353.95","latitude_centre":"43.3088","longitude_centre":"-0.5528","distance_km":5.77},{"id":0,"code_insee":"64220","nom_standard":"Estos","nom_a":null,"nom_de":null,"slug_ville":"estos","departement_id":0,"code_postal":"64400","population":481,"superficie_km2":"318.89","latitude_centre":"43.2143","longitude_centre":"-0.6071","distance_km":5.82},{"id":0,"code_insee":"64359","nom_standard":"Lucq-de-Béarn","nom_a":null,"nom_de":null,"slug_ville":"lucq-de-bearn","departement_id":0,"code_postal":"64360","population":925,"superficie_km2":"4880.85","latitude_centre":"43.2972","longitude_centre":"-0.6497","distance_km":5.87},{"id":0,"code_insee":"64449","nom_standard":"Poey-d'Oloron","nom_a":null,"nom_de":null,"slug_ville":"poey-d-oloron","departement_id":0,"code_postal":"64400","population":163,"superficie_km2":"480.94","latitude_centre":"43.2479","longitude_centre":"-0.6621","distance_km":6.02},{"id":0,"code_insee":"64508","nom_standard":"Saucède","nom_a":null,"nom_de":null,"slug_ville":"saucede","departement_id":0,"code_postal":"64400","population":125,"superficie_km2":"711.72","latitude_centre":"43.2629","longitude_centre":"-0.6716","distance_km":6.47},{"id":0,"code_insee":"64299","nom_standard":"Lacommande","nom_a":null,"nom_de":null,"slug_ville":"lacommande","departement_id":0,"code_postal":"64360","population":172,"superficie_km2":"329.80","latitude_centre":"43.276","longitude_centre":"-0.5096","distance_km":6.76},{"id":0,"code_insee":"64460","nom_standard":"Précilhon","nom_a":null,"nom_de":null,"slug_ville":"precilhon","departement_id":0,"code_postal":"64400","population":409,"superficie_km2":"637.58","latitude_centre":"43.1935","longitude_centre":"-0.572","distance_km":8.15},{"id":0,"code_insee":"64426","nom_standard":"Orin","nom_a":null,"nom_de":null,"slug_ville":"orin","departement_id":0,"code_postal":"64400","population":269,"superficie_km2":"432.15","latitude_centre":"43.2251","longitude_centre":"-0.6758","distance_km":8.15},{"id":0,"code_insee":"64409","nom_standard":"Moumour","nom_a":null,"nom_de":null,"slug_ville":"moumour","departement_id":0,"code_postal":"64400","population":814,"superficie_km2":"814.63","latitude_centre":"43.2134","longitude_centre":"-0.6647","distance_km":8.26},{"id":0,"code_insee":"64442","nom_standard":"Parbayse","nom_a":null,"nom_de":null,"slug_ville":"parbayse","departement_id":0,"code_postal":"64360","population":316,"superficie_km2":"642.73","latitude_centre":"43.3335","longitude_centre":"-0.55","distance_km":8.29},{"id":0,"code_insee":"64209","nom_standard":"Escout","nom_a":null,"nom_de":null,"slug_ville":"escout","departement_id":0,"code_postal":"64870","population":423,"superficie_km2":"950.73","latitude_centre":"43.189","longitude_centre":"-0.5523","distance_km":9.08},{"id":0,"code_insee":"64126","nom_standard":"Bidos","nom_a":null,"nom_de":null,"slug_ville":"bidos","departement_id":0,"code_postal":"64400","population":1102,"superficie_km2":"137.58","latitude_centre":"43.1759","longitude_centre":"-0.6054","distance_km":10.01},{"id":0,"code_insee":"64306","nom_standard":"Lahourcade","nom_a":null,"nom_de":null,"slug_ville":"lahourcade","departement_id":0,"code_postal":"64150","population":709,"superficie_km2":"1096.33","latitude_centre":"43.3562","longitude_centre":"-0.6275","distance_km":10.5},{"id":28422,"code_insee":"64005","nom_standard":"Abos","nom_a":null,"nom_de":null,"slug_ville":"abos","departement_id":0,"code_postal":"64360","population":526,"superficie_km2":"846.66","latitude_centre":"43.3548","longitude_centre":"-0.5493","distance_km":10.52},{"id":0,"code_insee":"64422","nom_standard":"Oloron-Sainte-Marie","nom_a":null,"nom_de":null,"slug_ville":"oloron-sainte-marie","departement_id":0,"code_postal":"64400","population":10684,"superficie_km2":"6858.53","latitude_centre":"43.1679","longitude_centre":"-0.5954","distance_km":10.85}]}