{"ville":{"id":13906,"code_insee":"15028","nom_standard":"Carlat","nom_a":null,"nom_de":null,"slug_ville":"carlat","departement_id":0,"code_postal":"15130","population":393,"superficie_km2":"2087.41","latitude_centre":"44.8776","longitude_centre":"2.5729","dep_code":"15","dep_nom":"Cantal","dep_slug":"cantal","reg_code":"84","reg_nom":"Auvergne-Rhône-Alpes","reg_slug":"auvergne-rhone-alpes"},"departement":{"code":"15","nom":"Cantal","slug":"cantal"},"region":{"code":"84","nom":"Auvergne-Rhône-Alpes","slug":"auvergne-rhone-alpes"},"villes_proches":[{"id":0,"code_insee":"15085","nom_standard":"Labrousse","nom_a":null,"nom_de":null,"slug_ville":"labrousse","departement_id":0,"code_postal":"15130","population":478,"superficie_km2":"1995.37","latitude_centre":"44.8502","longitude_centre":"2.5483","distance_km":3.61},{"id":0,"code_insee":"15058","nom_standard":"Cros-de-Ronesque","nom_a":null,"nom_de":null,"slug_ville":"cros-de-ronesque","departement_id":0,"code_postal":"15130","population":145,"superficie_km2":"1621.45","latitude_centre":"44.8577","longitude_centre":"2.6108","distance_km":3.72},{"id":0,"code_insee":"15183","nom_standard":"Saint-Étienne-de-Carlat","nom_a":null,"nom_de":null,"slug_ville":"saint-etienne-de-carlat","departement_id":0,"code_postal":"15130","population":119,"superficie_km2":"1060.00","latitude_centre":"44.9126","longitude_centre":"2.5848","distance_km":4.0},{"id":0,"code_insee":"15255","nom_standard":"Vézac","nom_a":null,"nom_de":null,"slug_ville":"vezac","departement_id":0,"code_postal":"15130","population":1325,"superficie_km2":"1500.66","latitude_centre":"44.8933","longitude_centre":"2.5247","distance_km":4.18},{"id":13896,"code_insee":"15017","nom_standard":"Badailhac","nom_a":null,"nom_de":null,"slug_ville":"badailhac","departement_id":0,"code_postal":"15800","population":129,"superficie_km2":"1243.96","latitude_centre":"44.9144","longitude_centre":"2.626","distance_km":5.85},{"id":0,"code_insee":"15234","nom_standard":"Teissières-lès-Bouliès","nom_a":null,"nom_de":null,"slug_ville":"teissieres-les-boulies","departement_id":0,"code_postal":"15130","population":344,"superficie_km2":"1973.37","latitude_centre":"44.8197","longitude_centre":"2.5368","distance_km":7.04},{"id":0,"code_insee":"15266","nom_standard":"Yolet","nom_a":null,"nom_de":null,"slug_ville":"yolet","departement_id":0,"code_postal":"15130","population":596,"superficie_km2":"994.54","latitude_centre":"44.9351","longitude_centre":"2.5351","distance_km":7.05},{"id":0,"code_insee":"15159","nom_standard":"Raulhac","nom_a":null,"nom_de":null,"slug_ville":"raulhac","departement_id":0,"code_postal":"15800","population":274,"superficie_km2":"1711.39","latitude_centre":"44.9022","longitude_centre":"2.6573","distance_km":7.19},{"id":13455,"code_insee":"12277","nom_standard":"Taussac","nom_a":null,"nom_de":null,"slug_ville":"taussac","departement_id":0,"code_postal":"12600","population":504,"superficie_km2":"3949.09","latitude_centre":"44.8253","longitude_centre":"2.6375","distance_km":7.73},{"id":0,"code_insee":"15257","nom_standard":"Vezels-Roussy","nom_a":null,"nom_de":null,"slug_ville":"vezels-roussy","departement_id":0,"code_postal":"15130","population":132,"superficie_km2":"1306.02","latitude_centre":"44.8067","longitude_centre":"2.58","distance_km":7.9},{"id":0,"code_insee":"15074","nom_standard":"Giou-de-Mamou","nom_a":null,"nom_de":null,"slug_ville":"giou-de-mamou","departement_id":0,"code_postal":"15130","population":728,"superficie_km2":"1449.39","latitude_centre":"44.9355","longitude_centre":"2.5089","distance_km":8.18},{"id":0,"code_insee":"15012","nom_standard":"Arpajon-sur-Cère","nom_a":null,"nom_de":null,"slug_ville":"arpajon-sur-cere","departement_id":0,"code_postal":"15130","population":6361,"superficie_km2":"4770.24","latitude_centre":"44.879","longitude_centre":"2.4631","distance_km":8.65},{"id":0,"code_insee":"15154","nom_standard":"Polminhac","nom_a":null,"nom_de":null,"slug_ville":"polminhac","departement_id":0,"code_postal":"15800","population":1197,"superficie_km2":"2906.55","latitude_centre":"44.9554","longitude_centre":"2.5816","distance_km":8.68},{"id":13369,"code_insee":"12164","nom_standard":"Mur-de-Barrez","nom_a":null,"nom_de":null,"slug_ville":"mur-de-barrez","departement_id":0,"code_postal":"12600","population":693,"superficie_km2":"2031.37","latitude_centre":"44.8705","longitude_centre":"2.685","distance_km":8.87},{"id":0,"code_insee":"15081","nom_standard":"Jou-sous-Monjou","nom_a":null,"nom_de":null,"slug_ville":"jou-sous-monjou","departement_id":0,"code_postal":"15800","population":112,"superficie_km2":"627.35","latitude_centre":"44.9411","longitude_centre":"2.6605","distance_km":9.87},{"id":0,"code_insee":"15156","nom_standard":"Prunet","nom_a":null,"nom_de":null,"slug_ville":"prunet","departement_id":0,"code_postal":"15130","population":683,"superficie_km2":"2739.55","latitude_centre":"44.8272","longitude_centre":"2.4647","distance_km":10.21},{"id":0,"code_insee":"15103","nom_standard":"Leucamp","nom_a":null,"nom_de":null,"slug_ville":"leucamp","departement_id":0,"code_postal":"15120","population":244,"superficie_km2":"1364.98","latitude_centre":"44.7829","longitude_centre":"2.5363","distance_km":10.92},{"id":0,"code_insee":"15258","nom_standard":"Vic-sur-Cère","nom_a":null,"nom_de":null,"slug_ville":"vic-sur-cere","departement_id":0,"code_postal":"15800","population":1905,"superficie_km2":"2937.14","latitude_centre":"44.9687","longitude_centre":"2.6294","distance_km":11.06},{"id":0,"code_insee":"15215","nom_standard":"Saint-Simon","nom_a":null,"nom_de":null,"slug_ville":"saint-simon","departement_id":0,"code_postal":"15130","population":1159,"superficie_km2":"2706.84","latitude_centre":"44.966","longitude_centre":"2.4998","distance_km":11.39},{"id":0,"code_insee":"15252","nom_standard":"Velzic","nom_a":null,"nom_de":null,"slug_ville":"velzic","departement_id":0,"code_postal":"15590","population":401,"superficie_km2":"1123.99","latitude_centre":"44.9946","longitude_centre":"2.5591","distance_km":13.06}]}