{"ville":{"id":22289,"code_insee":"46059","nom_standard":"Carlucet","nom_a":null,"nom_de":null,"slug_ville":"carlucet","departement_id":0,"code_postal":"46500","population":230,"superficie_km2":"3400.09","latitude_centre":"44.7282","longitude_centre":"1.5975","dep_code":"46","dep_nom":"Lot","dep_slug":"lot","reg_code":"76","reg_nom":"Occitanie","reg_slug":"occitanie"},"departement":{"code":"46","nom":"Lot","slug":"lot"},"region":{"code":"76","nom":"Occitanie","slug":"occitanie"},"villes_proches":[{"id":0,"code_insee":"46304","nom_standard":"Séniergues","nom_a":null,"nom_de":null,"slug_ville":"seniergues","departement_id":0,"code_postal":"46240","population":146,"superficie_km2":"1820.88","latitude_centre":"44.7172","longitude_centre":"1.5551","distance_km":3.57},{"id":0,"code_insee":"46204","nom_standard":"Montfaucon","nom_a":null,"nom_de":null,"slug_ville":"montfaucon","departement_id":0,"code_postal":"46240","population":584,"superficie_km2":"2645.54","latitude_centre":"44.6876","longitude_centre":"1.5763","distance_km":4.82},{"id":0,"code_insee":"46121","nom_standard":"Ginouillac","nom_a":null,"nom_de":null,"slug_ville":"ginouillac","departement_id":0,"code_postal":"46300","population":139,"superficie_km2":"947.49","latitude_centre":"44.7253","longitude_centre":"1.5337","distance_km":5.05},{"id":0,"code_insee":"46078","nom_standard":"Couzou","nom_a":null,"nom_de":null,"slug_ville":"couzou","departement_id":0,"code_postal":"46500","population":95,"superficie_km2":"2162.24","latitude_centre":"44.7724","longitude_centre":"1.6273","distance_km":5.45},{"id":22257,"code_insee":"46018","nom_standard":"Le Bastit","nom_a":null,"nom_de":null,"slug_ville":"le-bastit","departement_id":0,"code_postal":"46500","population":145,"superficie_km2":"2797.57","latitude_centre":"44.7101","longitude_centre":"1.6782","distance_km":6.69},{"id":0,"code_insee":"46290","nom_standard":"Saint-Projet","nom_a":null,"nom_de":null,"slug_ville":"saint-projet","departement_id":0,"code_postal":"46300","population":363,"superficie_km2":"1583.72","latitude_centre":"44.7471","longitude_centre":"1.5117","distance_km":7.1},{"id":0,"code_insee":"46308","nom_standard":"Soucirac","nom_a":null,"nom_de":null,"slug_ville":"soucirac","departement_id":0,"code_postal":"46300","population":102,"superficie_km2":"1133.19","latitude_centre":"44.7073","longitude_centre":"1.503","distance_km":7.82},{"id":22279,"code_insee":"46047","nom_standard":"Calès","nom_a":null,"nom_de":null,"slug_ville":"cales","departement_id":0,"code_postal":"46350","population":169,"superficie_km2":"3398.68","latitude_centre":"44.7968","longitude_centre":"1.5494","distance_km":8.52},{"id":0,"code_insee":"46181","nom_standard":"Lunegarde","nom_a":null,"nom_de":null,"slug_ville":"lunegarde","departement_id":0,"code_postal":"46240","population":94,"superficie_km2":"1034.33","latitude_centre":"44.6853","longitude_centre":"1.6901","distance_km":8.74},{"id":0,"code_insee":"46236","nom_standard":"Reilhaguet","nom_a":null,"nom_de":null,"slug_ville":"reilhaguet","departement_id":0,"code_postal":"46350","population":156,"superficie_km2":"1597.26","latitude_centre":"44.7823","longitude_centre":"1.51","distance_km":9.16},{"id":0,"code_insee":"46138","nom_standard":"Cœur de Causse","nom_a":null,"nom_de":null,"slug_ville":"coeur-de-causse","departement_id":0,"code_postal":"46240","population":886,"superficie_km2":"7099.39","latitude_centre":"44.6441","longitude_centre":"1.604","distance_km":9.37},{"id":0,"code_insee":"46128","nom_standard":"Gramat","nom_a":null,"nom_de":null,"slug_ville":"gramat","departement_id":0,"code_postal":"46500","population":3512,"superficie_km2":"5714.85","latitude_centre":"44.7643","longitude_centre":"1.7125","distance_km":9.93},{"id":0,"code_insee":"46235","nom_standard":"Reilhac","nom_a":null,"nom_de":null,"slug_ville":"reilhac","departement_id":0,"code_postal":"46500","population":175,"superficie_km2":"1301.40","latitude_centre":"44.6999","longitude_centre":"1.723","distance_km":10.4},{"id":0,"code_insee":"46240","nom_standard":"Rocamadour","nom_a":null,"nom_de":null,"slug_ville":"rocamadour","departement_id":0,"code_postal":"46500","population":597,"superficie_km2":"4937.54","latitude_centre":"44.8197","longitude_centre":"1.6266","distance_km":10.43},{"id":0,"code_insee":"46310","nom_standard":"Soulomès","nom_a":null,"nom_de":null,"slug_ville":"soulomes","departement_id":0,"code_postal":"46240","population":131,"superficie_km2":"773.71","latitude_centre":"44.6278","longitude_centre":"1.5855","distance_km":11.2},{"id":22285,"code_insee":"46054","nom_standard":"Caniac-du-Causse","nom_a":null,"nom_de":null,"slug_ville":"caniac-du-causse","departement_id":0,"code_postal":"46240","population":371,"superficie_km2":"3510.51","latitude_centre":"44.6299","longitude_centre":"1.6543","distance_km":11.82},{"id":0,"code_insee":"46238","nom_standard":"Rignac","nom_a":null,"nom_de":null,"slug_ville":"rignac","departement_id":0,"code_postal":"46500","population":294,"superficie_km2":"961.57","latitude_centre":"44.8067","longitude_centre":"1.6987","distance_km":11.83},{"id":0,"code_insee":"46113","nom_standard":"Frayssinet","nom_a":null,"nom_de":null,"slug_ville":"frayssinet","departement_id":0,"code_postal":"46310","population":309,"superficie_km2":"1683.51","latitude_centre":"44.6519","longitude_centre":"1.4858","distance_km":12.25},{"id":0,"code_insee":"46144","nom_standard":"Lacave","nom_a":null,"nom_de":null,"slug_ville":"lacave","departement_id":0,"code_postal":"46200","population":271,"superficie_km2":"2200.43","latitude_centre":"44.8417","longitude_centre":"1.5549","distance_km":13.06},{"id":0,"code_insee":"46192","nom_standard":"Meyronne","nom_a":null,"nom_de":null,"slug_ville":"meyronne","departement_id":0,"code_postal":"46200","population":269,"superficie_km2":"815.87","latitude_centre":"44.8668","longitude_centre":"1.5901","distance_km":15.42}]}