{"ville":{"id":32156,"code_insee":"77062","nom_standard":"Carnetin","nom_a":null,"nom_de":null,"slug_ville":"carnetin","departement_id":0,"code_postal":"77400","population":461,"superficie_km2":"160.18","latitude_centre":"48.9041","longitude_centre":"2.6997","dep_code":"77","dep_nom":"Seine-et-Marne","dep_slug":"seine-et-marne","reg_code":"11","reg_nom":"Île-de-France","reg_slug":"ile-de-france"},"departement":{"code":"77","nom":"Seine-et-Marne","slug":"seine-et-marne"},"region":{"code":"11","nom":"Île-de-France","slug":"ile-de-france"},"villes_proches":[{"id":0,"code_insee":"77464","nom_standard":"Thorigny-sur-Marne","nom_a":null,"nom_de":null,"slug_ville":"thorigny-sur-marne","departement_id":0,"code_postal":"77400","population":10440,"superficie_km2":"513.20","latitude_centre":"48.8928","longitude_centre":"2.7117","distance_km":1.53},{"id":0,"code_insee":"77005","nom_standard":"Annet-sur-Marne","nom_a":null,"nom_de":null,"slug_ville":"annet-sur-marne","departement_id":0,"code_postal":"77410","population":3408,"superficie_km2":"1312.66","latitude_centre":"48.9232","longitude_centre":"2.7067","distance_km":2.18},{"id":0,"code_insee":"77372","nom_standard":"Pomponne","nom_a":null,"nom_de":null,"slug_ville":"pomponne","departement_id":0,"code_postal":"77400","population":4215,"superficie_km2":"729.39","latitude_centre":"48.887","longitude_centre":"2.6776","distance_km":2.5},{"id":0,"code_insee":"77517","nom_standard":"Villevaudé","nom_a":null,"nom_de":null,"slug_ville":"villevaude","departement_id":0,"code_postal":"77410","population":2132,"superficie_km2":"999.00","latitude_centre":"48.9137","longitude_centre":"2.6647","distance_km":2.77},{"id":0,"code_insee":"77155","nom_standard":"Dampmart","nom_a":null,"nom_de":null,"slug_ville":"dampmart","departement_id":0,"code_postal":"77400","population":3677,"superficie_km2":"595.39","latitude_centre":"48.8935","longitude_centre":"2.7465","distance_km":3.62},{"id":0,"code_insee":"77243","nom_standard":"Lagny-sur-Marne","nom_a":null,"nom_de":null,"slug_ville":"lagny-sur-marne","departement_id":0,"code_postal":"77400","population":21461,"superficie_km2":"578.09","latitude_centre":"48.8716","longitude_centre":"2.7045","distance_km":3.63},{"id":0,"code_insee":"77118","nom_standard":"Claye-Souilly","nom_a":null,"nom_de":null,"slug_ville":"claye-souilly","departement_id":0,"code_postal":"77410","population":13353,"superficie_km2":"1507.24","latitude_centre":"48.941","longitude_centre":"2.68","distance_km":4.35},{"id":0,"code_insee":"77234","nom_standard":"Jablines","nom_a":null,"nom_de":null,"slug_ville":"jablines","departement_id":0,"code_postal":"77450","population":647,"superficie_km2":"807.58","latitude_centre":"48.9157","longitude_centre":"2.7606","distance_km":4.63},{"id":0,"code_insee":"77055","nom_standard":"Brou-sur-Chantereine","nom_a":null,"nom_de":null,"slug_ville":"brou-sur-chantereine","departement_id":0,"code_postal":"77177","population":5196,"superficie_km2":"437.29","latitude_centre":"48.8891","longitude_centre":"2.6394","distance_km":4.71},{"id":0,"code_insee":"77438","nom_standard":"Saint-Thibault-des-Vignes","nom_a":null,"nom_de":null,"slug_ville":"saint-thibault-des-vignes","departement_id":0,"code_postal":"77400","population":6831,"superficie_km2":"462.07","latitude_centre":"48.8628","longitude_centre":"2.6792","distance_km":4.83},{"id":0,"code_insee":"77196","nom_standard":"Fresnes-sur-Marne","nom_a":null,"nom_de":null,"slug_ville":"fresnes-sur-marne","departement_id":0,"code_postal":"77410","population":948,"superficie_km2":"748.15","latitude_centre":"48.9405","longitude_centre":"2.7369","distance_km":4.88},{"id":0,"code_insee":"77209","nom_standard":"Gouvernes","nom_a":null,"nom_de":null,"slug_ville":"gouvernes","departement_id":0,"code_postal":"77400","population":1177,"superficie_km2":"276.24","latitude_centre":"48.8578","longitude_centre":"2.6933","distance_km":5.17},{"id":0,"code_insee":"77124","nom_standard":"Conches-sur-Gondoire","nom_a":null,"nom_de":null,"slug_ville":"conches-sur-gondoire","departement_id":0,"code_postal":"77600","population":1761,"superficie_km2":"151.41","latitude_centre":"48.8589","longitude_centre":"2.7207","distance_km":5.26},{"id":0,"code_insee":"77363","nom_standard":"Le Pin","nom_a":null,"nom_de":null,"slug_ville":"le-pin","departement_id":0,"code_postal":"77181","population":1530,"superficie_km2":"670.53","latitude_centre":"48.9138","longitude_centre":"2.6286","distance_km":5.31},{"id":0,"code_insee":"77307","nom_standard":"Montévrain","nom_a":null,"nom_de":null,"slug_ville":"montevrain","departement_id":0,"code_postal":"77144","population":15687,"superficie_km2":"537.67","latitude_centre":"48.8673","longitude_centre":"2.7511","distance_km":5.56},{"id":0,"code_insee":"77221","nom_standard":"Guermantes","nom_a":null,"nom_de":null,"slug_ville":"guermantes","departement_id":0,"code_postal":"77600","population":1153,"superficie_km2":"125.98","latitude_centre":"48.8519","longitude_centre":"2.7141","distance_km":5.9},{"id":0,"code_insee":"77085","nom_standard":"Chanteloup-en-Brie","nom_a":null,"nom_de":null,"slug_ville":"chanteloup-en-brie","departement_id":0,"code_postal":"77600","population":4130,"superficie_km2":"318.21","latitude_centre":"48.8581","longitude_centre":"2.7399","distance_km":5.9},{"id":32154,"code_insee":"77059","nom_standard":"Bussy-Saint-Martin","nom_a":null,"nom_de":null,"slug_ville":"bussy-saint-martin","departement_id":0,"code_postal":"77600","population":738,"superficie_km2":"244.72","latitude_centre":"48.8463","longitude_centre":"2.6783","distance_km":6.61},{"id":0,"code_insee":"77292","nom_standard":"Messy","nom_a":null,"nom_de":null,"slug_ville":"messy","departement_id":0,"code_postal":"77410","population":1219,"superficie_km2":"1032.67","latitude_centre":"48.9663","longitude_centre":"2.7041","distance_km":6.92},{"id":0,"code_insee":"77214","nom_standard":"Gressy","nom_a":null,"nom_de":null,"slug_ville":"gressy","departement_id":0,"code_postal":"77410","population":807,"superficie_km2":"334.43","latitude_centre":"48.966","longitude_centre":"2.6637","distance_km":7.37}]}