{"ville":{"id":18303,"code_insee":"2B068","nom_standard":"Carticasi","nom_a":null,"nom_de":null,"slug_ville":"carticasi","departement_id":0,"code_postal":"20244","population":25,"superficie_km2":"1312.70","latitude_centre":"42.3485","longitude_centre":"9.3052","dep_code":"2B","dep_nom":"Haute-Corse","dep_slug":"haute-corse","reg_code":"94","reg_nom":"Corse","reg_slug":"corse"},"departement":{"code":"2B","nom":"Haute-Corse","slug":"haute-corse"},"region":{"code":"94","nom":"Corse","slug":"corse"},"villes_proches":[{"id":18293,"code_insee":"2B051","nom_standard":"Cambia","nom_a":null,"nom_de":null,"slug_ville":"cambia","departement_id":0,"code_postal":"20244","population":61,"superficie_km2":"835.47","latitude_centre":"42.367","longitude_centre":"9.303","distance_km":2.07},{"id":18290,"code_insee":"2B045","nom_standard":"Bustanico","nom_a":null,"nom_de":null,"slug_ville":"bustanico","departement_id":0,"code_postal":"20212","population":65,"superficie_km2":"1156.27","latitude_centre":"42.326","longitude_centre":"9.3112","distance_km":2.55},{"id":0,"code_insee":"2B221","nom_standard":"Piedipartino","nom_a":null,"nom_de":null,"slug_ville":"piedipartino","departement_id":0,"code_postal":"20229","population":19,"superficie_km2":"330.17","latitude_centre":"42.3569","longitude_centre":"9.3483","distance_km":3.66},{"id":0,"code_insee":"2B264","nom_standard":"Rusio","nom_a":null,"nom_de":null,"slug_ville":"rusio","departement_id":0,"code_postal":"20244","population":65,"superficie_km2":"861.58","latitude_centre":"42.3501","longitude_centre":"9.2572","distance_km":3.95},{"id":18279,"code_insee":"2B013","nom_standard":"Alzi","nom_a":null,"nom_de":null,"slug_ville":"alzi","departement_id":0,"code_postal":"20212","population":27,"superficie_km2":"269.70","latitude_centre":"42.3133","longitude_centre":"9.3175","distance_km":4.04},{"id":0,"code_insee":"2B222","nom_standard":"Pie-d'Orezza","nom_a":null,"nom_de":null,"slug_ville":"pie-d-orezza","departement_id":0,"code_postal":"20229","population":35,"superficie_km2":"577.56","latitude_centre":"42.3756","longitude_centre":"9.3404","distance_km":4.18},{"id":0,"code_insee":"2B106","nom_standard":"Ã‰rone","nom_a":null,"nom_de":null,"slug_ville":"erone","departement_id":0,"code_postal":"20244","population":9,"superficie_km2":"396.67","latitude_centre":"42.3755","longitude_centre":"9.2665","distance_km":4.37},{"id":18301,"code_insee":"2B063","nom_standard":"Carcheto-Brustico","nom_a":null,"nom_de":null,"slug_ville":"carcheto-brustico","departement_id":0,"code_postal":"20229","population":57,"superficie_km2":"520.93","latitude_centre":"42.3554","longitude_centre":"9.3593","distance_km":4.51},{"id":18275,"code_insee":"2B005","nom_standard":"Alando","nom_a":null,"nom_de":null,"slug_ville":"alando","departement_id":0,"code_postal":"20212","population":30,"superficie_km2":"306.14","latitude_centre":"42.3083","longitude_centre":"9.2899","distance_km":4.64},{"id":0,"code_insee":"2B304","nom_standard":"San-Lorenzo","nom_a":null,"nom_de":null,"slug_ville":"san-lorenzo","departement_id":0,"code_postal":"20244","population":138,"superficie_km2":"1015.07","latitude_centre":"42.3907","longitude_centre":"9.2916","distance_km":4.82},{"id":0,"code_insee":"2B157","nom_standard":"Mazzola","nom_a":null,"nom_de":null,"slug_ville":"mazzola","departement_id":0,"code_postal":"20212","population":22,"superficie_km2":"656.73","latitude_centre":"42.306","longitude_centre":"9.3251","distance_km":5.0},{"id":0,"code_insee":"2B275","nom_standard":"Sermano","nom_a":null,"nom_de":null,"slug_ville":"sermano","departement_id":0,"code_postal":"20212","population":72,"superficie_km2":"763.75","latitude_centre":"42.3155","longitude_centre":"9.2637","distance_km":5.01},{"id":0,"code_insee":"2B234","nom_standard":"Piobetta","nom_a":null,"nom_de":null,"slug_ville":"piobetta","departement_id":0,"code_postal":"20234","population":20,"superficie_km2":"504.67","latitude_centre":"42.3409","longitude_centre":"9.3693","distance_km":5.34},{"id":18294,"code_insee":"2B052","nom_standard":"Campana","nom_a":null,"nom_de":null,"slug_ville":"campana","departement_id":0,"code_postal":"20229","population":22,"superficie_km2":"234.58","latitude_centre":"42.3892","longitude_centre":"9.3418","distance_km":5.43},{"id":0,"code_insee":"2B176","nom_standard":"Nocario","nom_a":null,"nom_de":null,"slug_ville":"nocario","departement_id":0,"code_postal":"20229","population":74,"superficie_km2":"309.23","latitude_centre":"42.3929","longitude_centre":"9.3466","distance_km":6.0},{"id":18302,"code_insee":"2B067","nom_standard":"Carpineto","nom_a":null,"nom_de":null,"slug_ville":"carpineto","departement_id":0,"code_postal":"20229","population":38,"superficie_km2":"243.47","latitude_centre":"42.3561","longitude_centre":"9.3793","distance_km":6.15},{"id":0,"code_insee":"2B227","nom_standard":"Pietricaggio","nom_a":null,"nom_de":null,"slug_ville":"pietricaggio","departement_id":0,"code_postal":"20234","population":32,"superficie_km2":"532.08","latitude_centre":"42.3283","longitude_centre":"9.378","distance_km":6.39},{"id":0,"code_insee":"2B078","nom_standard":"Castellare-di-Mercurio","nom_a":null,"nom_de":null,"slug_ville":"castellare-di-mercurio","departement_id":0,"code_postal":"20212","population":31,"superficie_km2":"612.17","latitude_centre":"42.3121","longitude_centre":"9.2439","distance_km":6.46},{"id":0,"code_insee":"2B219","nom_standard":"Piedicroce","nom_a":null,"nom_de":null,"slug_ville":"piedicroce","departement_id":0,"code_postal":"20229","population":81,"superficie_km2":"328.15","latitude_centre":"42.3847","longitude_centre":"9.367","distance_km":6.48},{"id":0,"code_insee":"2B213","nom_standard":"Pianello","nom_a":null,"nom_de":null,"slug_ville":"pianello","departement_id":0,"code_postal":"20272","population":53,"superficie_km2":"1695.91","latitude_centre":"42.3004","longitude_centre":"9.3577","distance_km":6.87}]}