{"ville":{"id":8659,"code_insee":"81064","nom_standard":"Castelnau-de-Montmiral","nom_a":null,"nom_de":null,"slug_ville":"castelnau-de-montmiral","departement_id":682,"code_postal":"81140","population":1050,"superficie_km2":"90.00","latitude_centre":"43.9869995","longitude_centre":"1.7830000","dep_code":"81","dep_nom":"Tarn","dep_slug":"tarn","reg_code":"16","reg_nom":"Occitanie","reg_slug":"occitanie"},"departement":{"code":"81","nom":"Tarn","slug":"tarn"},"region":{"code":"16","nom":"Occitanie","slug":"occitanie"},"villes_proches":[{"id":8680,"code_insee":"81145","nom_standard":"Lisle-sur-Tarn","nom_a":null,"nom_de":null,"slug_ville":"lisle-sur-tarn","departement_id":682,"code_postal":"81310","population":4775,"superficie_km2":"86.00","latitude_centre":"43.8979988","longitude_centre":"1.7819999","distance_km":9.9},{"id":8655,"code_insee":"81051","nom_standard":"Cahuzac-sur-Vère","nom_a":null,"nom_de":null,"slug_ville":"cahuzac-sur-vere","departement_id":682,"code_postal":"81140","population":1189,"superficie_km2":"31.00","latitude_centre":"43.9860001","longitude_centre":"1.9160000","distance_km":10.64},{"id":8704,"code_insee":"81276","nom_standard":"Salvagnac","nom_a":null,"nom_de":null,"slug_ville":"salvagnac","departement_id":682,"code_postal":"81630","population":1238,"superficie_km2":"34.00","latitude_centre":"43.9199982","longitude_centre":"1.6799999","distance_km":11.11},{"id":8666,"code_insee":"81099","nom_standard":"Gaillac","nom_a":null,"nom_de":null,"slug_ville":"gaillac","departement_id":682,"code_postal":"81600","population":15663,"superficie_km2":"51.00","latitude_centre":"43.9169998","longitude_centre":"1.8860000","distance_km":11.34},{"id":8706,"code_insee":"81283","nom_standard":"Senouillac","nom_a":null,"nom_de":null,"slug_ville":"senouillac","departement_id":682,"code_postal":"81600","population":1124,"superficie_km2":"15.00","latitude_centre":"43.9469986","longitude_centre":"1.9510000","distance_km":14.16},{"id":8754,"code_insee":"82115","nom_standard":"Monclar-de-Quercy","nom_a":null,"nom_de":null,"slug_ville":"monclar-de-quercy","departement_id":683,"code_postal":"82230","population":2026,"superficie_km2":"38.00","latitude_centre":"43.9879990","longitude_centre":"1.5820000","distance_km":16.08},{"id":8650,"code_insee":"81038","nom_standard":"Brens","nom_a":null,"nom_de":null,"slug_ville":"brens","departement_id":682,"code_postal":"81600","population":2393,"superficie_km2":"23.00","latitude_centre":"43.8880005","longitude_centre":"1.9299999","distance_km":16.12},{"id":8692,"code_insee":"81220","nom_standard":"Rabastens","nom_a":null,"nom_de":null,"slug_ville":"rabastens","departement_id":682,"code_postal":"81800","population":5775,"superficie_km2":"67.00","latitude_centre":"43.8479996","longitude_centre":"1.7150000","distance_km":16.39},{"id":8686,"code_insee":"81171","nom_standard":"Montans","nom_a":null,"nom_de":null,"slug_ville":"montans","departement_id":682,"code_postal":"81600","population":1544,"superficie_km2":"33.00","latitude_centre":"43.8499985","longitude_centre":"1.8660001","distance_km":16.62},{"id":8694,"code_insee":"81225","nom_standard":"Rivières","nom_a":null,"nom_de":null,"slug_ville":"rivieres","departement_id":682,"code_postal":"81600","population":1071,"superficie_km2":"10.00","latitude_centre":"43.9160004","longitude_centre":"1.9700000","distance_km":16.92},{"id":8762,"code_insee":"82132","nom_standard":"Montricoux","nom_a":null,"nom_de":null,"slug_ville":"montricoux","departement_id":683,"code_postal":"82800","population":1172,"superficie_km2":"26.00","latitude_centre":"44.1040001","longitude_centre":"1.6240000","distance_km":18.19},{"id":8768,"code_insee":"82155","nom_standard":"Saint-Antonin-Noble-Val","nom_a":null,"nom_de":null,"slug_ville":"saint-antonin-noble-val","departement_id":683,"code_postal":"82140","population":1918,"superficie_km2":"106.00","latitude_centre":"44.1559982","longitude_centre":"1.7359999","distance_km":19.16},{"id":8676,"code_insee":"81131","nom_standard":"Lagrave","nom_a":null,"nom_de":null,"slug_ville":"lagrave","departement_id":682,"code_postal":"81150","population":2244,"superficie_km2":"9.00","latitude_centre":"43.8930016","longitude_centre":"1.9900000","distance_km":19.59},{"id":8710,"code_insee":"81294","nom_standard":"Técou","nom_a":null,"nom_de":null,"slug_ville":"tecou","departement_id":682,"code_postal":"81600","population":1067,"superficie_km2":"20.00","latitude_centre":"43.8429985","longitude_centre":"1.9349999","distance_km":20.12},{"id":8661,"code_insee":"81070","nom_standard":"Coufouleux","nom_a":null,"nom_de":null,"slug_ville":"coufouleux","departement_id":682,"code_postal":"81800","population":3001,"superficie_km2":"27.00","latitude_centre":"43.7980003","longitude_centre":"1.7320000","distance_km":21.41},{"id":8682,"code_insee":"81156","nom_standard":"Marssac-sur-Tarn","nom_a":null,"nom_de":null,"slug_ville":"marssac-sur-tarn","departement_id":682,"code_postal":"81150","population":3449,"superficie_km2":"7.00","latitude_centre":"43.9099999","longitude_centre":"2.0360000","distance_km":21.99},{"id":8763,"code_insee":"82134","nom_standard":"Nègrepelisse","nom_a":null,"nom_de":null,"slug_ville":"negrepelisse","departement_id":683,"code_postal":"82800","population":5743,"superficie_km2":"49.00","latitude_centre":"44.0629997","longitude_centre":"1.5280000","distance_km":22.07},{"id":8653,"code_insee":"81046","nom_standard":"Cadalen","nom_a":null,"nom_de":null,"slug_ville":"cadalen","departement_id":682,"code_postal":"81600","population":1531,"superficie_km2":"41.00","latitude_centre":"43.8429985","longitude_centre":"1.9840000","distance_km":22.71},{"id":8721,"code_insee":"82018","nom_standard":"Bioule","nom_a":null,"nom_de":null,"slug_ville":"bioule","departement_id":683,"code_postal":"82800","population":1178,"superficie_km2":"20.00","latitude_centre":"44.0989990","longitude_centre":"1.5430000","distance_km":22.87},{"id":8658,"code_insee":"81063","nom_standard":"Castelnau-de-Lévis","nom_a":null,"nom_de":null,"slug_ville":"castelnau-de-levis","departement_id":682,"code_postal":"81150","population":1617,"superficie_km2":"21.00","latitude_centre":"43.9440002","longitude_centre":"2.0710001","distance_km":23.54}]}