{"ville":{"id":418,"code_insee":"06035","nom_standard":"Castellar","nom_a":null,"nom_de":null,"slug_ville":"castellar","departement_id":606,"code_postal":"06500","population":1087,"superficie_km2":"12.00","latitude_centre":"43.8219986","longitude_centre":"7.4990001","dep_code":"06","dep_nom":"Alpes-Maritimes","dep_slug":"alpes-maritimes","reg_code":"18","reg_nom":"Provence-Alpes-Côte d'Azur","reg_slug":"provence-alpes-cote-d-azur"},"departement":{"code":"06","nom":"Alpes-Maritimes","slug":"alpes-maritimes"},"region":{"code":"18","nom":"Provence-Alpes-Côte d'Azur","slug":"provence-alpes-cote-d-azur"},"villes_proches":[{"id":436,"code_insee":"06083","nom_standard":"Menton","nom_a":null,"nom_de":null,"slug_ville":"menton","departement_id":606,"code_postal":"06500","population":30412,"superficie_km2":"14.00","latitude_centre":"43.7910004","longitude_centre":"7.4940000","distance_km":3.47},{"id":451,"code_insee":"06113","nom_standard":"Sainte-Agnès","nom_a":null,"nom_de":null,"slug_ville":"sainte-agnes","departement_id":606,"code_postal":"06500","population":1351,"superficie_km2":"10.00","latitude_centre":"43.8059998","longitude_centre":"7.4610000","distance_km":3.53},{"id":430,"code_insee":"06067","nom_standard":"Gorbio","nom_a":null,"nom_de":null,"slug_ville":"gorbio","departement_id":606,"code_postal":"06500","population":1527,"superficie_km2":"7.00","latitude_centre":"43.7859993","longitude_centre":"7.4460001","distance_km":5.84},{"id":447,"code_insee":"06104","nom_standard":"Roquebrune-Cap-Martin","nom_a":null,"nom_de":null,"slug_ville":"roquebrune-cap-martin","departement_id":606,"code_postal":"06190","population":12371,"superficie_km2":"10.00","latitude_centre":"43.7639999","longitude_centre":"7.4590001","distance_km":7.2},{"id":442,"code_insee":"06091","nom_standard":"Peille","nom_a":null,"nom_de":null,"slug_ville":"peille","departement_id":606,"code_postal":"06440","population":2287,"superficie_km2":"43.00","latitude_centre":"43.8059998","longitude_centre":"7.4109998","distance_km":7.28},{"id":463,"code_insee":"06136","nom_standard":"Sospel","nom_a":null,"nom_de":null,"slug_ville":"sospel","departement_id":606,"code_postal":"06380","population":3803,"superficie_km2":"62.00","latitude_centre":"43.8839989","longitude_centre":"7.4480000","distance_km":8.02},{"id":404,"code_insee":"06012","nom_standard":"Beausoleil","nom_a":null,"nom_de":null,"slug_ville":"beausoleil","departement_id":606,"code_postal":"06240","population":12674,"superficie_km2":"3.00","latitude_centre":"43.7480011","longitude_centre":"7.4219999","distance_km":10.29},{"id":424,"code_insee":"06057","nom_standard":"L'Escarène","nom_a":null,"nom_de":null,"slug_ville":"l-escarene","departement_id":606,"code_postal":"06440","population":2563,"superficie_km2":"11.00","latitude_centre":"43.8339996","longitude_centre":"7.3660002","distance_km":10.75},{"id":443,"code_insee":"06092","nom_standard":"Peillon","nom_a":null,"nom_de":null,"slug_ville":"peillon","departement_id":606,"code_postal":"06440","population":1445,"superficie_km2":"9.00","latitude_centre":"43.7729988","longitude_centre":"7.3720002","distance_km":11.56},{"id":407,"code_insee":"06019","nom_standard":"Blausasc","nom_a":null,"nom_de":null,"slug_ville":"blausasc","departement_id":606,"code_postal":"06440","population":1659,"superficie_km2":"10.00","latitude_centre":"43.7939987","longitude_centre":"7.3600001","distance_km":11.58},{"id":470,"code_insee":"06150","nom_standard":"La Turbie","nom_a":null,"nom_de":null,"slug_ville":"la-turbie","departement_id":606,"code_postal":"06320","population":3015,"superficie_km2":"7.00","latitude_centre":"43.7449989","longitude_centre":"7.3979998","distance_km":11.79},{"id":408,"code_insee":"06023","nom_standard":"Breil-sur-Roya","nom_a":null,"nom_de":null,"slug_ville":"breil-sur-roya","departement_id":606,"code_postal":"06540","population":2206,"superficie_km2":"82.00","latitude_centre":"43.9399986","longitude_centre":"7.5040002","distance_km":13.13},{"id":415,"code_insee":"06032","nom_standard":"Cap-d'Ail","nom_a":null,"nom_de":null,"slug_ville":"cap-d-ail","departement_id":606,"code_postal":"06320","population":4508,"superficie_km2":"2.00","latitude_centre":"43.7249985","longitude_centre":"7.4020000","distance_km":13.3},{"id":405,"code_insee":"06015","nom_standard":"Berre-les-Alpes","nom_a":null,"nom_de":null,"slug_ville":"berre-les-alpes","departement_id":606,"code_postal":"06390","population":1227,"superficie_km2":"10.00","latitude_centre":"43.8380013","longitude_centre":"7.3309999","distance_km":13.59},{"id":422,"code_insee":"06048","nom_standard":"Contes","nom_a":null,"nom_de":null,"slug_ville":"contes","departement_id":606,"code_postal":"06390","population":7544,"superficie_km2":"20.00","latitude_centre":"43.8089981","longitude_centre":"7.3239999","distance_km":14.12},{"id":434,"code_insee":"06077","nom_standard":"Lucéram","nom_a":null,"nom_de":null,"slug_ville":"luceram","departement_id":606,"code_postal":"06440","population":1264,"superficie_km2":"65.00","latitude_centre":"43.9010010","longitude_centre":"7.3530002","distance_km":14.64},{"id":423,"code_insee":"06054","nom_standard":"Drap","nom_a":null,"nom_de":null,"slug_ville":"drap","departement_id":606,"code_postal":"06340","population":5238,"superficie_km2":"5.00","latitude_centre":"43.7579994","longitude_centre":"7.3369999","distance_km":14.82},{"id":425,"code_insee":"06059","nom_standard":"Èze","nom_a":null,"nom_de":null,"slug_ville":"eze","departement_id":606,"code_postal":"06360","population":2189,"superficie_km2":"10.00","latitude_centre":"43.7290001","longitude_centre":"7.3610001","distance_km":15.16},{"id":469,"code_insee":"06149","nom_standard":"La Trinité","nom_a":null,"nom_de":null,"slug_ville":"la-trinite","departement_id":606,"code_postal":"06340","population":10276,"superficie_km2":"15.00","latitude_centre":"43.7430000","longitude_centre":"7.3400002","distance_km":15.49},{"id":414,"code_insee":"06031","nom_standard":"Cantaron","nom_a":null,"nom_de":null,"slug_ville":"cantaron","departement_id":606,"code_postal":"06340","population":1285,"superficie_km2":"7.00","latitude_centre":"43.7709999","longitude_centre":"7.3130002","distance_km":15.97}]}