{"ville":{"id":26322,"code_insee":"59137","nom_standard":"Catillon-sur-Sambre","nom_a":null,"nom_de":null,"slug_ville":"catillon-sur-sambre","departement_id":0,"code_postal":"59360","population":781,"superficie_km2":"1340.85","latitude_centre":"50.0738","longitude_centre":"3.6429","dep_code":"59","dep_nom":"Nord","dep_slug":"nord","reg_code":"32","reg_nom":"Hauts-de-France","reg_slug":"hauts-de-france"},"departement":{"code":"59","nom":"Nord","slug":"nord"},"region":{"code":"32","nom":"Hauts-de-France","slug":"hauts-de-france"},"villes_proches":[{"id":0,"code_insee":"59274","nom_standard":"La Groise","nom_a":null,"nom_de":null,"slug_ville":"la-groise","departement_id":0,"code_postal":"59360","population":464,"superficie_km2":"937.07","latitude_centre":"50.0788","longitude_centre":"3.6816","distance_km":2.82},{"id":0,"code_insee":"59496","nom_standard":"Rejet-de-Beaulieu","nom_a":null,"nom_de":null,"slug_ville":"rejet-de-beaulieu","departement_id":0,"code_postal":"59360","population":241,"superficie_km2":"634.87","latitude_centre":"50.0439","longitude_centre":"3.6351","distance_km":3.37},{"id":26284,"code_insee":"59055","nom_standard":"Bazuel","nom_a":null,"nom_de":null,"slug_ville":"bazuel","departement_id":0,"code_postal":"59360","population":551,"superficie_km2":"1183.28","latitude_centre":"50.0819","longitude_centre":"3.597","distance_km":3.4},{"id":0,"code_insee":"59450","nom_standard":"Ors","nom_a":null,"nom_de":null,"slug_ville":"ors","departement_id":0,"code_postal":"59360","population":644,"superficie_km2":"1770.10","latitude_centre":"50.1061","longitude_centre":"3.6338","distance_km":3.65},{"id":0,"code_insee":"59395","nom_standard":"Mazinghien","nom_a":null,"nom_de":null,"slug_ville":"mazinghien","departement_id":0,"code_postal":"59360","population":279,"superficie_km2":"899.07","latitude_centre":"50.0495","longitude_centre":"3.5986","distance_km":4.16},{"id":10449,"code_insee":"02308","nom_standard":"Fesmy-le-Sart","nom_a":null,"nom_de":null,"slug_ville":"fesmy-le-sart","departement_id":0,"code_postal":"02450","population":519,"superficie_km2":"1618.60","latitude_centre":"50.0477","longitude_centre":"3.6972","distance_km":4.84},{"id":10740,"code_insee":"02647","nom_standard":"Ribeauville","nom_a":null,"nom_de":null,"slug_ville":"ribeauville","departement_id":0,"code_postal":"02110","population":86,"superficie_km2":"361.90","latitude_centre":"50.037","longitude_centre":"3.5903","distance_km":5.55},{"id":0,"code_insee":"59331","nom_standard":"Landrecies","nom_a":null,"nom_de":null,"slug_ville":"landrecies","departement_id":0,"code_postal":"59550","population":3407,"superficie_km2":"2164.96","latitude_centre":"50.117","longitude_centre":"3.6841","distance_km":5.63},{"id":10671,"code_insee":"02569","nom_standard":"Oisy","nom_a":null,"nom_de":null,"slug_ville":"oisy","departement_id":0,"code_postal":"02450","population":438,"superficie_km2":"1084.74","latitude_centre":"50.0226","longitude_centre":"3.6502","distance_km":5.72},{"id":0,"code_insee":"59223","nom_standard":"Le Favril","nom_a":null,"nom_de":null,"slug_ville":"le-favril","departement_id":0,"code_postal":"59550","population":506,"superficie_km2":"1146.81","latitude_centre":"50.094","longitude_centre":"3.7203","distance_km":5.96},{"id":0,"code_insee":"59465","nom_standard":"Pommereuil","nom_a":null,"nom_de":null,"slug_ville":"pommereuil","departement_id":0,"code_postal":"59360","population":765,"superficie_km2":"646.10","latitude_centre":"50.1168","longitude_centre":"3.5855","distance_km":6.29},{"id":10900,"code_insee":"02830","nom_standard":"Wassigny","nom_a":null,"nom_de":null,"slug_ville":"wassigny","departement_id":0,"code_postal":"02630","population":927,"superficie_km2":"676.38","latitude_centre":"50.0177","longitude_centre":"3.6018","distance_km":6.89},{"id":10249,"code_insee":"02067","nom_standard":"Bergues-sur-Sambre","nom_a":null,"nom_de":null,"slug_ville":"bergues-sur-sambre","departement_id":0,"code_postal":"02450","population":205,"superficie_km2":"446.57","latitude_centre":"50.03","longitude_centre":"3.7114","distance_km":6.9},{"id":0,"code_insee":"59242","nom_standard":"Fontaine-au-Bois","nom_a":null,"nom_de":null,"slug_ville":"fontaine-au-bois","departement_id":0,"code_postal":"59550","population":687,"superficie_km2":"768.30","latitude_centre":"50.136","longitude_centre":"3.6401","distance_km":6.92},{"id":10772,"code_insee":"02683","nom_standard":"Saint-Martin-Rivière","nom_a":null,"nom_de":null,"slug_ville":"saint-martin-riviere","departement_id":0,"code_postal":"02110","population":118,"superficie_km2":"551.76","latitude_centre":"50.0438","longitude_centre":"3.5541","distance_km":7.16},{"id":0,"code_insee":"02298","nom_standard":"Étreux","nom_a":null,"nom_de":null,"slug_ville":"etreux","departement_id":0,"code_postal":"02510","population":1436,"superficie_km2":"1033.28","latitude_centre":"49.9985","longitude_centre":"3.6554","distance_km":8.42},{"id":0,"code_insee":"59099","nom_standard":"Bousies","nom_a":null,"nom_de":null,"slug_ville":"bousies","departement_id":0,"code_postal":"59222","population":1769,"superficie_km2":"984.65","latitude_centre":"50.1522","longitude_centre":"3.6156","distance_km":8.93},{"id":0,"code_insee":"59503","nom_standard":"Robersart","nom_a":null,"nom_de":null,"slug_ville":"robersart","departement_id":0,"code_postal":"59550","population":201,"superficie_km2":"231.81","latitude_centre":"50.1573","longitude_centre":"3.6463","distance_km":9.29},{"id":10855,"code_insee":"02779","nom_standard":"Vénérolles","nom_a":null,"nom_de":null,"slug_ville":"venerolles","departement_id":0,"code_postal":"02510","population":229,"superficie_km2":"898.76","latitude_centre":"49.9898","longitude_centre":"3.6287","distance_km":9.4},{"id":0,"code_insee":"59472","nom_standard":"Preux-au-Bois","nom_a":null,"nom_de":null,"slug_ville":"preux-au-bois","departement_id":0,"code_postal":"59288","population":832,"superficie_km2":"398.23","latitude_centre":"50.1635","longitude_centre":"3.6524","distance_km":10.0}]}