{"ville":{"id":26675,"code_insee":"60137","nom_standard":"Cernoy","nom_a":null,"nom_de":null,"slug_ville":"cernoy","departement_id":0,"code_postal":"60190","population":288,"superficie_km2":"495.28","latitude_centre":"49.4443","longitude_centre":"2.5413","dep_code":"60","dep_nom":"Oise","dep_slug":"oise","reg_code":"32","reg_nom":"Hauts-de-France","reg_slug":"hauts-de-france"},"departement":{"code":"60","nom":"Oise","slug":"oise"},"region":{"code":"32","nom":"Hauts-de-France","slug":"hauts-de-france"},"villes_proches":[{"id":0,"code_insee":"60247","nom_standard":"Fouilleuse","nom_a":null,"nom_de":null,"slug_ville":"fouilleuse","departement_id":0,"code_postal":"60190","population":143,"superficie_km2":"297.74","latitude_centre":"49.4261","longitude_centre":"2.5423","distance_km":2.03},{"id":0,"code_insee":"60177","nom_standard":"Cressonsacq","nom_a":null,"nom_de":null,"slug_ville":"cressonsacq","departement_id":0,"code_postal":"60190","population":435,"superficie_km2":"654.94","latitude_centre":"49.4468","longitude_centre":"2.5705","distance_km":2.13},{"id":0,"code_insee":"60466","nom_standard":"Noroy","nom_a":null,"nom_de":null,"slug_ville":"noroy","departement_id":0,"code_postal":"60130","population":247,"superficie_km2":"549.71","latitude_centre":"49.4427","longitude_centre":"2.5106","distance_km":2.23},{"id":0,"code_insee":"60515","nom_standard":"Pronleroy","nom_a":null,"nom_de":null,"slug_ville":"pronleroy","departement_id":0,"code_postal":"60190","population":365,"superficie_km2":"907.48","latitude_centre":"49.4688","longitude_centre":"2.5358","distance_km":2.75},{"id":0,"code_insee":"60375","nom_standard":"Maimbeville","nom_a":null,"nom_de":null,"slug_ville":"maimbeville","departement_id":0,"code_postal":"60600","population":381,"superficie_km2":"582.26","latitude_centre":"49.4162","longitude_centre":"2.5217","distance_km":3.43},{"id":0,"code_insee":"60529","nom_standard":"Rémécourt","nom_a":null,"nom_de":null,"slug_ville":"remecourt","departement_id":0,"code_postal":"60600","population":78,"superficie_km2":"279.84","latitude_centre":"49.4302","longitude_centre":"2.4928","distance_km":3.84},{"id":26602,"code_insee":"60040","nom_standard":"Bailleul-le-Soc","nom_a":null,"nom_de":null,"slug_ville":"bailleul-le-soc","departement_id":0,"code_postal":"60190","population":645,"superficie_km2":"1437.73","latitude_centre":"49.4219","longitude_centre":"2.5828","distance_km":3.9},{"id":0,"code_insee":"60216","nom_standard":"Erquinvillers","nom_a":null,"nom_de":null,"slug_ville":"erquinvillers","departement_id":0,"code_postal":"60130","population":185,"superficie_km2":"378.86","latitude_centre":"49.4585","longitude_centre":"2.49","distance_km":4.03},{"id":0,"code_insee":"60210","nom_standard":"Épineuse","nom_a":null,"nom_de":null,"slug_ville":"epineuse","departement_id":0,"code_postal":"60190","population":281,"superficie_km2":"721.62","latitude_centre":"49.4014","longitude_centre":"2.5507","distance_km":4.82},{"id":0,"code_insee":"60456","nom_standard":"La Neuville-Roy","nom_a":null,"nom_de":null,"slug_ville":"la-neuville-roy","departement_id":0,"code_postal":"60190","population":897,"superficie_km2":"1259.55","latitude_centre":"49.4791","longitude_centre":"2.582","distance_km":4.86},{"id":0,"code_insee":"60186","nom_standard":"Cuignières","nom_a":null,"nom_de":null,"slug_ville":"cuignieres","departement_id":0,"code_postal":"60130","population":274,"superficie_km2":"629.47","latitude_centre":"49.4497","longitude_centre":"2.473","distance_km":4.97},{"id":0,"code_insee":"60568","nom_standard":"Saint-Aubin-sous-Erquery","nom_a":null,"nom_de":null,"slug_ville":"saint-aubin-sous-erquery","departement_id":0,"code_postal":"60600","population":349,"superficie_km2":"636.21","latitude_centre":"49.4125","longitude_centre":"2.4909","distance_km":5.08},{"id":0,"code_insee":"60364","nom_standard":"Lieuvillers","nom_a":null,"nom_de":null,"slug_ville":"lieuvillers","departement_id":0,"code_postal":"60130","population":718,"superficie_km2":"948.06","latitude_centre":"49.4777","longitude_centre":"2.4927","distance_km":5.11},{"id":0,"code_insee":"60285","nom_standard":"Grandvillers-aux-Bois","nom_a":null,"nom_de":null,"slug_ville":"grandvillers-aux-bois","departement_id":0,"code_postal":"60190","population":297,"superficie_km2":"665.38","latitude_centre":"49.4634","longitude_centre":"2.6079","distance_km":5.26},{"id":26583,"code_insee":"60014","nom_standard":"Angivillers","nom_a":null,"nom_de":null,"slug_ville":"angivillers","departement_id":0,"code_postal":"60130","population":155,"superficie_km2":"624.80","latitude_centre":"49.4893","longitude_centre":"2.5001","distance_km":5.82},{"id":0,"code_insee":"60357","nom_standard":"Léglantiers","nom_a":null,"nom_de":null,"slug_ville":"leglantiers","departement_id":0,"code_postal":"60420","population":548,"superficie_km2":"777.83","latitude_centre":"49.498","longitude_centre":"2.5308","distance_km":6.02},{"id":26599,"code_insee":"60036","nom_standard":"Avrigny","nom_a":null,"nom_de":null,"slug_ville":"avrigny","departement_id":0,"code_postal":"60190","population":404,"superficie_km2":"608.88","latitude_centre":"49.3873","longitude_centre":"2.5764","distance_km":6.83},{"id":0,"code_insee":"60418","nom_standard":"Montiers","nom_a":null,"nom_de":null,"slug_ville":"montiers","departement_id":0,"code_postal":"60190","population":392,"superficie_km2":"791.02","latitude_centre":"49.504","longitude_centre":"2.5741","distance_km":7.05},{"id":0,"code_insee":"60130","nom_standard":"Catenoy","nom_a":null,"nom_de":null,"slug_ville":"catenoy","departement_id":0,"code_postal":"60840","population":1125,"superficie_km2":"1261.16","latitude_centre":"49.3824","longitude_centre":"2.5157","distance_km":7.13},{"id":0,"code_insee":"60526","nom_standard":"Ravenel","nom_a":null,"nom_de":null,"slug_ville":"ravenel","departement_id":0,"code_postal":"60130","population":1041,"superficie_km2":"1161.65","latitude_centre":"49.5139","longitude_centre":"2.5027","distance_km":8.23}]}