{"ville":{"id":32161,"code_insee":"77073","nom_standard":"Chalautre-la-Petite","nom_a":null,"nom_de":null,"slug_ville":"chalautre-la-petite","departement_id":0,"code_postal":"77160","population":541,"superficie_km2":"937.17","latitude_centre":"48.5288","longitude_centre":"3.3068","dep_code":"77","dep_nom":"Seine-et-Marne","dep_slug":"seine-et-marne","reg_code":"11","reg_nom":"Île-de-France","reg_slug":"ile-de-france"},"departement":{"code":"77","nom":"Seine-et-Marne","slug":"seine-et-marne"},"region":{"code":"11","nom":"Île-de-France","slug":"ile-de-france"},"villes_proches":[{"id":0,"code_insee":"77456","nom_standard":"Soisy-Bouy","nom_a":null,"nom_de":null,"slug_ville":"soisy-bouy","departement_id":0,"code_postal":"77650","population":850,"superficie_km2":"1170.30","latitude_centre":"48.5089","longitude_centre":"3.2995","distance_km":2.28},{"id":0,"code_insee":"77368","nom_standard":"Poigny","nom_a":null,"nom_de":null,"slug_ville":"poigny","departement_id":0,"code_postal":"77160","population":501,"superficie_km2":"597.16","latitude_centre":"48.5449","longitude_centre":"3.2772","distance_km":2.82},{"id":0,"code_insee":"77404","nom_standard":"Sainte-Colombe","nom_a":null,"nom_de":null,"slug_ville":"sainte-colombe","departement_id":0,"code_postal":"77650","population":1781,"superficie_km2":"814.81","latitude_centre":"48.5367","longitude_centre":"3.261","distance_km":3.48},{"id":0,"code_insee":"77379","nom_standard":"Provins","nom_a":null,"nom_de":null,"slug_ville":"provins","departement_id":0,"code_postal":"77160","population":11632,"superficie_km2":"1471.23","latitude_centre":"48.5629","longitude_centre":"3.2845","distance_km":4.13},{"id":0,"code_insee":"77459","nom_standard":"Sourdun","nom_a":null,"nom_de":null,"slug_ville":"sourdun","departement_id":0,"code_postal":"77171","population":1541,"superficie_km2":"2332.45","latitude_centre":"48.5335","longitude_centre":"3.3643","distance_km":4.27},{"id":0,"code_insee":"77260","nom_standard":"Longueville","nom_a":null,"nom_de":null,"slug_ville":"longueville","departement_id":0,"code_postal":"77650","population":1804,"superficie_km2":"559.58","latitude_centre":"48.5148","longitude_centre":"3.2414","distance_km":5.06},{"id":0,"code_insee":"77403","nom_standard":"Saint-Brice","nom_a":null,"nom_de":null,"slug_ville":"saint-brice","departement_id":0,"code_postal":"77160","population":819,"superficie_km2":"1146.09","latitude_centre":"48.5733","longitude_centre":"3.3365","distance_km":5.41},{"id":0,"code_insee":"77227","nom_standard":"Hermé","nom_a":null,"nom_de":null,"slug_ville":"herme","departement_id":0,"code_postal":"77114","population":647,"superficie_km2":"1595.45","latitude_centre":"48.4881","longitude_centre":"3.3475","distance_km":5.43},{"id":0,"code_insee":"77076","nom_standard":"Chalmaison","nom_a":null,"nom_de":null,"slug_ville":"chalmaison","departement_id":0,"code_postal":"77650","population":749,"superficie_km2":"1005.73","latitude_centre":"48.4904","longitude_centre":"3.2568","distance_km":5.64},{"id":0,"code_insee":"77208","nom_standard":"Gouaix","nom_a":null,"nom_de":null,"slug_ville":"gouaix","departement_id":0,"code_postal":"77114","population":1299,"superficie_km2":"1410.21","latitude_centre":"48.4758","longitude_centre":"3.2972","distance_km":5.94},{"id":0,"code_insee":"77418","nom_standard":"Saint-Loup-de-Naud","nom_a":null,"nom_de":null,"slug_ville":"saint-loup-de-naud","departement_id":0,"code_postal":"77650","population":848,"superficie_km2":"1095.69","latitude_centre":"48.5368","longitude_centre":"3.217","distance_km":6.67},{"id":0,"code_insee":"77391","nom_standard":"Rouilly","nom_a":null,"nom_de":null,"slug_ville":"rouilly","departement_id":0,"code_postal":"77160","population":496,"superficie_km2":"775.70","latitude_centre":"48.5912","longitude_centre":"3.2897","distance_km":7.05},{"id":0,"code_insee":"77242","nom_standard":"Jutigny","nom_a":null,"nom_de":null,"slug_ville":"jutigny","departement_id":0,"code_postal":"77650","population":547,"superficie_km2":"459.35","latitude_centre":"48.4925","longitude_centre":"3.2253","distance_km":7.23},{"id":0,"code_insee":"77532","nom_standard":"Vulaines-lès-Provins","nom_a":null,"nom_de":null,"slug_ville":"vulaines-les-provins","departement_id":0,"code_postal":"77160","population":80,"superficie_km2":"1074.36","latitude_centre":"48.5637","longitude_centre":"3.2208","distance_km":7.43},{"id":0,"code_insee":"77246","nom_standard":"Léchelle","nom_a":null,"nom_de":null,"slug_ville":"lechelle","departement_id":0,"code_postal":"77171","population":572,"superficie_km2":"2193.66","latitude_centre":"48.5729","longitude_centre":"3.388","distance_km":7.73},{"id":0,"code_insee":"77319","nom_standard":"Mortery","nom_a":null,"nom_de":null,"slug_ville":"mortery","departement_id":0,"code_postal":"77160","population":137,"superficie_km2":"1317.87","latitude_centre":"48.5906","longitude_centre":"3.2475","distance_km":8.14},{"id":0,"code_insee":"77174","nom_standard":"Everly","nom_a":null,"nom_de":null,"slug_ville":"everly","departement_id":0,"code_postal":"77157","population":566,"superficie_km2":"877.16","latitude_centre":"48.4599","longitude_centre":"3.2643","distance_km":8.28},{"id":0,"code_insee":"77341","nom_standard":"Noyen-sur-Seine","nom_a":null,"nom_de":null,"slug_ville":"noyen-sur-seine","departement_id":0,"code_postal":"77114","population":369,"superficie_km2":"1222.45","latitude_centre":"48.4512","longitude_centre":"3.3449","distance_km":9.07},{"id":0,"code_insee":"77218","nom_standard":"Grisy-sur-Seine","nom_a":null,"nom_de":null,"slug_ville":"grisy-sur-seine","departement_id":0,"code_postal":"77480","population":123,"superficie_km2":"656.77","latitude_centre":"48.4413","longitude_centre":"3.3191","distance_km":9.77},{"id":0,"code_insee":"77530","nom_standard":"Voulton","nom_a":null,"nom_de":null,"slug_ville":"voulton","departement_id":0,"code_postal":"77560","population":295,"superficie_km2":"2634.17","latitude_centre":"48.6142","longitude_centre":"3.3411","distance_km":9.83}]}