{"ville":{"id":31320,"code_insee":"73068","nom_standard":"Chamousset","nom_a":null,"nom_de":null,"slug_ville":"chamousset","departement_id":0,"code_postal":"73390","population":621,"superficie_km2":"634.92","latitude_centre":"45.5655","longitude_centre":"6.211","dep_code":"73","dep_nom":"Savoie","dep_slug":"savoie","reg_code":"84","reg_nom":"Auvergne-Rhône-Alpes","reg_slug":"auvergne-rhone-alpes"},"departement":{"code":"73","nom":"Savoie","slug":"savoie"},"region":{"code":"84","nom":"Auvergne-Rhône-Alpes","slug":"auvergne-rhone-alpes"},"villes_proches":[{"id":0,"code_insee":"73079","nom_standard":"Châteauneuf","nom_a":null,"nom_de":null,"slug_ville":"chateauneuf","departement_id":0,"code_postal":"73390","population":901,"superficie_km2":"707.25","latitude_centre":"45.5495","longitude_centre":"6.1799","distance_km":3.0},{"id":0,"code_insee":"73120","nom_standard":"Fréterive","nom_a":null,"nom_de":null,"slug_ville":"freterive","departement_id":0,"code_postal":"73250","population":640,"superficie_km2":"1100.09","latitude_centre":"45.5925","longitude_centre":"6.2088","distance_km":3.01},{"id":31316,"code_insee":"73053","nom_standard":"Bourgneuf","nom_a":null,"nom_de":null,"slug_ville":"bourgneuf","departement_id":0,"code_postal":"73390","population":656,"superficie_km2":"649.31","latitude_centre":"45.5528","longitude_centre":"6.252","distance_km":3.49},{"id":0,"code_insee":"73007","nom_standard":"Aiton","nom_a":null,"nom_de":null,"slug_ville":"aiton","departement_id":0,"code_postal":"73220","population":1874,"superficie_km2":"1630.70","latitude_centre":"45.5758","longitude_centre":"6.2543","distance_km":3.56},{"id":0,"code_insee":"73069","nom_standard":"Chamoux-sur-Gelon","nom_a":null,"nom_de":null,"slug_ville":"chamoux-sur-gelon","departement_id":0,"code_postal":"73390","population":966,"superficie_km2":"1071.69","latitude_centre":"45.5321","longitude_centre":"6.2218","distance_km":3.81},{"id":0,"code_insee":"73270","nom_standard":"Saint-Pierre-d'Albigny","nom_a":null,"nom_de":null,"slug_ville":"saint-pierre-d-albigny","departement_id":0,"code_postal":"73250","population":4217,"superficie_km2":"1920.17","latitude_centre":"45.5769","longitude_centre":"6.1591","distance_km":4.23},{"id":31309,"code_insee":"73041","nom_standard":"Betton-Bettonet","nom_a":null,"nom_de":null,"slug_ville":"betton-bettonet","departement_id":0,"code_postal":"73390","population":306,"superficie_km2":"341.47","latitude_centre":"45.5289","longitude_centre":"6.1844","distance_km":4.57},{"id":0,"code_insee":"73129","nom_standard":"Grésy-sur-Isère","nom_a":null,"nom_de":null,"slug_ville":"gresy-sur-isere","departement_id":0,"code_postal":"73460","population":1195,"superficie_km2":"899.31","latitude_centre":"45.6025","longitude_centre":"6.245","distance_km":4.89},{"id":0,"code_insee":"73166","nom_standard":"Montendry","nom_a":null,"nom_de":null,"slug_ville":"montendry","departement_id":0,"code_postal":"73390","population":49,"superficie_km2":"819.86","latitude_centre":"45.524","longitude_centre":"6.2402","distance_km":5.14},{"id":0,"code_insee":"73133","nom_standard":"Hauteville","nom_a":null,"nom_de":null,"slug_ville":"hauteville","departement_id":0,"code_postal":"73390","population":350,"superficie_km2":"245.08","latitude_centre":"45.5259","longitude_centre":"6.1688","distance_km":5.49},{"id":0,"code_insee":"73168","nom_standard":"Montgilbert","nom_a":null,"nom_de":null,"slug_ville":"montgilbert","departement_id":0,"code_postal":"73220","population":114,"superficie_km2":"957.82","latitude_centre":"45.5341","longitude_centre":"6.2765","distance_km":6.18},{"id":0,"code_insee":"73072","nom_standard":"Champ-Laurent","nom_a":null,"nom_de":null,"slug_ville":"champ-laurent","departement_id":0,"code_postal":"73390","population":31,"superficie_km2":"495.14","latitude_centre":"45.5082","longitude_centre":"6.2136","distance_km":6.37},{"id":0,"code_insee":"73162","nom_standard":"Montailleur","nom_a":null,"nom_de":null,"slug_ville":"montailleur","departement_id":0,"code_postal":"73460","population":671,"superficie_km2":"1520.15","latitude_centre":"45.614","longitude_centre":"6.2671","distance_km":6.94},{"id":0,"code_insee":"73277","nom_standard":"Sainte-Reine","nom_a":null,"nom_de":null,"slug_ville":"sainte-reine","departement_id":0,"code_postal":"73630","population":177,"superficie_km2":"1450.22","latitude_centre":"45.6085","longitude_centre":"6.1444","distance_km":7.05},{"id":0,"code_insee":"73106","nom_standard":"École","nom_a":null,"nom_de":null,"slug_ville":"ecole","departement_id":0,"code_postal":"73630","population":305,"superficie_km2":"2944.95","latitude_centre":"45.6276","longitude_centre":"6.1816","distance_km":7.27},{"id":0,"code_insee":"73315","nom_standard":"Villard-Léger","nom_a":null,"nom_de":null,"slug_ville":"villard-leger","departement_id":0,"code_postal":"73390","population":433,"superficie_km2":"679.48","latitude_centre":"45.502","longitude_centre":"6.1735","distance_km":7.64},{"id":0,"code_insee":"73314","nom_standard":"Villard-d'Héry","nom_a":null,"nom_de":null,"slug_ville":"villard-d-hery","departement_id":0,"code_postal":"73800","population":270,"superficie_km2":"488.58","latitude_centre":"45.5141","longitude_centre":"6.1401","distance_km":7.95},{"id":0,"code_insee":"73205","nom_standard":"Le Pontet","nom_a":null,"nom_de":null,"slug_ville":"le-pontet","departement_id":0,"code_postal":"73110","population":133,"superficie_km2":"865.52","latitude_centre":"45.4946","longitude_centre":"6.2359","distance_km":8.12},{"id":0,"code_insee":"73302","nom_standard":"La Trinité","nom_a":null,"nom_de":null,"slug_ville":"la-trinite","departement_id":0,"code_postal":"73110","population":381,"superficie_km2":"486.50","latitude_centre":"45.504","longitude_centre":"6.1515","distance_km":8.26},{"id":31315,"code_insee":"73052","nom_standard":"Bourget-en-Huile","nom_a":null,"nom_de":null,"slug_ville":"bourget-en-huile","departement_id":0,"code_postal":"73110","population":142,"superficie_km2":"676.38","latitude_centre":"45.4811","longitude_centre":"6.212","distance_km":9.39}]}