{"ville":{"id":11587,"code_insee":"07051","nom_standard":"Champagne","nom_a":null,"nom_de":null,"slug_ville":"champagne","departement_id":0,"code_postal":"07340","population":652,"superficie_km2":"413.48","latitude_centre":"45.277","longitude_centre":"4.7979","dep_code":"07","dep_nom":"Ardèche","dep_slug":"ardeche","reg_code":"84","reg_nom":"Auvergne-Rhône-Alpes","reg_slug":"auvergne-rhone-alpes"},"departement":{"code":"07","nom":"Ardèche","slug":"ardeche"},"region":{"code":"84","nom":"Auvergne-Rhône-Alpes","slug":"auvergne-rhone-alpes"},"villes_proches":[{"id":11576,"code_insee":"07036","nom_standard":"Bogy","nom_a":null,"nom_de":null,"slug_ville":"bogy","departement_id":0,"code_postal":"07340","population":488,"superficie_km2":"711.01","latitude_centre":"45.2827","longitude_centre":"4.7682","distance_km":2.41},{"id":0,"code_insee":"07228","nom_standard":"Saint-Désirat","nom_a":null,"nom_de":null,"slug_ville":"saint-desirat","departement_id":0,"code_postal":"07340","population":891,"superficie_km2":"744.46","latitude_centre":"45.2568","longitude_centre":"4.7837","distance_km":2.51},{"id":0,"code_insee":"07174","nom_standard":"Peyraud","nom_a":null,"nom_de":null,"slug_ville":"peyraud","departement_id":0,"code_postal":"07340","population":516,"superficie_km2":"602.73","latitude_centre":"45.297","longitude_centre":"4.7823","distance_km":2.54},{"id":0,"code_insee":"26325","nom_standard":"Saint-Rambert-d'Albon","nom_a":null,"nom_de":null,"slug_ville":"saint-rambert-d-albon","departement_id":0,"code_postal":"26140","population":7001,"superficie_km2":"1334.65","latitude_centre":"45.2883","longitude_centre":"4.8299","distance_km":2.8},{"id":0,"code_insee":"26009","nom_standard":"Andancette","nom_a":null,"nom_de":null,"slug_ville":"andancette","departement_id":0,"code_postal":"26140","population":1330,"superficie_km2":"606.78","latitude_centre":"45.2475","longitude_centre":"4.8127","distance_km":3.48},{"id":0,"code_insee":"07234","nom_standard":"Saint-Étienne-de-Valoux","nom_a":null,"nom_de":null,"slug_ville":"saint-etienne-de-valoux","departement_id":0,"code_postal":"07340","population":263,"superficie_km2":"239.69","latitude_centre":"45.2409","longitude_centre":"4.7754","distance_km":4.38},{"id":0,"code_insee":"07067","nom_standard":"Colombier-le-Cardinal","nom_a":null,"nom_de":null,"slug_ville":"colombier-le-cardinal","departement_id":0,"code_postal":"07430","population":327,"superficie_km2":"253.79","latitude_centre":"45.2645","longitude_centre":"4.7427","distance_km":4.54},{"id":0,"code_insee":"38349","nom_standard":"Sablons","nom_a":null,"nom_de":null,"slug_ville":"sablons","departement_id":0,"code_postal":"38550","population":2346,"superficie_km2":"1027.44","latitude_centre":"45.3204","longitude_centre":"4.785","distance_km":4.93},{"id":0,"code_insee":"07009","nom_standard":"Andance","nom_a":null,"nom_de":null,"slug_ville":"andance","departement_id":0,"code_postal":"07340","population":1192,"superficie_km2":"663.03","latitude_centre":"45.2316","longitude_centre":"4.7972","distance_km":5.05},{"id":0,"code_insee":"07172","nom_standard":"Peaugres","nom_a":null,"nom_de":null,"slug_ville":"peaugres","departement_id":0,"code_postal":"07340","population":2385,"superficie_km2":"1445.19","latitude_centre":"45.2827","longitude_centre":"4.7335","distance_km":5.08},{"id":0,"code_insee":"07313","nom_standard":"Serrières","nom_a":null,"nom_de":null,"slug_ville":"serrieres","departement_id":0,"code_postal":"07340","population":1095,"superficie_km2":"404.11","latitude_centre":"45.3178","longitude_centre":"4.7654","distance_km":5.2},{"id":0,"code_insee":"38072","nom_standard":"Chanas","nom_a":null,"nom_de":null,"slug_ville":"chanas","departement_id":0,"code_postal":"38150","population":2706,"superficie_km2":"1157.88","latitude_centre":"45.3193","longitude_centre":"4.8327","distance_km":5.43},{"id":0,"code_insee":"07227","nom_standard":"Saint-Cyr","nom_a":null,"nom_de":null,"slug_ville":"saint-cyr","departement_id":0,"code_postal":"07430","population":1476,"superficie_km2":"830.16","latitude_centre":"45.2505","longitude_centre":"4.7379","distance_km":5.54},{"id":0,"code_insee":"07321","nom_standard":"Thorrenc","nom_a":null,"nom_de":null,"slug_ville":"thorrenc","departement_id":0,"code_postal":"07340","population":356,"superficie_km2":"371.80","latitude_centre":"45.2327","longitude_centre":"4.7606","distance_km":5.73},{"id":0,"code_insee":"07317","nom_standard":"Talencieux","nom_a":null,"nom_de":null,"slug_ville":"talencieux","departement_id":0,"code_postal":"07340","population":1112,"superficie_km2":"722.31","latitude_centre":"45.2199","longitude_centre":"4.7724","distance_km":6.66},{"id":0,"code_insee":"26002","nom_standard":"Albon","nom_a":null,"nom_de":null,"slug_ville":"albon","departement_id":0,"code_postal":"26140","population":1942,"superficie_km2":"2606.64","latitude_centre":"45.2394","longitude_centre":"4.8654","distance_km":6.74},{"id":0,"code_insee":"38468","nom_standard":"Salaise-sur-Sanne","nom_a":null,"nom_de":null,"slug_ville":"salaise-sur-sanne","departement_id":0,"code_postal":"38150","population":4606,"superficie_km2":"1618.86","latitude_centre":"45.3432","longitude_centre":"4.8028","distance_km":7.37},{"id":0,"code_insee":"26041","nom_standard":"Beausemblant","nom_a":null,"nom_de":null,"slug_ville":"beausemblant","departement_id":0,"code_postal":"26240","population":1475,"superficie_km2":"1178.09","latitude_centre":"45.2138","longitude_centre":"4.8438","distance_km":7.89},{"id":0,"code_insee":"38003","nom_standard":"Agnin","nom_a":null,"nom_de":null,"slug_ville":"agnin","departement_id":0,"code_postal":"38150","population":1245,"superficie_km2":"796.98","latitude_centre":"45.3347","longitude_centre":"4.8598","distance_km":8.04},{"id":0,"code_insee":"26160","nom_standard":"Laveyron","nom_a":null,"nom_de":null,"slug_ville":"laveyron","departement_id":0,"code_postal":"26240","population":1253,"superficie_km2":"536.16","latitude_centre":"45.1998","longitude_centre":"4.8229","distance_km":8.8}]}