{"ville":{"id":17846,"code_insee":"28072","nom_standard":"Champrond-en-Perchet","nom_a":null,"nom_de":null,"slug_ville":"champrond-en-perchet","departement_id":0,"code_postal":"28400","population":388,"superficie_km2":"926.70","latitude_centre":"48.31","longitude_centre":"0.8878","dep_code":"28","dep_nom":"Eure-et-Loir","dep_slug":"eure-et-loir","reg_code":"24","reg_nom":"Centre-Val de Loire","reg_slug":"centre-val-de-loire"},"departement":{"code":"28","nom":"Eure-et-Loir","slug":"eure-et-loir"},"region":{"code":"24","nom":"Centre-Val de Loire","slug":"centre-val-de-loire"},"villes_proches":[{"id":0,"code_insee":"28395","nom_standard":"Trizay-Coutretot-Saint-Serge","nom_a":null,"nom_de":null,"slug_ville":"trizay-coutretot-saint-serge","departement_id":0,"code_postal":"28400","population":430,"superficie_km2":"1118.80","latitude_centre":"48.2942","longitude_centre":"0.8826","distance_km":1.8},{"id":0,"code_insee":"28236","nom_standard":"Arcisses","nom_a":null,"nom_de":null,"slug_ville":"arcisses","departement_id":0,"code_postal":"28400","population":2197,"superficie_km2":"4580.93","latitude_centre":"48.3365","longitude_centre":"0.89","distance_km":2.95},{"id":0,"code_insee":"28342","nom_standard":"Saint-Jean-Pierre-Fixte","nom_a":null,"nom_de":null,"slug_ville":"saint-jean-pierre-fixte","departement_id":0,"code_postal":"28400","population":271,"superficie_km2":"707.13","latitude_centre":"48.2948","longitude_centre":"0.8333","distance_km":4.37},{"id":0,"code_insee":"28407","nom_standard":"Vichères","nom_a":null,"nom_de":null,"slug_ville":"vicheres","departement_id":0,"code_postal":"28480","population":289,"superficie_km2":"1235.27","latitude_centre":"48.2636","longitude_centre":"0.9068","distance_km":5.35},{"id":0,"code_insee":"28175","nom_standard":"La Gaudaine","nom_a":null,"nom_de":null,"slug_ville":"la-gaudaine","departement_id":0,"code_postal":"28400","population":178,"superficie_km2":"919.70","latitude_centre":"48.2978","longitude_centre":"0.9595","distance_km":5.47},{"id":0,"code_insee":"28378","nom_standard":"Souancé-au-Perche","nom_a":null,"nom_de":null,"slug_ville":"souance-au-perche","departement_id":0,"code_postal":"28400","population":486,"superficie_km2":"1900.72","latitude_centre":"48.2697","longitude_centre":"0.8355","distance_km":5.92},{"id":0,"code_insee":"28280","nom_standard":"Nogent-le-Rotrou","nom_a":null,"nom_de":null,"slug_ville":"nogent-le-rotrou","departement_id":0,"code_postal":"28400","population":9292,"superficie_km2":"2337.29","latitude_centre":"48.3197","longitude_centre":"0.8071","distance_km":6.06},{"id":17810,"code_insee":"28010","nom_standard":"Argenvilliers","nom_a":null,"nom_de":null,"slug_ville":"argenvilliers","departement_id":0,"code_postal":"28480","population":310,"superficie_km2":"1837.82","latitude_centre":"48.2753","longitude_centre":"0.9724","distance_km":7.35},{"id":0,"code_insee":"28237","nom_standard":"Marolles-les-Buis","nom_a":null,"nom_de":null,"slug_ville":"marolles-les-buis","departement_id":0,"code_postal":"28400","population":205,"superficie_km2":"1320.05","latitude_centre":"48.3674","longitude_centre":"0.9437","distance_km":7.6},{"id":0,"code_insee":"61116","nom_standard":"Sablons sur Huisne","nom_a":null,"nom_de":null,"slug_ville":"sablons-sur-huisne","departement_id":0,"code_postal":"61110","population":1976,"superficie_km2":"5279.55","latitude_centre":"48.384","longitude_centre":"0.8714","distance_km":8.32},{"id":0,"code_insee":"28111","nom_standard":"Coudray-au-Perche","nom_a":null,"nom_de":null,"slug_ville":"coudray-au-perche","departement_id":0,"code_postal":"28330","population":364,"superficie_km2":"1467.26","latitude_centre":"48.2361","longitude_centre":"0.8609","distance_km":8.46},{"id":0,"code_insee":"61448","nom_standard":"Saint-Pierre-la-Bruyère","nom_a":null,"nom_de":null,"slug_ville":"saint-pierre-la-bruyere","departement_id":0,"code_postal":"61340","population":423,"superficie_km2":"640.16","latitude_centre":"48.361","longitude_centre":"0.8014","distance_km":8.54},{"id":17825,"code_insee":"28038","nom_standard":"Béthonvilliers","nom_a":null,"nom_de":null,"slug_ville":"bethonvilliers","departement_id":0,"code_postal":"28330","population":132,"superficie_km2":"1237.86","latitude_centre":"48.2304","longitude_centre":"0.9016","distance_km":8.91},{"id":0,"code_insee":"28144","nom_standard":"Les Étilleux","nom_a":null,"nom_de":null,"slug_ville":"les-etilleux","departement_id":0,"code_postal":"28330","population":204,"superficie_km2":"844.54","latitude_centre":"48.2439","longitude_centre":"0.8151","distance_km":9.11},{"id":0,"code_insee":"28387","nom_standard":"Thiron-Gardais","nom_a":null,"nom_de":null,"slug_ville":"thiron-gardais","departement_id":0,"code_postal":"28480","population":962,"superficie_km2":"1346.47","latitude_centre":"48.3047","longitude_centre":"1.0137","distance_km":9.33},{"id":17818,"code_insee":"28031","nom_standard":"Beaumont-les-Autels","nom_a":null,"nom_de":null,"slug_ville":"beaumont-les-autels","departement_id":0,"code_postal":"28480","population":438,"superficie_km2":"2139.82","latitude_centre":"48.2416","longitude_centre":"0.9613","distance_km":9.35},{"id":0,"code_insee":"28331","nom_standard":"Saintigny","nom_a":null,"nom_de":null,"slug_ville":"saintigny","departement_id":0,"code_postal":"28480","population":922,"superficie_km2":"4525.37","latitude_centre":"48.3506","longitude_centre":"1.0029","distance_km":9.63},{"id":0,"code_insee":"28252","nom_standard":"Miermaigne","nom_a":null,"nom_de":null,"slug_ville":"miermaigne","departement_id":0,"code_postal":"28480","population":164,"superficie_km2":"1117.66","latitude_centre":"48.2471","longitude_centre":"1.0006","distance_km":10.89},{"id":0,"code_insee":"61395","nom_standard":"Saint-Germain-des-Grois","nom_a":null,"nom_de":null,"slug_ville":"saint-germain-des-grois","departement_id":0,"code_postal":"61110","population":203,"superficie_km2":"1048.63","latitude_centre":"48.4066","longitude_centre":"0.8154","distance_km":12.0},{"id":0,"code_insee":"28018","nom_standard":"Authon-du-Perche","nom_a":null,"nom_de":null,"slug_ville":"authon-du-perche","departement_id":0,"code_postal":"28330","population":1480,"superficie_km2":"3518.61","latitude_centre":"48.185","longitude_centre":"0.8916","distance_km":13.9}]}