{"ville":{"id":23420,"code_insee":"51120","nom_standard":"Champlat-et-Boujacourt","nom_a":null,"nom_de":null,"slug_ville":"champlat-et-boujacourt","departement_id":0,"code_postal":"51480","population":139,"superficie_km2":"630.83","latitude_centre":"49.1545","longitude_centre":"3.8268","dep_code":"51","dep_nom":"Marne","dep_slug":"marne","reg_code":"44","reg_nom":"Grand Est","reg_slug":"grand-est"},"departement":{"code":"51","nom":"Marne","slug":"marne"},"region":{"code":"44","nom":"Grand Est","slug":"grand-est"},"villes_proches":[{"id":0,"code_insee":"51398","nom_standard":"La Neuville-aux-Larris","nom_a":null,"nom_de":null,"slug_ville":"la-neuville-aux-larris","departement_id":0,"code_postal":"51480","population":188,"superficie_km2":"168.03","latitude_centre":"49.1434","longitude_centre":"3.8309","distance_km":1.27},{"id":0,"code_insee":"51309","nom_standard":"Jonquery","nom_a":null,"nom_de":null,"slug_ville":"jonquery","departement_id":0,"code_postal":"51700","population":115,"superficie_km2":"426.67","latitude_centre":"49.1461","longitude_centre":"3.7904","distance_km":2.81},{"id":0,"code_insee":"51199","nom_standard":"Cuchery","nom_a":null,"nom_de":null,"slug_ville":"cuchery","departement_id":0,"code_postal":"51480","population":412,"superficie_km2":"700.62","latitude_centre":"49.1275","longitude_centre":"3.827","distance_km":3.0},{"id":0,"code_insee":"51140","nom_standard":"Chaumuzy","nom_a":null,"nom_de":null,"slug_ville":"chaumuzy","departement_id":0,"code_postal":"51170","population":345,"superficie_km2":"1992.55","latitude_centre":"49.1543","longitude_centre":"3.8704","distance_km":3.17},{"id":23413,"code_insee":"51111","nom_standard":"Chambrecy","nom_a":null,"nom_de":null,"slug_ville":"chambrecy","departement_id":0,"code_postal":"51170","population":146,"superficie_km2":"618.85","latitude_centre":"49.1834","longitude_centre":"3.8231","distance_km":3.22},{"id":0,"code_insee":"51624","nom_standard":"Ville-en-Tardenois","nom_a":null,"nom_de":null,"slug_ville":"ville-en-tardenois","departement_id":0,"code_postal":"51170","population":660,"superficie_km2":"1132.94","latitude_centre":"49.1791","longitude_centre":"3.7977","distance_km":3.46},{"id":23361,"code_insee":"51048","nom_standard":"Belval-sous-Châtillon","nom_a":null,"nom_de":null,"slug_ville":"belval-sous-chatillon","departement_id":0,"code_postal":"51480","population":174,"superficie_km2":"712.13","latitude_centre":"49.124","longitude_centre":"3.8533","distance_km":3.9},{"id":23352,"code_insee":"51038","nom_standard":"Baslieux-sous-Châtillon","nom_a":null,"nom_de":null,"slug_ville":"baslieux-sous-chatillon","departement_id":0,"code_postal":"51700","population":175,"superficie_km2":"589.15","latitude_centre":"49.1245","longitude_centre":"3.794","distance_km":4.1},{"id":0,"code_insee":"51201","nom_standard":"Cuisles","nom_a":null,"nom_de":null,"slug_ville":"cuisles","departement_id":0,"code_postal":"51700","population":133,"superficie_km2":"291.64","latitude_centre":"49.1293","longitude_centre":"3.7782","distance_km":4.51},{"id":0,"code_insee":"51466","nom_standard":"Romigny","nom_a":null,"nom_de":null,"slug_ville":"romigny","departement_id":0,"code_postal":"51170","population":206,"superficie_km2":"1131.01","latitude_centre":"49.1699","longitude_centre":"3.7676","distance_km":4.63},{"id":23376,"code_insee":"51069","nom_standard":"Bligny","nom_a":null,"nom_de":null,"slug_ville":"bligny","departement_id":0,"code_postal":"51170","population":107,"superficie_km2":"261.64","latitude_centre":"49.1935","longitude_centre":"3.8596","distance_km":4.95},{"id":0,"code_insee":"51414","nom_standard":"Olizy","nom_a":null,"nom_de":null,"slug_ville":"olizy","departement_id":0,"code_postal":"51700","population":148,"superficie_km2":"452.63","latitude_centre":"49.1468","longitude_centre":"3.7585","distance_km":5.04},{"id":0,"code_insee":"51523","nom_standard":"Sarcy","nom_a":null,"nom_de":null,"slug_ville":"sarcy","departement_id":0,"code_postal":"51170","population":268,"superficie_km2":"687.74","latitude_centre":"49.2022","longitude_centre":"3.831","distance_km":5.31},{"id":23340,"code_insee":"51020","nom_standard":"Aubilly","nom_a":null,"nom_de":null,"slug_ville":"aubilly","departement_id":0,"code_postal":"51170","population":50,"superficie_km2":"320.72","latitude_centre":"49.2122","longitude_centre":"3.8536","distance_km":6.71},{"id":0,"code_insee":"51136","nom_standard":"Châtillon-sur-Marne","nom_a":null,"nom_de":null,"slug_ville":"chatillon-sur-marne","departement_id":0,"code_postal":"51700","population":625,"superficie_km2":"1152.67","latitude_centre":"49.1044","longitude_centre":"3.7734","distance_km":6.79},{"id":0,"code_insee":"51457","nom_standard":"Cœur-de-la-Vallée","nom_a":null,"nom_de":null,"slug_ville":"coeur-de-la-vallee","departement_id":0,"code_postal":"51480","population":642,"superficie_km2":"1351.11","latitude_centre":"49.0945","longitude_centre":"3.8089","distance_km":6.8},{"id":0,"code_insee":"51605","nom_standard":"Venteuil","nom_a":null,"nom_de":null,"slug_ville":"venteuil","departement_id":0,"code_postal":"51480","population":462,"superficie_km2":"627.78","latitude_centre":"49.0914","longitude_centre":"3.8401","distance_km":7.08},{"id":0,"code_insee":"51437","nom_standard":"Poilly","nom_a":null,"nom_de":null,"slug_ville":"poilly","departement_id":0,"code_postal":"51170","population":94,"superficie_km2":"440.32","latitude_centre":"49.2191","longitude_centre":"3.8115","distance_km":7.27},{"id":0,"code_insee":"51577","nom_standard":"Tramery","nom_a":null,"nom_de":null,"slug_ville":"tramery","departement_id":0,"code_postal":"51170","population":149,"superficie_km2":"359.45","latitude_centre":"49.2225","longitude_centre":"3.8014","distance_km":7.78},{"id":23380,"code_insee":"51073","nom_standard":"Bouleuse","nom_a":null,"nom_de":null,"slug_ville":"bouleuse","departement_id":0,"code_postal":"51170","population":221,"superficie_km2":"403.19","latitude_centre":"49.2268","longitude_centre":"3.8419","distance_km":8.11}]}