{"ville":{"id":3615,"code_insee":"38072","nom_standard":"Chanas","nom_a":null,"nom_de":null,"slug_ville":"chanas","departement_id":639,"code_postal":"38150","population":2706,"superficie_km2":"12.00","latitude_centre":"45.3180008","longitude_centre":"4.8309999","dep_code":"38","dep_nom":"Isère","dep_slug":"isere","reg_code":"01","reg_nom":"Auvergne-Rhône-Alpes","reg_slug":"auvergne-rhone-alpes"},"departement":{"code":"38","nom":"Isère","slug":"isere"},"region":{"code":"01","nom":"Auvergne-Rhône-Alpes","slug":"auvergne-rhone-alpes"},"villes_proches":[{"id":3576,"code_insee":"38003","nom_standard":"Agnin","nom_a":null,"nom_de":null,"slug_ville":"agnin","departement_id":639,"code_postal":"38150","population":1232,"superficie_km2":"8.00","latitude_centre":"45.3370018","longitude_centre":"4.8600001","distance_km":3.1},{"id":1971,"code_insee":"26325","nom_standard":"Saint-Rambert-d'Albon","nom_a":null,"nom_de":null,"slug_ville":"saint-rambert-d-albon","departement_id":627,"code_postal":"26140","population":6913,"superficie_km2":"13.00","latitude_centre":"45.2890015","longitude_centre":"4.8309999","distance_km":3.22},{"id":3791,"code_insee":"38468","nom_standard":"Salaise-sur-Sanne","nom_a":null,"nom_de":null,"slug_ville":"salaise-sur-sanne","departement_id":639,"code_postal":"38150","population":4505,"superficie_km2":"16.00","latitude_centre":"45.3440018","longitude_centre":"4.8090000","distance_km":3.36},{"id":3736,"code_insee":"38349","nom_standard":"Sablons","nom_a":null,"nom_de":null,"slug_ville":"sablons","departement_id":639,"code_postal":"38550","population":2290,"superficie_km2":"10.00","latitude_centre":"45.3209992","longitude_centre":"4.7849998","distance_km":3.61},{"id":3601,"code_insee":"38051","nom_standard":"Bougé-Chambalud","nom_a":null,"nom_de":null,"slug_ville":"bouge-chambalud","departement_id":639,"code_postal":"38150","population":1425,"superficie_km2":"16.00","latitude_centre":"45.3199997","longitude_centre":"4.8920002","distance_km":4.77},{"id":3579,"code_insee":"38009","nom_standard":"Anjou","nom_a":null,"nom_de":null,"slug_ville":"anjou","departement_id":639,"code_postal":"38150","population":1029,"superficie_km2":"5.00","latitude_centre":"45.3489990","longitude_centre":"4.8829999","distance_km":5.33},{"id":551,"code_insee":"07313","nom_standard":"Serrières","nom_a":null,"nom_de":null,"slug_ville":"serrieres","departement_id":607,"code_postal":"07340","population":1096,"superficie_km2":"4.00","latitude_centre":"45.3139992","longitude_centre":"4.7630000","distance_km":5.34},{"id":3733,"code_insee":"38344","nom_standard":"Roussillon","nom_a":null,"nom_de":null,"slug_ville":"roussillon","departement_id":639,"code_postal":"38150","population":8589,"superficie_km2":"12.00","latitude_centre":"45.3779984","longitude_centre":"4.8179998","distance_km":6.75},{"id":3712,"code_insee":"38298","nom_standard":"Le Péage-de-Roussillon","nom_a":null,"nom_de":null,"slug_ville":"le-peage-de-roussillon","departement_id":639,"code_postal":"38550","population":6508,"superficie_km2":"7.00","latitude_centre":"45.3689995","longitude_centre":"4.7839999","distance_km":6.76},{"id":3834,"code_insee":"38556","nom_standard":"Ville-sous-Anjou","nom_a":null,"nom_de":null,"slug_ville":"ville-sous-anjou","departement_id":639,"code_postal":"38150","population":1190,"superficie_km2":"18.00","latitude_centre":"45.3759995","longitude_centre":"4.8590002","distance_km":6.81},{"id":1888,"code_insee":"26010","nom_standard":"Anneyron","nom_a":null,"nom_de":null,"slug_ville":"anneyron","departement_id":627,"code_postal":"26140","population":4136,"superficie_km2":"37.00","latitude_centre":"45.2719994","longitude_centre":"4.8920002","distance_km":7},{"id":3806,"code_insee":"38496","nom_standard":"Sonnay","nom_a":null,"nom_de":null,"slug_ville":"sonnay","departement_id":639,"code_postal":"38150","population":1276,"superficie_km2":"14.00","latitude_centre":"45.3569984","longitude_centre":"4.9159999","distance_km":7.93},{"id":498,"code_insee":"07089","nom_standard":"Félines","nom_a":null,"nom_de":null,"slug_ville":"felines","departement_id":607,"code_postal":"07340","population":1814,"superficie_km2":"14.00","latitude_centre":"45.3160019","longitude_centre":"4.7270002","distance_km":8.13},{"id":1887,"code_insee":"26009","nom_standard":"Andancette","nom_a":null,"nom_de":null,"slug_ville":"andancette","departement_id":627,"code_postal":"26140","population":1309,"superficie_km2":"6.00","latitude_centre":"45.2459984","longitude_centre":"4.8119998","distance_km":8.14},{"id":1917,"code_insee":"26118","nom_standard":"Épinouze","nom_a":null,"nom_de":null,"slug_ville":"epinouze","departement_id":627,"code_postal":"26210","population":1523,"superficie_km2":"11.00","latitude_centre":"45.3120003","longitude_centre":"4.9380002","distance_km":8.39},{"id":517,"code_insee":"07172","nom_standard":"Peaugres","nom_a":null,"nom_de":null,"slug_ville":"peaugres","departement_id":607,"code_postal":"07340","population":2320,"superficie_km2":"14.00","latitude_centre":"45.2859993","longitude_centre":"4.7280002","distance_km":8.81},{"id":1882,"code_insee":"26002","nom_standard":"Albon","nom_a":null,"nom_de":null,"slug_ville":"albon","departement_id":627,"code_postal":"26140","population":1951,"superficie_km2":"26.00","latitude_centre":"45.2389984","longitude_centre":"4.8620000","distance_km":9.11},{"id":3773,"code_insee":"38425","nom_standard":"Saint-Maurice-l'Exil","nom_a":null,"nom_de":null,"slug_ville":"saint-maurice-l-exil","departement_id":639,"code_postal":"38550","population":6555,"superficie_km2":"13.00","latitude_centre":"45.3919983","longitude_centre":"4.7770000","distance_km":9.25},{"id":3677,"code_insee":"38198","nom_standard":"Jarcieu","nom_a":null,"nom_de":null,"slug_ville":"jarcieu","departement_id":639,"code_postal":"38270","population":1130,"superficie_km2":"6.00","latitude_centre":"45.3349991","longitude_centre":"4.9489999","distance_km":9.42},{"id":4181,"code_insee":"42272","nom_standard":"Saint-Pierre-de-Bœuf","nom_a":null,"nom_de":null,"slug_ville":"saint-pierre-de-boeuf","departement_id":643,"code_postal":"42520","population":1698,"superficie_km2":"6.00","latitude_centre":"45.3769989","longitude_centre":"4.7440000","distance_km":9.45}]}