{"ville":{"id":10016,"code_insee":"01084","nom_standard":"Chanoz-Châtenay","nom_a":null,"nom_de":null,"slug_ville":"chanoz-chatenay","departement_id":0,"code_postal":"01400","population":989,"superficie_km2":"1336.06","latitude_centre":"46.1868","longitude_centre":"5.0302","dep_code":"01","dep_nom":"Ain","dep_slug":"ain","reg_code":"84","reg_nom":"Auvergne-Rhône-Alpes","reg_slug":"auvergne-rhone-alpes"},"departement":{"code":"01","nom":"Ain","slug":"ain"},"region":{"code":"84","nom":"Auvergne-Rhône-Alpes","slug":"auvergne-rhone-alpes"},"villes_proches":[{"id":0,"code_insee":"01096","nom_standard":"Chaveyriat","nom_a":null,"nom_de":null,"slug_ville":"chaveyriat","departement_id":0,"code_postal":"01660","population":1078,"superficie_km2":"1678.48","latitude_centre":"46.1991","longitude_centre":"5.0534","distance_km":2.25},{"id":0,"code_insee":"01272","nom_standard":"Neuville-les-Dames","nom_a":null,"nom_de":null,"slug_ville":"neuville-les-dames","departement_id":0,"code_postal":"01400","population":1565,"superficie_km2":"2627.22","latitude_centre":"46.1599","longitude_centre":"5.0103","distance_km":3.36},{"id":0,"code_insee":"01457","nom_standard":"Vonnas","nom_a":null,"nom_de":null,"slug_ville":"vonnas","departement_id":0,"code_postal":"01540","population":3255,"superficie_km2":"1817.21","latitude_centre":"46.2132","longitude_centre":"4.9945","distance_km":4.02},{"id":0,"code_insee":"01429","nom_standard":"Vandeins","nom_a":null,"nom_de":null,"slug_ville":"vandeins","departement_id":0,"code_postal":"01660","population":732,"superficie_km2":"933.81","latitude_centre":"46.2155","longitude_centre":"5.0786","distance_km":4.91},{"id":0,"code_insee":"01412","nom_standard":"Sulignat","nom_a":null,"nom_de":null,"slug_ville":"sulignat","departement_id":0,"code_postal":"01400","population":602,"superficie_km2":"1076.90","latitude_centre":"46.1727","longitude_centre":"4.9601","distance_km":5.62},{"id":0,"code_insee":"01113","nom_standard":"Condeissiat","nom_a":null,"nom_de":null,"slug_ville":"condeissiat","departement_id":0,"code_postal":"01400","population":839,"superficie_km2":"2175.58","latitude_centre":"46.1541","longitude_centre":"5.0863","distance_km":5.65},{"id":0,"code_insee":"01368","nom_standard":"Saint-Julien-sur-Veyle","nom_a":null,"nom_de":null,"slug_ville":"saint-julien-sur-veyle","departement_id":0,"code_postal":"01540","population":859,"superficie_km2":"987.79","latitude_centre":"46.2072","longitude_centre":"4.9559","distance_km":6.15},{"id":0,"code_insee":"01246","nom_standard":"Mézériat","nom_a":null,"nom_de":null,"slug_ville":"mezeriat","departement_id":0,"code_postal":"01660","population":2172,"superficie_km2":"1924.64","latitude_centre":"46.2424","longitude_centre":"5.0481","distance_km":6.33},{"id":0,"code_insee":"01264","nom_standard":"Montracol","nom_a":null,"nom_de":null,"slug_ville":"montracol","departement_id":0,"code_postal":"01310","population":1018,"superficie_km2":"1467.76","latitude_centre":"46.182","longitude_centre":"5.1234","distance_km":7.19},{"id":0,"code_insee":"01328","nom_standard":"Romans","nom_a":null,"nom_de":null,"slug_ville":"romans","departement_id":0,"code_postal":"01400","population":640,"superficie_km2":"2210.30","latitude_centre":"46.1216","longitude_centre":"5.0217","distance_km":7.28},{"id":0,"code_insee":"01259","nom_standard":"Montcet","nom_a":null,"nom_de":null,"slug_ville":"montcet","departement_id":0,"code_postal":"01310","population":709,"superficie_km2":"656.68","latitude_centre":"46.2199","longitude_centre":"5.1123","distance_km":7.31},{"id":0,"code_insee":"01291","nom_standard":"Perrex","nom_a":null,"nom_de":null,"slug_ville":"perrex","departement_id":0,"code_postal":"01540","population":869,"superficie_km2":"1119.19","latitude_centre":"46.2462","longitude_centre":"4.9718","distance_km":7.99},{"id":9996,"code_insee":"01046","nom_standard":"Biziat","nom_a":null,"nom_de":null,"slug_ville":"biziat","departement_id":0,"code_postal":"01290","population":889,"superficie_km2":"1158.05","latitude_centre":"46.224","longitude_centre":"4.9393","distance_km":8.13},{"id":9971,"code_insee":"01001","nom_standard":"L'Abergement-Clémenciat","nom_a":null,"nom_de":null,"slug_ville":"l-abergement-clemenciat","departement_id":0,"code_postal":"01400","population":860,"superficie_km2":"1564.50","latitude_centre":"46.1517","longitude_centre":"4.9306","distance_km":8.61},{"id":0,"code_insee":"01093","nom_standard":"Châtillon-sur-Chalaronne","nom_a":null,"nom_de":null,"slug_ville":"chatillon-sur-chalaronne","departement_id":0,"code_postal":"01400","population":5250,"superficie_km2":"1808.06","latitude_centre":"46.1264","longitude_centre":"4.9549","distance_km":8.87},{"id":0,"code_insee":"01335","nom_standard":"Saint-André-le-Bouchoux","nom_a":null,"nom_de":null,"slug_ville":"saint-andre-le-bouchoux","departement_id":0,"code_postal":"01240","population":409,"superficie_km2":"929.76","latitude_centre":"46.1137","longitude_centre":"5.0775","distance_km":8.91},{"id":0,"code_insee":"01356","nom_standard":"Saint-Georges-sur-Renon","nom_a":null,"nom_de":null,"slug_ville":"saint-georges-sur-renon","departement_id":0,"code_postal":"01400","population":228,"superficie_km2":"564.72","latitude_centre":"46.1033","longitude_centre":"5.0286","distance_km":9.29},{"id":0,"code_insee":"01115","nom_standard":"Confrançon","nom_a":null,"nom_de":null,"slug_ville":"confrancon","departement_id":0,"code_postal":"01310","population":1356,"superficie_km2":"1817.90","latitude_centre":"46.2732","longitude_centre":"5.06","distance_km":9.88},{"id":0,"code_insee":"01355","nom_standard":"Saint-Genis-sur-Menthon","nom_a":null,"nom_de":null,"slug_ville":"saint-genis-sur-menthon","departement_id":0,"code_postal":"01380","population":490,"superficie_km2":"1168.45","latitude_centre":"46.281","longitude_centre":"5.0162","distance_km":10.53},{"id":0,"code_insee":"01343","nom_standard":"Saint-Cyr-sur-Menthon","nom_a":null,"nom_de":null,"slug_ville":"saint-cyr-sur-menthon","departement_id":0,"code_postal":"01380","population":1890,"superficie_km2":"1704.05","latitude_centre":"46.2751","longitude_centre":"4.9669","distance_km":10.96}]}