{"ville":{"id":17851,"code_insee":"28078","nom_standard":"Chapelle-Guillaume","nom_a":null,"nom_de":null,"slug_ville":"chapelle-guillaume","departement_id":0,"code_postal":"28330","population":181,"superficie_km2":"2007.97","latitude_centre":"48.1205","longitude_centre":"0.8963","dep_code":"28","dep_nom":"Eure-et-Loir","dep_slug":"eure-et-loir","reg_code":"24","reg_nom":"Centre-Val de Loire","reg_slug":"centre-val-de-loire"},"departement":{"code":"28","nom":"Eure-et-Loir","slug":"eure-et-loir"},"region":{"code":"24","nom":"Centre-Val de Loire","slug":"centre-val-de-loire"},"villes_proches":[{"id":0,"code_insee":"72144","nom_standard":"Gréez-sur-Roc","nom_a":null,"nom_de":null,"slug_ville":"greez-sur-roc","departement_id":0,"code_postal":"72320","population":344,"superficie_km2":"2542.91","latitude_centre":"48.1343","longitude_centre":"0.8351","distance_km":4.79},{"id":0,"code_insee":"41177","nom_standard":"Le Plessis-Dorin","nom_a":null,"nom_de":null,"slug_ville":"le-plessis-dorin","departement_id":0,"code_postal":"41170","population":145,"superficie_km2":"1376.50","latitude_centre":"48.0837","longitude_centre":"0.8505","distance_km":5.32},{"id":0,"code_insee":"72322","nom_standard":"Saint-Ulphace","nom_a":null,"nom_de":null,"slug_ville":"saint-ulphace","departement_id":0,"code_postal":"72320","population":222,"superficie_km2":"1606.29","latitude_centre":"48.1584","longitude_centre":"0.8486","distance_km":5.5},{"id":0,"code_insee":"28027","nom_standard":"La Bazoche-Gouet","nom_a":null,"nom_de":null,"slug_ville":"la-bazoche-gouet","departement_id":0,"code_postal":"28330","population":1234,"superficie_km2":"3784.25","latitude_centre":"48.1356","longitude_centre":"0.9803","distance_km":6.46},{"id":0,"code_insee":"72193","nom_standard":"Melleray","nom_a":null,"nom_de":null,"slug_ville":"melleray","departement_id":0,"code_postal":"72320","population":454,"superficie_km2":"2593.37","latitude_centre":"48.1012","longitude_centre":"0.8084","distance_km":6.87},{"id":0,"code_insee":"41096","nom_standard":"Le Gault-du-Perche","nom_a":null,"nom_de":null,"slug_ville":"le-gault-du-perche","departement_id":0,"code_postal":"41270","population":320,"superficie_km2":"2827.55","latitude_centre":"48.0996","longitude_centre":"0.9853","distance_km":7.0},{"id":0,"code_insee":"41248","nom_standard":"Couëtron-au-Perche","nom_a":null,"nom_de":null,"slug_ville":"couetron-au-perche","departement_id":0,"code_postal":"41170","population":1043,"superficie_km2":"8612.25","latitude_centre":"48.0573","longitude_centre":"0.894","distance_km":7.03},{"id":0,"code_insee":"28018","nom_standard":"Authon-du-Perche","nom_a":null,"nom_de":null,"slug_ville":"authon-du-perche","departement_id":0,"code_postal":"28330","population":1480,"superficie_km2":"3518.61","latitude_centre":"48.185","longitude_centre":"0.8916","distance_km":7.18},{"id":0,"code_insee":"28080","nom_standard":"Charbonnières","nom_a":null,"nom_de":null,"slug_ville":"charbonnieres","departement_id":0,"code_postal":"28330","population":263,"superficie_km2":"2109.68","latitude_centre":"48.1891","longitude_centre":"0.9448","distance_km":8.43},{"id":0,"code_insee":"72208","nom_standard":"Montmirail","nom_a":null,"nom_de":null,"slug_ville":"montmirail","departement_id":0,"code_postal":"72320","population":366,"superficie_km2":"1258.36","latitude_centre":"48.1075","longitude_centre":"0.7728","distance_km":9.28},{"id":17812,"code_insee":"28016","nom_standard":"Les Autels-Villevillon","nom_a":null,"nom_de":null,"slug_ville":"les-autels-villevillon","departement_id":0,"code_postal":"28330","population":106,"superficie_km2":"1023.35","latitude_centre":"48.1778","longitude_centre":"0.9924","distance_km":9.56},{"id":0,"code_insee":"72353","nom_standard":"Théligny","nom_a":null,"nom_de":null,"slug_ville":"theligny","departement_id":0,"code_postal":"72320","population":215,"superficie_km2":"1451.81","latitude_centre":"48.1707","longitude_centre":"0.7882","distance_km":9.77},{"id":0,"code_insee":"28327","nom_standard":"Saint-Bomer","nom_a":null,"nom_de":null,"slug_ville":"saint-bomer","departement_id":0,"code_postal":"28330","population":194,"superficie_km2":"1347.29","latitude_centre":"48.1957","longitude_centre":"0.8263","distance_km":9.84},{"id":0,"code_insee":"41089","nom_standard":"La Fontenelle","nom_a":null,"nom_de":null,"slug_ville":"la-fontenelle","departement_id":0,"code_postal":"41270","population":204,"superficie_km2":"2004.03","latitude_centre":"48.0536","longitude_centre":"1.0167","distance_km":11.63},{"id":17825,"code_insee":"28038","nom_standard":"Béthonvilliers","nom_a":null,"nom_de":null,"slug_ville":"bethonvilliers","departement_id":0,"code_postal":"28330","population":132,"superficie_km2":"1237.86","latitude_centre":"48.2304","longitude_centre":"0.9016","distance_km":12.23},{"id":0,"code_insee":"41024","nom_standard":"Boursay","nom_a":null,"nom_de":null,"slug_ville":"boursay","departement_id":0,"code_postal":"41270","population":179,"superficie_km2":"2261.20","latitude_centre":"48.0185","longitude_centre":"0.9812","distance_km":12.98},{"id":0,"code_insee":"28111","nom_standard":"Coudray-au-Perche","nom_a":null,"nom_de":null,"slug_ville":"coudray-au-perche","departement_id":0,"code_postal":"28330","population":364,"superficie_km2":"1467.26","latitude_centre":"48.2361","longitude_centre":"0.8609","distance_km":13.12},{"id":17818,"code_insee":"28031","nom_standard":"Beaumont-les-Autels","nom_a":null,"nom_de":null,"slug_ville":"beaumont-les-autels","departement_id":0,"code_postal":"28480","population":438,"superficie_km2":"2139.82","latitude_centre":"48.2416","longitude_centre":"0.9613","distance_km":14.3},{"id":0,"code_insee":"41053","nom_standard":"Choue","nom_a":null,"nom_de":null,"slug_ville":"choue","departement_id":0,"code_postal":"41170","population":512,"superficie_km2":"3658.86","latitude_centre":"47.9918","longitude_centre":"0.9344","distance_km":14.59},{"id":0,"code_insee":"41143","nom_standard":"Mondoubleau","nom_a":null,"nom_de":null,"slug_ville":"mondoubleau","departement_id":0,"code_postal":"41170","population":1297,"superficie_km2":"483.29","latitude_centre":"47.9885","longitude_centre":"0.8969","distance_km":14.68}]}