{"ville":{"id":12567,"code_insee":"10086","nom_standard":"Charny-le-Bachot","nom_a":null,"nom_de":null,"slug_ville":"charny-le-bachot","departement_id":0,"code_postal":"10380","population":239,"superficie_km2":"1374.17","latitude_centre":"48.5408","longitude_centre":"3.9529","dep_code":"10","dep_nom":"Aube","dep_slug":"aube","reg_code":"44","reg_nom":"Grand Est","reg_slug":"grand-est"},"departement":{"code":"10","nom":"Aube","slug":"aube"},"region":{"code":"44","nom":"Grand Est","slug":"grand-est"},"villes_proches":[{"id":0,"code_insee":"10207","nom_standard":"Longueville-sur-Aube","nom_a":null,"nom_de":null,"slug_ville":"longueville-sur-aube","departement_id":0,"code_postal":"10170","population":134,"superficie_km2":"1165.61","latitude_centre":"48.5484","longitude_centre":"3.9116","distance_km":3.16},{"id":0,"code_insee":"10316","nom_standard":"Rhèges","nom_a":null,"nom_de":null,"slug_ville":"rheges","departement_id":0,"code_postal":"10170","population":206,"superficie_km2":"1480.13","latitude_centre":"48.5334","longitude_centre":"3.9944","distance_km":3.16},{"id":0,"code_insee":"10132","nom_standard":"Droupt-Sainte-Marie","nom_a":null,"nom_de":null,"slug_ville":"droupt-sainte-marie","departement_id":0,"code_postal":"10170","population":256,"superficie_km2":"1453.98","latitude_centre":"48.4995","longitude_centre":"3.9404","distance_km":4.68},{"id":12531,"code_insee":"10043","nom_standard":"Bessy","nom_a":null,"nom_de":null,"slug_ville":"bessy","departement_id":0,"code_postal":"10170","population":111,"superficie_km2":"713.68","latitude_centre":"48.5399","longitude_centre":"4.0237","distance_km":5.21},{"id":0,"code_insee":"10233","nom_standard":"Méry-sur-Seine","nom_a":null,"nom_de":null,"slug_ville":"mery-sur-seine","departement_id":0,"code_postal":"10170","population":1431,"superficie_km2":"1244.48","latitude_centre":"48.5052","longitude_centre":"3.8993","distance_km":5.59},{"id":12539,"code_insee":"10052","nom_standard":"Boulages","nom_a":null,"nom_de":null,"slug_ville":"boulages","departement_id":0,"code_postal":"10380","population":224,"superficie_km2":"1163.22","latitude_centre":"48.5871","longitude_centre":"3.916","distance_km":5.82},{"id":0,"code_insee":"10356","nom_standard":"Saint-Oulph","nom_a":null,"nom_de":null,"slug_ville":"saint-oulph","departement_id":0,"code_postal":"10170","population":320,"superficie_km2":"1095.62","latitude_centre":"48.5262","longitude_centre":"3.8746","distance_km":5.99},{"id":0,"code_insee":"10144","nom_standard":"Étrelles-sur-Aube","nom_a":null,"nom_de":null,"slug_ville":"etrelles-sur-aube","departement_id":0,"code_postal":"10170","population":158,"superficie_km2":"1054.13","latitude_centre":"48.5602","longitude_centre":"3.876","distance_km":6.06},{"id":0,"code_insee":"10289","nom_standard":"Plancy-l'Abbaye","nom_a":null,"nom_de":null,"slug_ville":"plancy-l-abbaye","departement_id":0,"code_postal":"10380","population":960,"superficie_km2":"4198.66","latitude_centre":"48.592","longitude_centre":"3.9882","distance_km":6.26},{"id":0,"code_insee":"10305","nom_standard":"Prémierfait","nom_a":null,"nom_de":null,"slug_ville":"premierfait","departement_id":0,"code_postal":"10170","population":90,"superficie_km2":"1488.52","latitude_centre":"48.5039","longitude_centre":"4.0224","distance_km":6.56},{"id":0,"code_insee":"10131","nom_standard":"Droupt-Saint-Basle","nom_a":null,"nom_de":null,"slug_ville":"droupt-saint-basle","departement_id":0,"code_postal":"10170","population":339,"superficie_km2":"1866.53","latitude_centre":"48.4804","longitude_centre":"3.957","distance_km":6.72},{"id":0,"code_insee":"51652","nom_standard":"Vouarces","nom_a":null,"nom_de":null,"slug_ville":"vouarces","departement_id":0,"code_postal":"51260","population":63,"superficie_km2":"598.77","latitude_centre":"48.5915","longitude_centre":"3.8898","distance_km":7.3},{"id":0,"code_insee":"51182","nom_standard":"Courcemain","nom_a":null,"nom_de":null,"slug_ville":"courcemain","departement_id":0,"code_postal":"51260","population":95,"superficie_km2":"991.31","latitude_centre":"48.6172","longitude_centre":"3.9369","distance_km":8.58},{"id":0,"code_insee":"51279","nom_standard":"Granges-sur-Aube","nom_a":null,"nom_de":null,"slug_ville":"granges-sur-aube","departement_id":0,"code_postal":"51260","population":180,"superficie_km2":"809.02","latitude_centre":"48.5877","longitude_centre":"3.8602","distance_km":8.59},{"id":0,"code_insee":"10234","nom_standard":"Mesgrigny","nom_a":null,"nom_de":null,"slug_ville":"mesgrigny","departement_id":0,"code_postal":"10170","population":255,"superficie_km2":"725.96","latitude_centre":"48.4804","longitude_centre":"3.864","distance_km":9.38},{"id":12559,"code_insee":"10075","nom_standard":"Champfleury","nom_a":null,"nom_de":null,"slug_ville":"champfleury","departement_id":0,"code_postal":"10700","population":110,"superficie_km2":"1809.08","latitude_centre":"48.61","longitude_centre":"4.0321","distance_km":9.65},{"id":0,"code_insee":"51516","nom_standard":"Saint-Saturnin","nom_a":null,"nom_de":null,"slug_ville":"saint-saturnin","departement_id":0,"code_postal":"51260","population":47,"superficie_km2":"803.07","latitude_centre":"48.6168","longitude_centre":"3.8874","distance_km":9.73},{"id":0,"code_insee":"10166","nom_standard":"Les Grandes-Chapelles","nom_a":null,"nom_de":null,"slug_ville":"les-grandes-chapelles","departement_id":0,"code_postal":"10170","population":401,"superficie_km2":"2209.90","latitude_centre":"48.4685","longitude_centre":"4.0317","distance_km":9.92},{"id":0,"code_insee":"10320","nom_standard":"Rilly-Sainte-Syre","nom_a":null,"nom_de":null,"slug_ville":"rilly-sainte-syre","departement_id":0,"code_postal":"10280","population":231,"superficie_km2":"1414.23","latitude_centre":"48.4504","longitude_centre":"3.9679","distance_km":10.11},{"id":0,"code_insee":"10392","nom_standard":"Vallant-Saint-Georges","nom_a":null,"nom_de":null,"slug_ville":"vallant-saint-georges","departement_id":0,"code_postal":"10170","population":408,"superficie_km2":"1793.92","latitude_centre":"48.459","longitude_centre":"3.8913","distance_km":10.17}]}