{"ville":{"id":17855,"code_insee":"28082","nom_standard":"Charpont","nom_a":null,"nom_de":null,"slug_ville":"charpont","departement_id":0,"code_postal":"28500","population":622,"superficie_km2":"721.37","latitude_centre":"48.6945","longitude_centre":"1.4329","dep_code":"28","dep_nom":"Eure-et-Loir","dep_slug":"eure-et-loir","reg_code":"24","reg_nom":"Centre-Val de Loire","reg_slug":"centre-val-de-loire"},"departement":{"code":"28","nom":"Eure-et-Loir","slug":"eure-et-loir"},"region":{"code":"24","nom":"Centre-Val de Loire","slug":"centre-val-de-loire"},"villes_proches":[{"id":0,"code_insee":"28136","nom_standard":"Écluzelles","nom_a":null,"nom_de":null,"slug_ville":"ecluzelles","departement_id":0,"code_postal":"28500","population":162,"superficie_km2":"326.48","latitude_centre":"48.7088","longitude_centre":"1.4218","distance_km":1.79},{"id":0,"code_insee":"28223","nom_standard":"Luray","nom_a":null,"nom_de":null,"slug_ville":"luray","departement_id":0,"code_postal":"28500","population":1566,"superficie_km2":"453.36","latitude_centre":"48.7144","longitude_centre":"1.3985","distance_km":3.36},{"id":0,"code_insee":"28415","nom_standard":"Villemeux-sur-Eure","nom_a":null,"nom_de":null,"slug_ville":"villemeux-sur-eure","departement_id":0,"code_postal":"28210","population":1780,"superficie_km2":"1887.71","latitude_centre":"48.6678","longitude_centre":"1.4582","distance_km":3.5},{"id":0,"code_insee":"28251","nom_standard":"Mézières-en-Drouais","nom_a":null,"nom_de":null,"slug_ville":"mezieres-en-drouais","departement_id":0,"code_postal":"28500","population":1059,"superficie_km2":"850.82","latitude_centre":"48.7257","longitude_centre":"1.4419","distance_km":3.53},{"id":0,"code_insee":"28239","nom_standard":"Marville-Moutiers-Brûlé","nom_a":null,"nom_de":null,"slug_ville":"marville-moutiers-brule","departement_id":0,"code_postal":"28500","population":1024,"superficie_km2":"2041.58","latitude_centre":"48.6742","longitude_centre":"1.3779","distance_km":4.63},{"id":0,"code_insee":"28292","nom_standard":"Ouerre","nom_a":null,"nom_de":null,"slug_ville":"ouerre","departement_id":0,"code_postal":"28500","population":785,"superficie_km2":"1273.23","latitude_centre":"48.7081","longitude_centre":"1.4938","distance_km":4.72},{"id":17836,"code_insee":"28054","nom_standard":"Le Boullay-Mivoye","nom_a":null,"nom_de":null,"slug_ville":"le-boullay-mivoye","departement_id":0,"code_postal":"28210","population":526,"superficie_km2":"1105.37","latitude_centre":"48.6551","longitude_centre":"1.4082","distance_km":4.74},{"id":0,"code_insee":"28332","nom_standard":"Sainte-Gemme-Moronval","nom_a":null,"nom_de":null,"slug_ville":"sainte-gemme-moronval","departement_id":0,"code_postal":"28500","population":1114,"superficie_km2":"553.68","latitude_centre":"48.7357","longitude_centre":"1.416","distance_km":4.75},{"id":0,"code_insee":"28118","nom_standard":"Croisilles","nom_a":null,"nom_de":null,"slug_ville":"croisilles","departement_id":0,"code_postal":"28210","population":422,"superficie_km2":"574.46","latitude_centre":"48.6905","longitude_centre":"1.4984","distance_km":4.83},{"id":17849,"code_insee":"28076","nom_standard":"La Chapelle-Forainvilliers","nom_a":null,"nom_de":null,"slug_ville":"la-chapelle-forainvilliers","departement_id":0,"code_postal":"28500","population":211,"superficie_km2":"542.84","latitude_centre":"48.7284","longitude_centre":"1.4916","distance_km":5.72},{"id":0,"code_insee":"28094","nom_standard":"Chaudon","nom_a":null,"nom_de":null,"slug_ville":"chaudon","departement_id":0,"code_postal":"28210","population":1688,"superficie_km2":"1148.35","latitude_centre":"48.6561","longitude_centre":"1.496","distance_km":6.3},{"id":0,"code_insee":"28404","nom_standard":"Vernouillet","nom_a":null,"nom_de":null,"slug_ville":"vernouillet","departement_id":0,"code_postal":"28500","population":12310,"superficie_km2":"1225.96","latitude_centre":"48.7141","longitude_centre":"1.352","distance_km":6.32},{"id":0,"code_insee":"28178","nom_standard":"Germainville","nom_a":null,"nom_de":null,"slug_ville":"germainville","departement_id":0,"code_postal":"28500","population":338,"superficie_km2":"879.27","latitude_centre":"48.7462","longitude_centre":"1.4735","distance_km":6.47},{"id":17837,"code_insee":"28055","nom_standard":"Le Boullay-Thierry","nom_a":null,"nom_de":null,"slug_ville":"le-boullay-thierry","departement_id":0,"code_postal":"28210","population":594,"superficie_km2":"1302.79","latitude_centre":"48.6352","longitude_centre":"1.4357","distance_km":6.6},{"id":17839,"code_insee":"28058","nom_standard":"Bréchamps","nom_a":null,"nom_de":null,"slug_ville":"brechamps","departement_id":0,"code_postal":"28210","population":362,"superficie_km2":"550.70","latitude_centre":"48.6713","longitude_centre":"1.5193","distance_km":6.85},{"id":0,"code_insee":"28098","nom_standard":"Cherisy","nom_a":null,"nom_de":null,"slug_ville":"cherisy","departement_id":0,"code_postal":"28500","population":1842,"superficie_km2":"1244.66","latitude_centre":"48.7573","longitude_centre":"1.4359","distance_km":6.99},{"id":0,"code_insee":"28312","nom_standard":"Puiseux","nom_a":null,"nom_de":null,"slug_ville":"puiseux","departement_id":0,"code_postal":"28170","population":136,"superficie_km2":"521.80","latitude_centre":"48.6396","longitude_centre":"1.368","distance_km":7.74},{"id":0,"code_insee":"28134","nom_standard":"Dreux","nom_a":null,"nom_de":null,"slug_ville":"dreux","departement_id":0,"code_postal":"28100","population":31543,"superficie_km2":"2423.79","latitude_centre":"48.7482","longitude_centre":"1.3578","distance_km":8.12},{"id":0,"code_insee":"28289","nom_standard":"Ormoy","nom_a":null,"nom_de":null,"slug_ville":"ormoy","departement_id":0,"code_postal":"28210","population":229,"superficie_km2":"916.14","latitude_centre":"48.6224","longitude_centre":"1.4724","distance_km":8.53},{"id":0,"code_insee":"28375","nom_standard":"Serville","nom_a":null,"nom_de":null,"slug_ville":"serville","departement_id":0,"code_postal":"28410","population":359,"superficie_km2":"564.93","latitude_centre":"48.7698","longitude_centre":"1.4889","distance_km":9.33}]}