{"ville":{"id":34744,"code_insee":"89091","nom_standard":"Châtel-Censoir","nom_a":null,"nom_de":null,"slug_ville":"chatel-censoir","departement_id":0,"code_postal":"89660","population":561,"superficie_km2":"2507.88","latitude_centre":"47.5264","longitude_centre":"3.6335","dep_code":"89","dep_nom":"Yonne","dep_slug":"yonne","reg_code":"27","reg_nom":"Bourgogne-Franche-Comté","reg_slug":"bourgogne-franche-comte"},"departement":{"code":"89","nom":"Yonne","slug":"yonne"},"region":{"code":"27","nom":"Bourgogne-Franche-Comté","slug":"bourgogne-franche-comte"},"villes_proches":[{"id":0,"code_insee":"89253","nom_standard":"Merry-sur-Yonne","nom_a":null,"nom_de":null,"slug_ville":"merry-sur-yonne","departement_id":0,"code_postal":"89660","population":187,"superficie_km2":"2374.70","latitude_centre":"47.5583","longitude_centre":"3.642","distance_km":3.6},{"id":34721,"code_insee":"89057","nom_standard":"Brosses","nom_a":null,"nom_de":null,"slug_ville":"brosses","departement_id":0,"code_postal":"89660","population":265,"superficie_km2":"2008.58","latitude_centre":"47.5318","longitude_centre":"3.6928","distance_km":4.49},{"id":0,"code_insee":"89129","nom_standard":"Crain","nom_a":null,"nom_de":null,"slug_ville":"crain","departement_id":0,"code_postal":"89480","population":410,"superficie_km2":"998.76","latitude_centre":"47.5403","longitude_centre":"3.5734","distance_km":4.77},{"id":0,"code_insee":"89225","nom_standard":"Lichères-sur-Yonne","nom_a":null,"nom_de":null,"slug_ville":"licheres-sur-yonne","departement_id":0,"code_postal":"89660","population":49,"superficie_km2":"1431.46","latitude_centre":"47.4901","longitude_centre":"3.5955","distance_km":4.94},{"id":0,"code_insee":"89234","nom_standard":"Lucy-sur-Yonne","nom_a":null,"nom_de":null,"slug_ville":"lucy-sur-yonne","departement_id":0,"code_postal":"89480","population":126,"superficie_km2":"815.76","latitude_centre":"47.5143","longitude_centre":"3.5668","distance_km":5.19},{"id":34691,"code_insee":"89020","nom_standard":"Asnières-sous-Bois","nom_a":null,"nom_de":null,"slug_ville":"asnieres-sous-bois","departement_id":0,"code_postal":"89660","population":113,"superficie_km2":"1812.75","latitude_centre":"47.4788","longitude_centre":"3.6429","distance_km":5.34},{"id":0,"code_insee":"89238","nom_standard":"Mailly-le-Château","nom_a":null,"nom_de":null,"slug_ville":"mailly-le-chateau","departement_id":0,"code_postal":"89660","population":514,"superficie_km2":"3741.75","latitude_centre":"47.5788","longitude_centre":"3.5972","distance_km":6.43},{"id":0,"code_insee":"89266","nom_standard":"Montillot","nom_a":null,"nom_de":null,"slug_ville":"montillot","departement_id":0,"code_postal":"89660","population":247,"superficie_km2":"2271.63","latitude_centre":"47.5093","longitude_centre":"3.7198","distance_km":6.75},{"id":34715,"code_insee":"89049","nom_standard":"Bois-d'Arcy","nom_a":null,"nom_de":null,"slug_ville":"bois-d-arcy","departement_id":0,"code_postal":"89660","population":24,"superficie_km2":"344.32","latitude_centre":"47.5513","longitude_centre":"3.7237","distance_km":7.32},{"id":26185,"code_insee":"58217","nom_standard":"Pousseaux","nom_a":null,"nom_de":null,"slug_ville":"pousseaux","departement_id":0,"code_postal":"58500","population":186,"superficie_km2":"1112.94","latitude_centre":"47.4974","longitude_centre":"3.5446","distance_km":7.41},{"id":0,"code_insee":"89237","nom_standard":"Mailly-la-Ville","nom_a":null,"nom_de":null,"slug_ville":"mailly-la-ville","departement_id":0,"code_postal":"89270","population":493,"superficie_km2":"2371.22","latitude_centre":"47.5839","longitude_centre":"3.6881","distance_km":7.59},{"id":34732,"code_insee":"89071","nom_standard":"Chamoux","nom_a":null,"nom_de":null,"slug_ville":"chamoux","departement_id":0,"code_postal":"89660","population":94,"superficie_km2":"699.88","latitude_centre":"47.4596","longitude_centre":"3.6584","distance_km":7.66},{"id":0,"code_insee":"89164","nom_standard":"Festigny","nom_a":null,"nom_de":null,"slug_ville":"festigny","departement_id":0,"code_postal":"89480","population":92,"superficie_km2":"553.28","latitude_centre":"47.5614","longitude_centre":"3.5333","distance_km":8.47},{"id":26010,"code_insee":"58011","nom_standard":"Armes","nom_a":null,"nom_de":null,"slug_ville":"armes","departement_id":0,"code_postal":"58500","population":266,"superficie_km2":"858.69","latitude_centre":"47.464","longitude_centre":"3.5591","distance_km":8.91},{"id":26087,"code_insee":"58103","nom_standard":"Dornecy","nom_a":null,"nom_de":null,"slug_ville":"dornecy","departement_id":0,"code_postal":"58530","population":451,"superficie_km2":"1742.29","latitude_centre":"47.4428","longitude_centre":"3.5891","distance_km":9.88},{"id":26037,"code_insee":"58039","nom_standard":"Brèves","nom_a":null,"nom_de":null,"slug_ville":"breves","departement_id":0,"code_postal":"58530","population":258,"superficie_km2":"1659.32","latitude_centre":"47.4299","longitude_centre":"3.6223","distance_km":10.76},{"id":0,"code_insee":"89177","nom_standard":"Fontenay-sous-Fouronnes","nom_a":null,"nom_de":null,"slug_ville":"fontenay-sous-fouronnes","departement_id":0,"code_postal":"89660","population":90,"superficie_km2":"1235.74","latitude_centre":"47.6234","longitude_centre":"3.6015","distance_km":11.05},{"id":0,"code_insee":"89394","nom_standard":"Sery","nom_a":null,"nom_de":null,"slug_ville":"sery","departement_id":0,"code_postal":"89270","population":79,"superficie_km2":"433.51","latitude_centre":"47.6192","longitude_centre":"3.6891","distance_km":11.13},{"id":0,"code_insee":"89424","nom_standard":"Trucy-sur-Yonne","nom_a":null,"nom_de":null,"slug_ville":"trucy-sur-yonne","departement_id":0,"code_postal":"89460","population":132,"superficie_km2":"846.46","latitude_centre":"47.6296","longitude_centre":"3.6472","distance_km":11.52},{"id":26129,"code_insee":"58154","nom_standard":"La Maison-Dieu","nom_a":null,"nom_de":null,"slug_ville":"la-maison-dieu","departement_id":0,"code_postal":"58190","population":113,"superficie_km2":"1384.64","latitude_centre":"47.4255","longitude_centre":"3.6704","distance_km":11.56}]}