{"ville":{"id":33977,"code_insee":"86064","nom_standard":"Château-Garnier","nom_a":null,"nom_de":null,"slug_ville":"chateau-garnier","departement_id":0,"code_postal":"86350","population":596,"superficie_km2":"3634.58","latitude_centre":"46.2589","longitude_centre":"0.4424","dep_code":"86","dep_nom":"Vienne","dep_slug":"vienne","reg_code":"75","reg_nom":"Nouvelle-Aquitaine","reg_slug":"nouvelle-aquitaine"},"departement":{"code":"86","nom":"Vienne","slug":"vienne"},"region":{"code":"75","nom":"Nouvelle-Aquitaine","slug":"nouvelle-aquitaine"},"villes_proches":[{"id":0,"code_insee":"86119","nom_standard":"Joussé","nom_a":null,"nom_de":null,"slug_ville":"jousse","departement_id":0,"code_postal":"86350","population":309,"superficie_km2":"763.92","latitude_centre":"46.228","longitude_centre":"0.4556","distance_km":3.58},{"id":0,"code_insee":"86189","nom_standard":"Payroux","nom_a":null,"nom_de":null,"slug_ville":"payroux","departement_id":0,"code_postal":"86350","population":461,"superficie_km2":"3031.77","latitude_centre":"46.2139","longitude_centre":"0.4807","distance_km":5.81},{"id":0,"code_insee":"86264","nom_standard":"Sommières-du-Clain","nom_a":null,"nom_de":null,"slug_ville":"sommieres-du-clain","departement_id":0,"code_postal":"86160","population":729,"superficie_km2":"2616.44","latitude_centre":"46.278","longitude_centre":"0.3721","distance_km":5.81},{"id":0,"code_insee":"86242","nom_standard":"Saint-Romain","nom_a":null,"nom_de":null,"slug_ville":"saint-romain","departement_id":0,"code_postal":"86250","population":386,"superficie_km2":"2061.33","latitude_centre":"46.2255","longitude_centre":"0.3834","distance_km":5.86},{"id":0,"code_insee":"86097","nom_standard":"La Ferrière-Airoux","nom_a":null,"nom_de":null,"slug_ville":"la-ferriere-airoux","departement_id":0,"code_postal":"86160","population":334,"superficie_km2":"2715.59","latitude_centre":"46.3151","longitude_centre":"0.404","distance_km":6.91},{"id":0,"code_insee":"86276","nom_standard":"Usson-du-Poitou","nom_a":null,"nom_de":null,"slug_ville":"usson-du-poitou","departement_id":0,"code_postal":"86350","population":1217,"superficie_km2":"7282.05","latitude_centre":"46.2832","longitude_centre":"0.5408","distance_km":8.03},{"id":33973,"code_insee":"86055","nom_standard":"La Chapelle-Bâton","nom_a":null,"nom_de":null,"slug_ville":"la-chapelle-baton","departement_id":0,"code_postal":"86250","population":354,"superficie_km2":"2997.39","latitude_centre":"46.1905","longitude_centre":"0.4071","distance_km":8.08},{"id":0,"code_insee":"86248","nom_standard":"Saint-Secondin","nom_a":null,"nom_de":null,"slug_ville":"saint-secondin","departement_id":0,"code_postal":"86350","population":531,"superficie_km2":"3806.65","latitude_centre":"46.3235","longitude_centre":"0.4939","distance_km":8.2},{"id":0,"code_insee":"86234","nom_standard":"Saint-Martin-l'Ars","nom_a":null,"nom_de":null,"slug_ville":"saint-martin-l-ars","departement_id":0,"code_postal":"86350","population":362,"superficie_km2":"4196.46","latitude_centre":"46.2105","longitude_centre":"0.5497","distance_km":9.85},{"id":33972,"code_insee":"86054","nom_standard":"Champniers","nom_a":null,"nom_de":null,"slug_ville":"champniers","departement_id":0,"code_postal":"86400","population":358,"superficie_km2":"2012.34","latitude_centre":"46.2157","longitude_centre":"0.328","distance_km":10.02},{"id":0,"code_insee":"86141","nom_standard":"Magné","nom_a":null,"nom_de":null,"slug_ville":"magne","departement_id":0,"code_postal":"86160","population":672,"superficie_km2":"2046.23","latitude_centre":"46.3472","longitude_centre":"0.3955","distance_km":10.46},{"id":0,"code_insee":"86211","nom_standard":"Romagne","nom_a":null,"nom_de":null,"slug_ville":"romagne","departement_id":0,"code_postal":"86700","population":801,"superficie_km2":"4126.01","latitude_centre":"46.2629","longitude_centre":"0.3032","distance_km":10.71},{"id":33962,"code_insee":"86038","nom_standard":"Brion","nom_a":null,"nom_de":null,"slug_ville":"brion","departement_id":0,"code_postal":"86160","population":224,"superficie_km2":"1619.45","latitude_centre":"46.3576","longitude_centre":"0.4759","distance_km":11.27},{"id":0,"code_insee":"86152","nom_standard":"Mauprévoir","nom_a":null,"nom_de":null,"slug_ville":"mauprevoir","departement_id":0,"code_postal":"86460","population":608,"superficie_km2":"4877.41","latitude_centre":"46.1667","longitude_centre":"0.5218","distance_km":11.93},{"id":33971,"code_insee":"86052","nom_standard":"Champagné-Saint-Hilaire","nom_a":null,"nom_de":null,"slug_ville":"champagne-saint-hilaire","departement_id":0,"code_postal":"86160","population":998,"superficie_km2":"4690.97","latitude_centre":"46.324","longitude_centre":"0.3178","distance_km":12.0},{"id":0,"code_insee":"86103","nom_standard":"Gençay","nom_a":null,"nom_de":null,"slug_ville":"gencay","departement_id":0,"code_postal":"86160","population":1653,"superficie_km2":"479.96","latitude_centre":"46.3705","longitude_centre":"0.4134","distance_km":12.61},{"id":0,"code_insee":"86255","nom_standard":"Savigné","nom_a":null,"nom_de":null,"slug_ville":"savigne","departement_id":0,"code_postal":"86400","population":1256,"superficie_km2":"3662.78","latitude_centre":"46.1682","longitude_centre":"0.3266","distance_km":13.46},{"id":0,"code_insee":"86061","nom_standard":"Charroux","nom_a":null,"nom_de":null,"slug_ville":"charroux","departement_id":0,"code_postal":"86250","population":1036,"superficie_km2":"4464.14","latitude_centre":"46.1388","longitude_centre":"0.4075","distance_km":13.62},{"id":0,"code_insee":"86235","nom_standard":"Saint-Maurice-la-Clouère","nom_a":null,"nom_de":null,"slug_ville":"saint-maurice-la-clouere","departement_id":0,"code_postal":"86160","population":1290,"superficie_km2":"4021.19","latitude_centre":"46.3853","longitude_centre":"0.4456","distance_km":14.06},{"id":33949,"code_insee":"86012","nom_standard":"Asnois","nom_a":null,"nom_de":null,"slug_ville":"asnois","departement_id":0,"code_postal":"86250","population":129,"superficie_km2":"1632.86","latitude_centre":"46.0998","longitude_centre":"0.4129","distance_km":17.84}]}