{"ville":{"id":3995,"code_insee":"41044","nom_standard":"Châtres-sur-Cher","nom_a":null,"nom_de":null,"slug_ville":"chatres-sur-cher","departement_id":642,"code_postal":"41320","population":1122,"superficie_km2":"35.00","latitude_centre":"47.2989998","longitude_centre":"1.9299999","dep_code":"41","dep_nom":"Loir-et-Cher","dep_slug":"loir-et-cher","reg_code":"04","reg_nom":"Centre-Val de Loire","reg_slug":"centre-val-de-loire"},"departement":{"code":"41","nom":"Loir-et-Cher","slug":"loir-et-cher"},"region":{"code":"04","nom":"Centre-Val de Loire","slug":"centre-val-de-loire"},"villes_proches":[{"id":4061,"code_insee":"41256","nom_standard":"Theillay","nom_a":null,"nom_de":null,"slug_ville":"theillay","departement_id":642,"code_postal":"41300","population":1247,"superficie_km2":"96.00","latitude_centre":"47.3190002","longitude_centre":"2.0400000","distance_km":8.59},{"id":4055,"code_insee":"41241","nom_standard":"Selles-Saint-Denis","nom_a":null,"nom_de":null,"slug_ville":"selles-saint-denis","departement_id":642,"code_postal":"41300","population":1341,"superficie_km2":"51.00","latitude_centre":"47.3759995","longitude_centre":"1.9069999","distance_km":8.74},{"id":1381,"code_insee":"18279","nom_standard":"Vierzon","nom_a":null,"nom_de":null,"slug_ville":"vierzon","departement_id":618,"code_postal":"18100","population":25348,"superficie_km2":"75.00","latitude_centre":"47.2369995","longitude_centre":"2.0790000","distance_km":13.19},{"id":4067,"code_insee":"41280","nom_standard":"Villefranche-sur-Cher","nom_a":null,"nom_de":null,"slug_ville":"villefranche-sur-cher","departement_id":642,"code_postal":"41200","population":2635,"superficie_km2":"27.00","latitude_centre":"47.3059998","longitude_centre":"1.7539999","distance_km":13.29},{"id":4052,"code_insee":"41232","nom_standard":"Salbris","nom_a":null,"nom_de":null,"slug_ville":"salbris","departement_id":642,"code_postal":"41300","population":4897,"superficie_km2":"107.00","latitude_centre":"47.4140015","longitude_centre":"2.0450001","distance_km":15.45},{"id":1363,"code_insee":"18148","nom_standard":"Méreau","nom_a":null,"nom_de":null,"slug_ville":"mereau","departement_id":618,"code_postal":"18120","population":2644,"superficie_km2":"19.00","latitude_centre":"47.1790009","longitude_centre":"2.0520000","distance_km":16.21},{"id":4040,"code_insee":"41194","nom_standard":"Romorantin-Lanthenay","nom_a":null,"nom_de":null,"slug_ville":"romorantin-lanthenay","departement_id":642,"code_postal":"41200","population":18115,"superficie_km2":"45.00","latitude_centre":"47.3740006","longitude_centre":"1.7450000","distance_km":16.24},{"id":1360,"code_insee":"18140","nom_standard":"Massay","nom_a":null,"nom_de":null,"slug_ville":"massay","departement_id":618,"code_postal":"18120","population":1348,"superficie_km2":"48.00","latitude_centre":"47.1549988","longitude_centre":"1.9859999","distance_km":16.56},{"id":1351,"code_insee":"18103","nom_standard":"Graçay","nom_a":null,"nom_de":null,"slug_ville":"gracay","departement_id":618,"code_postal":"18310","population":1307,"superficie_km2":"32.00","latitude_centre":"47.1409988","longitude_centre":"1.8570000","distance_km":18.41},{"id":4039,"code_insee":"41185","nom_standard":"Pruniers-en-Sologne","nom_a":null,"nom_de":null,"slug_ville":"pruniers-en-sologne","departement_id":642,"code_postal":"41200","population":2290,"superficie_km2":"44.00","latitude_centre":"47.3400002","longitude_centre":"1.6799999","distance_km":19.39},{"id":4012,"code_insee":"41097","nom_standard":"Gièvres","nom_a":null,"nom_de":null,"slug_ville":"gievres","departement_id":642,"code_postal":"41130","population":2311,"superficie_km2":"38.00","latitude_centre":"47.2890015","longitude_centre":"1.6700000","distance_km":19.64},{"id":3425,"code_insee":"36034","nom_standard":"Chabris","nom_a":null,"nom_de":null,"slug_ville":"chabris","departement_id":637,"code_postal":"36210","population":2764,"superficie_km2":"41.00","latitude_centre":"47.2519989","longitude_centre":"1.6619999","distance_km":20.88},{"id":1382,"code_insee":"18281","nom_standard":"Vignoux-sur-Barangeon","nom_a":null,"nom_de":null,"slug_ville":"vignoux-sur-barangeon","departement_id":618,"code_postal":"18500","population":2095,"superficie_km2":"25.00","latitude_centre":"47.2080002","longitude_centre":"2.1800001","distance_km":21.41},{"id":1349,"code_insee":"18096","nom_standard":"Foëcy","nom_a":null,"nom_de":null,"slug_ville":"foecy","departement_id":618,"code_postal":"18500","population":2069,"superficie_km2":"16.00","latitude_centre":"47.1800003","longitude_centre":"2.1550000","distance_km":21.53},{"id":4051,"code_insee":"41231","nom_standard":"Saint-Viâtre","nom_a":null,"nom_de":null,"slug_ville":"saint-viatre","departement_id":642,"code_postal":"41210","population":1183,"superficie_km2":"100.00","latitude_centre":"47.5139999","longitude_centre":"1.9340000","distance_km":23.91},{"id":3447,"code_insee":"36171","nom_standard":"Reuilly","nom_a":null,"nom_de":null,"slug_ville":"reuilly","departement_id":637,"code_postal":"36260","population":1995,"superficie_km2":"26.00","latitude_centre":"47.0800018","longitude_centre":"2.0109999","distance_km":25.11},{"id":4059,"code_insee":"41249","nom_standard":"Souesmes","nom_a":null,"nom_de":null,"slug_ville":"souesmes","departement_id":642,"code_postal":"41300","population":1028,"superficie_km2":"100.00","latitude_centre":"47.4570007","longitude_centre":"2.1710000","distance_km":25.26},{"id":1365,"code_insee":"18165","nom_standard":"Neuvy-sur-Barangeon","nom_a":null,"nom_de":null,"slug_ville":"neuvy-sur-barangeon","departement_id":618,"code_postal":"18330","population":1101,"superficie_km2":"67.00","latitude_centre":"47.3219986","longitude_centre":"2.2709999","distance_km":25.84},{"id":1331,"code_insee":"18005","nom_standard":"Allouis","nom_a":null,"nom_de":null,"slug_ville":"allouis","departement_id":618,"code_postal":"18500","population":1079,"superficie_km2":"36.00","latitude_centre":"47.1780014","longitude_centre":"2.2409999","distance_km":27.06},{"id":4032,"code_insee":"41161","nom_standard":"Nouan-le-Fuzelier","nom_a":null,"nom_de":null,"slug_ville":"nouan-le-fuzelier","departement_id":642,"code_postal":"41600","population":2288,"superficie_km2":"88.00","latitude_centre":"47.5369988","longitude_centre":"2.0300000","distance_km":27.51}]}