{"ville":{"id":8916,"code_insee":"84037","nom_standard":"Châteauneuf-du-Pape","nom_a":null,"nom_de":null,"slug_ville":"chateauneuf-du-pape","departement_id":685,"code_postal":"84230","population":2040,"superficie_km2":"25.00","latitude_centre":"44.0600014","longitude_centre":"4.8270001","dep_code":"84","dep_nom":"Vaucluse","dep_slug":"vaucluse","reg_code":"18","reg_nom":"Provence-Alpes-Côte d'Azur","reg_slug":"provence-alpes-cote-d-azur"},"departement":{"code":"84","nom":"Vaucluse","slug":"vaucluse"},"region":{"code":"18","nom":"Provence-Alpes-Côte d'Azur","slug":"provence-alpes-cote-d-azur"},"villes_proches":[{"id":2567,"code_insee":"30312","nom_standard":"Sauveterre","nom_a":null,"nom_de":null,"slug_ville":"sauveterre","departement_id":631,"code_postal":"30150","population":2029,"superficie_km2":"13.00","latitude_centre":"44.0169983","longitude_centre":"4.8090000","distance_km":4.99},{"id":8918,"code_insee":"84039","nom_standard":"Courthézon","nom_a":null,"nom_de":null,"slug_ville":"courthezon","departement_id":685,"code_postal":"84350","population":6064,"superficie_km2":"33.00","latitude_centre":"44.0870018","longitude_centre":"4.8820000","distance_km":5.32},{"id":2533,"code_insee":"30221","nom_standard":"Roquemaure","nom_a":null,"nom_de":null,"slug_ville":"roquemaure","departement_id":631,"code_postal":"30150","population":5526,"superficie_km2":"26.00","latitude_centre":"44.0419998","longitude_centre":"4.7570000","distance_km":5.94},{"id":8964,"code_insee":"84129","nom_standard":"Sorgues","nom_a":null,"nom_de":null,"slug_ville":"sorgues","departement_id":685,"code_postal":"84700","population":19117,"superficie_km2":"34.00","latitude_centre":"44.0149994","longitude_centre":"4.8670001","distance_km":5.94},{"id":8902,"code_insee":"84016","nom_standard":"Bédarrides","nom_a":null,"nom_de":null,"slug_ville":"bedarrides","departement_id":685,"code_postal":"84370","population":5410,"superficie_km2":"25.00","latitude_centre":"44.0480003","longitude_centre":"4.9080000","distance_km":6.61},{"id":2517,"code_insee":"30178","nom_standard":"Montfaucon","nom_a":null,"nom_de":null,"slug_ville":"montfaucon","departement_id":631,"code_postal":"30150","population":1517,"superficie_km2":"4.00","latitude_centre":"44.0779991","longitude_centre":"4.7430000","distance_km":7},{"id":2543,"code_insee":"30254","nom_standard":"Saint-Geniès-de-Comolas","nom_a":null,"nom_de":null,"slug_ville":"saint-genies-de-comolas","departement_id":631,"code_postal":"30150","population":2010,"superficie_km2":"8.00","latitude_centre":"44.0660019","longitude_centre":"4.7309999","distance_km":7.7},{"id":8948,"code_insee":"84087","nom_standard":"Orange","nom_a":null,"nom_de":null,"slug_ville":"orange","departement_id":685,"code_postal":"84100","population":28949,"superficie_km2":"74.00","latitude_centre":"44.1290016","longitude_centre":"4.8099999","distance_km":7.79},{"id":2527,"code_insee":"30209","nom_standard":"Pujaut","nom_a":null,"nom_de":null,"slug_ville":"pujaut","departement_id":631,"code_postal":"30131","population":3908,"superficie_km2":"24.00","latitude_centre":"43.9990006","longitude_centre":"4.7649999","distance_km":8.4},{"id":8908,"code_insee":"84027","nom_standard":"Caderousse","nom_a":null,"nom_de":null,"slug_ville":"caderousse","departement_id":685,"code_postal":"84860","population":2590,"superficie_km2":"32.00","latitude_centre":"44.1100006","longitude_centre":"4.7440000","distance_km":8.65},{"id":2586,"code_insee":"30351","nom_standard":"Villeneuve-lès-Avignon","nom_a":null,"nom_de":null,"slug_ville":"villeneuve-les-avignon","departement_id":631,"code_postal":"30400","population":12617,"superficie_km2":"18.00","latitude_centre":"43.9770012","longitude_centre":"4.7950001","distance_km":9.58},{"id":8929,"code_insee":"84056","nom_standard":"Jonquières","nom_a":null,"nom_de":null,"slug_ville":"jonquieres","departement_id":685,"code_postal":"84150","population":5298,"superficie_km2":"24.00","latitude_centre":"44.1320000","longitude_centre":"4.9130001","distance_km":10.55},{"id":8952,"code_insee":"84092","nom_standard":"Le Pontet","nom_a":null,"nom_de":null,"slug_ville":"le-pontet","departement_id":685,"code_postal":"84130","population":17551,"superficie_km2":"11.00","latitude_centre":"43.9679985","longitude_centre":"4.8660002","distance_km":10.7},{"id":2555,"code_insee":"30278","nom_standard":"Saint-Laurent-des-Arbres","nom_a":null,"nom_de":null,"slug_ville":"saint-laurent-des-arbres","departement_id":631,"code_postal":"30126","population":2981,"superficie_km2":"16.00","latitude_centre":"44.0559998","longitude_centre":"4.6919999","distance_km":10.8},{"id":8920,"code_insee":"84043","nom_standard":"Entraigues-sur-la-Sorgue","nom_a":null,"nom_de":null,"slug_ville":"entraigues-sur-la-sorgue","departement_id":685,"code_postal":"84320","population":8793,"superficie_km2":"17.00","latitude_centre":"43.9949989","longitude_centre":"4.9330001","distance_km":11.14},{"id":8961,"code_insee":"84122","nom_standard":"Sarrians","nom_a":null,"nom_de":null,"slug_ville":"sarrians","departement_id":685,"code_postal":"84260","population":5932,"superficie_km2":"38.00","latitude_centre":"44.0989990","longitude_centre":"4.9569998","distance_km":11.25},{"id":8972,"code_insee":"84141","nom_standard":"Vedène","nom_a":null,"nom_de":null,"slug_ville":"vedene","departement_id":685,"code_postal":"84270","population":11457,"superficie_km2":"11.00","latitude_centre":"43.9710007","longitude_centre":"4.9029999","distance_km":11.61},{"id":8910,"code_insee":"84029","nom_standard":"Camaret-sur-Aigues","nom_a":null,"nom_de":null,"slug_ville":"camaret-sur-aigues","departement_id":685,"code_postal":"84850","population":4547,"superficie_km2":"18.00","latitude_centre":"44.1599999","longitude_centre":"4.8839998","distance_km":12.01},{"id":8894,"code_insee":"84001","nom_standard":"Althen-des-Paluds","nom_a":null,"nom_de":null,"slug_ville":"althen-des-paluds","departement_id":685,"code_postal":"84210","population":2802,"superficie_km2":"7.00","latitude_centre":"44.0050011","longitude_centre":"4.9580002","distance_km":12.13},{"id":2572,"code_insee":"30326","nom_standard":"Tavel","nom_a":null,"nom_de":null,"slug_ville":"tavel","departement_id":631,"code_postal":"30126","population":2031,"superficie_km2":"20.00","latitude_centre":"44.0089989","longitude_centre":"4.6919999","distance_km":12.19}]}