{"ville":{"id":25007,"code_insee":"55110","nom_standard":"Chauvency-Saint-Hubert","nom_a":null,"nom_de":null,"slug_ville":"chauvency-saint-hubert","departement_id":0,"code_postal":"55600","population":209,"superficie_km2":"1077.97","latitude_centre":"49.5386","longitude_centre":"5.2985","dep_code":"55","dep_nom":"Meuse","dep_slug":"meuse","reg_code":"44","reg_nom":"Grand Est","reg_slug":"grand-est"},"departement":{"code":"55","nom":"Meuse","slug":"meuse"},"region":{"code":"44","nom":"Grand Est","slug":"grand-est"},"villes_proches":[{"id":25006,"code_insee":"55109","nom_standard":"Chauvency-le-Château","nom_a":null,"nom_de":null,"slug_ville":"chauvency-le-chateau","departement_id":0,"code_postal":"55600","population":224,"superficie_km2":"920.42","latitude_centre":"49.5282","longitude_centre":"5.306","distance_km":1.28},{"id":11848,"code_insee":"08065","nom_standard":"Bièvres","nom_a":null,"nom_de":null,"slug_ville":"bievres","departement_id":0,"code_postal":"08370","population":49,"superficie_km2":"725.62","latitude_centre":"49.5562","longitude_centre":"5.2823","distance_km":2.28},{"id":0,"code_insee":"55510","nom_standard":"Thonne-les-Près","nom_a":null,"nom_de":null,"slug_ville":"thonne-les-pres","departement_id":0,"code_postal":"55600","population":125,"superficie_km2":"539.09","latitude_centre":"49.5331","longitude_centre":"5.3418","distance_km":3.18},{"id":24985,"code_insee":"55083","nom_standard":"Brouennes","nom_a":null,"nom_de":null,"slug_ville":"brouennes","departement_id":0,"code_postal":"55700","population":149,"superficie_km2":"1220.27","latitude_centre":"49.5223","longitude_centre":"5.2508","distance_km":3.89},{"id":0,"code_insee":"55275","nom_standard":"Lamouilly","nom_a":null,"nom_de":null,"slug_ville":"lamouilly","departement_id":0,"code_postal":"55700","population":84,"superficie_km2":"473.60","latitude_centre":"49.548","longitude_centre":"5.2446","distance_km":4.03},{"id":0,"code_insee":"55552","nom_standard":"Vigneul-sous-Montmédy","nom_a":null,"nom_de":null,"slug_ville":"vigneul-sous-montmedy","departement_id":0,"code_postal":"55600","population":86,"superficie_km2":"461.81","latitude_centre":"49.5089","longitude_centre":"5.331","distance_km":4.05},{"id":0,"code_insee":"55511","nom_standard":"Thonnelle","nom_a":null,"nom_de":null,"slug_ville":"thonnelle","departement_id":0,"code_postal":"55600","population":117,"superficie_km2":"609.01","latitude_centre":"49.5544","longitude_centre":"5.3557","distance_km":4.49},{"id":12126,"code_insee":"08421","nom_standard":"Signy-Montlibert","nom_a":null,"nom_de":null,"slug_ville":"signy-montlibert","departement_id":0,"code_postal":"08370","population":93,"superficie_km2":"620.32","latitude_centre":"49.5788","longitude_centre":"5.3158","distance_km":4.64},{"id":0,"code_insee":"55509","nom_standard":"Thonne-le-Thil","nom_a":null,"nom_de":null,"slug_ville":"thonne-le-thil","departement_id":0,"code_postal":"55600","population":277,"superficie_km2":"1132.65","latitude_centre":"49.5731","longitude_centre":"5.3381","distance_km":4.78},{"id":12010,"code_insee":"08276","nom_standard":"Margut","nom_a":null,"nom_de":null,"slug_ville":"margut","departement_id":0,"code_postal":"08370","population":700,"superficie_km2":"749.44","latitude_centre":"49.58","longitude_centre":"5.2691","distance_km":5.07},{"id":0,"code_insee":"55377","nom_standard":"Nepvant","nom_a":null,"nom_de":null,"slug_ville":"nepvant","departement_id":0,"code_postal":"55700","population":87,"superficie_km2":"509.79","latitude_centre":"49.5364","longitude_centre":"5.223","distance_km":5.45},{"id":0,"code_insee":"55410","nom_standard":"Quincy-Landzécourt","nom_a":null,"nom_de":null,"slug_ville":"quincy-landzecourt","departement_id":0,"code_postal":"55600","population":146,"superficie_km2":"1252.08","latitude_centre":"49.4892","longitude_centre":"5.2947","distance_km":5.5},{"id":0,"code_insee":"55351","nom_standard":"Montmédy","nom_a":null,"nom_de":null,"slug_ville":"montmedy","departement_id":0,"code_postal":"55600","population":2052,"superficie_km2":"2346.56","latitude_centre":"49.5164","longitude_centre":"5.3671","distance_km":5.53},{"id":11928,"code_insee":"08168","nom_standard":"La Ferté-sur-Chiers","nom_a":null,"nom_de":null,"slug_ville":"la-ferte-sur-chiers","departement_id":0,"code_postal":"08370","population":173,"superficie_km2":"657.52","latitude_centre":"49.5733","longitude_centre":"5.233","distance_km":6.1},{"id":24934,"code_insee":"55025","nom_standard":"Baâlon","nom_a":null,"nom_de":null,"slug_ville":"baalon","departement_id":0,"code_postal":"55700","population":260,"superficie_km2":"1457.96","latitude_centre":"49.485","longitude_centre":"5.2623","distance_km":6.51},{"id":0,"code_insee":"55226","nom_standard":"Han-lès-Juvigny","nom_a":null,"nom_de":null,"slug_ville":"han-les-juvigny","departement_id":0,"code_postal":"55600","population":126,"superficie_km2":"545.67","latitude_centre":"49.4816","longitude_centre":"5.3298","distance_km":6.73},{"id":12023,"code_insee":"08293","nom_standard":"Moiry","nom_a":null,"nom_de":null,"slug_ville":"moiry","departement_id":0,"code_postal":"08370","population":133,"superficie_km2":"390.81","latitude_centre":"49.6001","longitude_centre":"5.2794","distance_km":6.98},{"id":12109,"code_insee":"08399","nom_standard":"Sapogne-sur-Marche","nom_a":null,"nom_de":null,"slug_ville":"sapogne-sur-marche","departement_id":0,"code_postal":"08370","population":154,"superficie_km2":"547.84","latitude_centre":"49.6007","longitude_centre":"5.3133","distance_km":6.99},{"id":11938,"code_insee":"08184","nom_standard":"Fromy","nom_a":null,"nom_de":null,"slug_ville":"fromy","departement_id":0,"code_postal":"08370","population":87,"superficie_km2":"369.67","latitude_centre":"49.6027","longitude_centre":"5.2549","distance_km":7.79},{"id":11818,"code_insee":"08029","nom_standard":"Auflance","nom_a":null,"nom_de":null,"slug_ville":"auflance","departement_id":0,"code_postal":"08370","population":82,"superficie_km2":"608.13","latitude_centre":"49.6153","longitude_centre":"5.2922","distance_km":8.54}]}