{"ville":{"id":25004,"code_insee":"55107","nom_standard":"Chaumont-devant-Damvillers","nom_a":null,"nom_de":null,"slug_ville":"chaumont-devant-damvillers","departement_id":0,"code_postal":"55150","population":46,"superficie_km2":"531.34","latitude_centre":"49.3108","longitude_centre":"5.434","dep_code":"55","dep_nom":"Meuse","dep_slug":"meuse","reg_code":"44","reg_nom":"Grand Est","reg_slug":"grand-est"},"departement":{"code":"55","nom":"Meuse","slug":"meuse"},"region":{"code":"44","nom":"Grand Est","slug":"grand-est"},"villes_proches":[{"id":0,"code_insee":"55556","nom_standard":"Ville-devant-Chaumont","nom_a":null,"nom_de":null,"slug_ville":"ville-devant-chaumont","departement_id":0,"code_postal":"55150","population":49,"superficie_km2":"421.12","latitude_centre":"49.2906","longitude_centre":"5.4299","distance_km":2.27},{"id":0,"code_insee":"55437","nom_standard":"Romagne-sous-les-Côtes","nom_a":null,"nom_de":null,"slug_ville":"romagne-sous-les-cotes","departement_id":0,"code_postal":"55150","population":123,"superficie_km2":"1424.99","latitude_centre":"49.3303","longitude_centre":"5.4682","distance_km":3.29},{"id":24933,"code_insee":"55024","nom_standard":"Azannes-et-Soumazannes","nom_a":null,"nom_de":null,"slug_ville":"azannes-et-soumazannes","departement_id":0,"code_postal":"55150","population":168,"superficie_km2":"1845.28","latitude_centre":"49.288","longitude_centre":"5.4684","distance_km":3.56},{"id":0,"code_insee":"55341","nom_standard":"Moirey-Flabas-Crépion","nom_a":null,"nom_de":null,"slug_ville":"moirey-flabas-crepion","departement_id":0,"code_postal":"55150","population":109,"superficie_km2":"1455.33","latitude_centre":"49.3013","longitude_centre":"5.3847","distance_km":3.73},{"id":0,"code_insee":"55145","nom_standard":"Damvillers","nom_a":null,"nom_de":null,"slug_ville":"damvillers","departement_id":0,"code_postal":"55150","population":613,"superficie_km2":"1837.61","latitude_centre":"49.3431","longitude_centre":"5.4148","distance_km":3.85},{"id":0,"code_insee":"55580","nom_standard":"Wavrille","nom_a":null,"nom_de":null,"slug_ville":"wavrille","departement_id":0,"code_postal":"55150","population":47,"superficie_km2":"537.00","latitude_centre":"49.3189","longitude_centre":"5.3745","distance_km":4.41},{"id":24946,"code_insee":"55039","nom_standard":"Beaumont-en-Verdunois","nom_a":null,"nom_de":null,"slug_ville":"beaumont-en-verdunois","departement_id":0,"code_postal":"55100","population":0,"superficie_km2":"779.50","latitude_centre":"49.265","longitude_centre":"5.4034","distance_km":5.56},{"id":0,"code_insee":"55239","nom_standard":"Haumont-près-Samogneux","nom_a":null,"nom_de":null,"slug_ville":"haumont-pres-samogneux","departement_id":0,"code_postal":"55100","population":0,"superficie_km2":"1092.07","latitude_centre":"49.2788","longitude_centre":"5.373","distance_km":5.68},{"id":0,"code_insee":"55183","nom_standard":"Étraye","nom_a":null,"nom_de":null,"slug_ville":"etraye","departement_id":0,"code_postal":"55150","population":40,"superficie_km2":"807.09","latitude_centre":"49.3264","longitude_centre":"5.3573","distance_km":5.82},{"id":0,"code_insee":"55218","nom_standard":"Gremilly","nom_a":null,"nom_de":null,"slug_ville":"gremilly","departement_id":0,"code_postal":"55150","population":40,"superficie_km2":"1775.72","latitude_centre":"49.2829","longitude_centre":"5.5129","distance_km":6.51},{"id":0,"code_insee":"55336","nom_standard":"Merles-sur-Loison","nom_a":null,"nom_de":null,"slug_ville":"merles-sur-loison","departement_id":0,"code_postal":"55150","population":144,"superficie_km2":"1141.93","latitude_centre":"49.3658","longitude_centre":"5.4715","distance_km":6.69},{"id":0,"code_insee":"55403","nom_standard":"Peuvillers","nom_a":null,"nom_de":null,"slug_ville":"peuvillers","departement_id":0,"code_postal":"55150","population":60,"superficie_km2":"482.93","latitude_centre":"49.3678","longitude_centre":"5.403","distance_km":6.72},{"id":0,"code_insee":"55394","nom_standard":"Ornes","nom_a":null,"nom_de":null,"slug_ville":"ornes","departement_id":0,"code_postal":"55150","population":9,"superficie_km2":"1854.82","latitude_centre":"49.2577","longitude_centre":"5.4816","distance_km":6.84},{"id":0,"code_insee":"55563","nom_standard":"Villers-lès-Mangiennes","nom_a":null,"nom_de":null,"slug_ville":"villers-les-mangiennes","departement_id":0,"code_postal":"55150","population":72,"superficie_km2":"856.26","latitude_centre":"49.3559","longitude_centre":"5.5023","distance_km":7.05},{"id":0,"code_insee":"55428","nom_standard":"Réville-aux-Bois","nom_a":null,"nom_de":null,"slug_ville":"reville-aux-bois","departement_id":0,"code_postal":"55150","population":133,"superficie_km2":"1111.58","latitude_centre":"49.3378","longitude_centre":"5.3437","distance_km":7.2},{"id":0,"code_insee":"55156","nom_standard":"Dombras","nom_a":null,"nom_de":null,"slug_ville":"dombras","departement_id":0,"code_postal":"55150","population":140,"superficie_km2":"1120.44","latitude_centre":"49.3788","longitude_centre":"5.4517","distance_km":7.67},{"id":0,"code_insee":"55572","nom_standard":"Vittarville","nom_a":null,"nom_de":null,"slug_ville":"vittarville","departement_id":0,"code_postal":"55150","population":92,"superficie_km2":"823.83","latitude_centre":"49.3849","longitude_centre":"5.4128","distance_km":8.38},{"id":0,"code_insee":"55468","nom_standard":"Samogneux","nom_a":null,"nom_de":null,"slug_ville":"samogneux","departement_id":0,"code_postal":"55100","population":97,"superficie_km2":"615.43","latitude_centre":"49.258","longitude_centre":"5.3515","distance_km":8.38},{"id":0,"code_insee":"55307","nom_standard":"Louvemont-Côte-du-Poivre","nom_a":null,"nom_de":null,"slug_ville":"louvemont-cote-du-poivre","departement_id":0,"code_postal":"55100","population":0,"superficie_km2":"835.42","latitude_centre":"49.2373","longitude_centre":"5.3996","distance_km":8.55},{"id":24956,"code_insee":"55050","nom_standard":"Bezonvaux","nom_a":null,"nom_de":null,"slug_ville":"bezonvaux","departement_id":0,"code_postal":"55100","population":0,"superficie_km2":"924.85","latitude_centre":"49.2294","longitude_centre":"5.4752","distance_km":9.53}]}