{"ville":{"id":35212,"code_insee":"95150","nom_standard":"Chaussy","nom_a":null,"nom_de":null,"slug_ville":"chaussy","departement_id":0,"code_postal":"95710","population":631,"superficie_km2":"1478.85","latitude_centre":"49.1153","longitude_centre":"1.7075","dep_code":"95","dep_nom":"Val-d'Oise","dep_slug":"val-d-oise","reg_code":"11","reg_nom":"Île-de-France","reg_slug":"ile-de-france"},"departement":{"code":"95","nom":"Val-d'Oise","slug":"val-d-oise"},"region":{"code":"11","nom":"Île-de-France","slug":"ile-de-france"},"villes_proches":[{"id":0,"code_insee":"95462","nom_standard":"Omerville","nom_a":null,"nom_de":null,"slug_ville":"omerville","departement_id":0,"code_postal":"95420","population":327,"superficie_km2":"1230.96","latitude_centre":"49.1404","longitude_centre":"1.7183","distance_km":2.9},{"id":0,"code_insee":"95157","nom_standard":"Chérence","nom_a":null,"nom_de":null,"slug_ville":"cherence","departement_id":0,"code_postal":"95510","population":137,"superficie_km2":"861.42","latitude_centre":"49.0912","longitude_centre":"1.678","distance_km":3.43},{"id":0,"code_insee":"95270","nom_standard":"Genainville","nom_a":null,"nom_de":null,"slug_ville":"genainville","departement_id":0,"code_postal":"95420","population":522,"superficie_km2":"1059.12","latitude_centre":"49.1142","longitude_centre":"1.7558","distance_km":3.52},{"id":0,"code_insee":"95676","nom_standard":"Villers-en-Arthies","nom_a":null,"nom_de":null,"slug_ville":"villers-en-arthies","departement_id":0,"code_postal":"95510","population":498,"superficie_km2":"831.78","latitude_centre":"49.0864","longitude_centre":"1.7322","distance_km":3.68},{"id":35193,"code_insee":"95011","nom_standard":"Ambleville","nom_a":null,"nom_de":null,"slug_ville":"ambleville","departement_id":0,"code_postal":"95420","population":388,"superficie_km2":"804.93","latitude_centre":"49.151","longitude_centre":"1.6959","distance_km":4.06},{"id":35205,"code_insee":"95101","nom_standard":"Bray-et-Lû","nom_a":null,"nom_de":null,"slug_ville":"bray-et-lu","departement_id":0,"code_postal":"95710","population":954,"superficie_km2":"373.58","latitude_centre":"49.1429","longitude_centre":"1.6651","distance_km":4.35},{"id":0,"code_insee":"95301","nom_standard":"Haute-Isle","nom_a":null,"nom_de":null,"slug_ville":"haute-isle","departement_id":0,"code_postal":"95780","population":293,"superficie_km2":"251.81","latitude_centre":"49.0848","longitude_centre":"1.6675","distance_km":4.47},{"id":35194,"code_insee":"95012","nom_standard":"Amenucourt","nom_a":null,"nom_de":null,"slug_ville":"amenucourt","departement_id":0,"code_postal":"95510","population":212,"superficie_km2":"878.00","latitude_centre":"49.1084","longitude_centre":"1.6469","distance_km":4.48},{"id":0,"code_insee":"95309","nom_standard":"Hodent","nom_a":null,"nom_de":null,"slug_ville":"hodent","departement_id":0,"code_postal":"95420","population":225,"superficie_km2":"442.78","latitude_centre":"49.1425","longitude_centre":"1.7624","distance_km":5.01},{"id":0,"code_insee":"95379","nom_standard":"Maudétour-en-Vexin","nom_a":null,"nom_de":null,"slug_ville":"maudetour-en-vexin","departement_id":0,"code_postal":"95420","population":208,"superficie_km2":"665.72","latitude_centre":"49.1093","longitude_centre":"1.7775","distance_km":5.14},{"id":0,"code_insee":"95656","nom_standard":"Vienne-en-Arthies","nom_a":null,"nom_de":null,"slug_ville":"vienne-en-arthies","departement_id":0,"code_postal":"95510","population":379,"superficie_km2":"377.86","latitude_centre":"49.0655","longitude_centre":"1.7236","distance_km":5.66},{"id":0,"code_insee":"95651","nom_standard":"Vétheuil","nom_a":null,"nom_de":null,"slug_ville":"vetheuil","departement_id":0,"code_postal":"95510","population":849,"superficie_km2":"438.72","latitude_centre":"49.0619","longitude_centre":"1.7097","distance_km":5.94},{"id":0,"code_insee":"95523","nom_standard":"La Roche-Guyon","nom_a":null,"nom_de":null,"slug_ville":"la-roche-guyon","departement_id":0,"code_postal":"95780","population":399,"superficie_km2":"466.65","latitude_centre":"49.0899","longitude_centre":"1.6337","distance_km":6.07},{"id":0,"code_insee":"95429","nom_standard":"Montreuil-sur-Epte","nom_a":null,"nom_de":null,"slug_ville":"montreuil-sur-epte","departement_id":0,"code_postal":"95770","population":377,"superficie_km2":"732.75","latitude_centre":"49.1689","longitude_centre":"1.6894","distance_km":6.1},{"id":32475,"code_insee":"78410","nom_standard":"Moisson","nom_a":null,"nom_de":null,"slug_ville":"moisson","departement_id":0,"code_postal":"78840","population":902,"superficie_km2":"1009.26","latitude_centre":"49.0663","longitude_centre":"1.6587","distance_km":6.5},{"id":0,"code_insee":"95543","nom_standard":"Saint-Cyr-en-Arthies","nom_a":null,"nom_de":null,"slug_ville":"saint-cyr-en-arthies","departement_id":0,"code_postal":"95510","population":236,"superficie_km2":"392.84","latitude_centre":"49.0604","longitude_centre":"1.7416","distance_km":6.59},{"id":35192,"code_insee":"95008","nom_standard":"Aincourt","nom_a":null,"nom_de":null,"slug_ville":"aincourt","departement_id":0,"code_postal":"95510","population":854,"superficie_km2":"1009.02","latitude_centre":"49.0733","longitude_centre":"1.773","distance_km":6.68},{"id":0,"code_insee":"95554","nom_standard":"Saint-Gervais","nom_a":null,"nom_de":null,"slug_ville":"saint-gervais","departement_id":0,"code_postal":"95420","population":878,"superficie_km2":"1343.11","latitude_centre":"49.1655","longitude_centre":"1.7583","distance_km":6.69},{"id":35209,"code_insee":"95139","nom_standard":"La Chapelle-en-Vexin","nom_a":null,"nom_de":null,"slug_ville":"la-chapelle-en-vexin","departement_id":0,"code_postal":"95420","population":320,"superficie_km2":"366.94","latitude_centre":"49.1836","longitude_centre":"1.7274","distance_km":7.73},{"id":35208,"code_insee":"95119","nom_standard":"Buhy","nom_a":null,"nom_de":null,"slug_ville":"buhy","departement_id":0,"code_postal":"95770","population":329,"superficie_km2":"694.25","latitude_centre":"49.1926","longitude_centre":"1.7031","distance_km":8.6}]}