{"ville":{"id":14461,"code_insee":"17105","nom_standard":"Chives","nom_a":null,"nom_de":null,"slug_ville":"chives","departement_id":0,"code_postal":"17510","population":317,"superficie_km2":"2064.69","latitude_centre":"45.9526","longitude_centre":"-0.1216","dep_code":"17","dep_nom":"Charente-Maritime","dep_slug":"charente-maritime","reg_code":"75","reg_nom":"Nouvelle-Aquitaine","reg_slug":"nouvelle-aquitaine"},"departement":{"code":"17","nom":"Charente-Maritime","slug":"charente-maritime"},"region":{"code":"75","nom":"Nouvelle-Aquitaine","slug":"nouvelle-aquitaine"},"villes_proches":[{"id":0,"code_insee":"17477","nom_standard":"Villiers-Couture","nom_a":null,"nom_de":null,"slug_ville":"villiers-couture","departement_id":0,"code_postal":"17510","population":109,"superficie_km2":"844.20","latitude_centre":"45.9846","longitude_centre":"-0.1533","distance_km":4.32},{"id":14209,"code_insee":"16155","nom_standard":"Les Gours","nom_a":null,"nom_de":null,"slug_ville":"les-gours","departement_id":0,"code_postal":"16140","population":91,"superficie_km2":"1144.49","latitude_centre":"45.9585","longitude_centre":"-0.0662","distance_km":4.33},{"id":0,"code_insee":"17162","nom_standard":"Fontaine-Chalendray","nom_a":null,"nom_de":null,"slug_ville":"fontaine-chalendray","departement_id":0,"code_postal":"17510","population":237,"superficie_km2":"1902.28","latitude_centre":"45.9479","longitude_centre":"-0.179","distance_km":4.47},{"id":14292,"code_insee":"16275","nom_standard":"Ranville-Breuillaud","nom_a":null,"nom_de":null,"slug_ville":"ranville-breuillaud","departement_id":0,"code_postal":"16140","population":157,"superficie_km2":"1287.44","latitude_centre":"45.9103","longitude_centre":"-0.1206","distance_km":4.7},{"id":14238,"code_insee":"16194","nom_standard":"Lupsault","nom_a":null,"nom_de":null,"slug_ville":"lupsault","departement_id":0,"code_postal":"16140","population":109,"superficie_km2":"1149.09","latitude_centre":"45.9378","longitude_centre":"-0.0593","distance_km":5.09},{"id":14418,"code_insee":"17035","nom_standard":"Bazauges","nom_a":null,"nom_de":null,"slug_ville":"bazauges","departement_id":0,"code_postal":"17490","population":101,"superficie_km2":"817.37","latitude_centre":"45.9163","longitude_centre":"-0.1623","distance_km":5.12},{"id":14119,"code_insee":"16027","nom_standard":"Barbezières","nom_a":null,"nom_de":null,"slug_ville":"barbezieres","departement_id":0,"code_postal":"16140","population":134,"superficie_km2":"939.88","latitude_centre":"45.9121","longitude_centre":"-0.0893","distance_km":5.15},{"id":0,"code_insee":"79106","nom_standard":"Couture-d'Argenson","nom_a":null,"nom_de":null,"slug_ville":"couture-d-argenson","departement_id":0,"code_postal":"79110","population":398,"superficie_km2":"2431.96","latitude_centre":"45.9972","longitude_centre":"-0.0876","distance_km":5.61},{"id":0,"code_insee":"17301","nom_standard":"Romazières","nom_a":null,"nom_de":null,"slug_ville":"romazieres","departement_id":0,"code_postal":"17510","population":90,"superficie_km2":"871.98","latitude_centre":"45.9939","longitude_centre":"-0.1777","distance_km":6.32},{"id":0,"code_insee":"79349","nom_standard":"Villemain","nom_a":null,"nom_de":null,"slug_ville":"villemain","departement_id":0,"code_postal":"79110","population":153,"superficie_km2":"1690.21","latitude_centre":"46.0144","longitude_centre":"-0.1088","distance_km":6.94},{"id":0,"code_insee":"17422","nom_standard":"Seigné","nom_a":null,"nom_de":null,"slug_ville":"seigne","departement_id":0,"code_postal":"17510","population":92,"superficie_km2":"647.07","latitude_centre":"45.9539","longitude_centre":"-0.2158","distance_km":7.28},{"id":14272,"code_insee":"16248","nom_standard":"Oradour","nom_a":null,"nom_de":null,"slug_ville":"oradour","departement_id":0,"code_postal":"16140","population":163,"superficie_km2":"1447.35","latitude_centre":"45.9134","longitude_centre":"-0.0379","distance_km":7.8},{"id":14420,"code_insee":"17037","nom_standard":"Beauvais-sur-Matha","nom_a":null,"nom_de":null,"slug_ville":"beauvais-sur-matha","departement_id":0,"code_postal":"17490","population":638,"superficie_km2":"1261.60","latitude_centre":"45.8914","longitude_centre":"-0.1729","distance_km":7.88},{"id":14369,"code_insee":"16397","nom_standard":"Verdille","nom_a":null,"nom_de":null,"slug_ville":"verdille","departement_id":0,"code_postal":"16140","population":385,"superficie_km2":"1444.84","latitude_centre":"45.8814","longitude_centre":"-0.0965","distance_km":8.15},{"id":0,"code_insee":"17149","nom_standard":"Les Éduts","nom_a":null,"nom_de":null,"slug_ville":"les-eduts","departement_id":0,"code_postal":"17510","population":57,"superficie_km2":"812.60","latitude_centre":"45.9988","longitude_centre":"-0.2055","distance_km":8.27},{"id":0,"code_insee":"17135","nom_standard":"Cressé","nom_a":null,"nom_de":null,"slug_ville":"cresse","departement_id":0,"code_postal":"17160","population":225,"superficie_km2":"1096.01","latitude_centre":"45.9149","longitude_centre":"-0.2145","distance_km":8.32},{"id":0,"code_insee":"17416","nom_standard":"Saleignes","nom_a":null,"nom_de":null,"slug_ville":"saleignes","departement_id":0,"code_postal":"17510","population":56,"superficie_km2":"795.75","latitude_centre":"46.0189","longitude_centre":"-0.1836","distance_km":8.79},{"id":14437,"code_insee":"17062","nom_standard":"Bresdon","nom_a":null,"nom_de":null,"slug_ville":"bresdon","departement_id":0,"code_postal":"17490","population":231,"superficie_km2":"1685.41","latitude_centre":"45.8665","longitude_centre":"-0.1431","distance_km":9.72},{"id":0,"code_insee":"79018","nom_standard":"Aubigné","nom_a":null,"nom_de":null,"slug_ville":"aubigne","departement_id":0,"code_postal":"79110","population":163,"superficie_km2":"2965.91","latitude_centre":"46.0382","longitude_centre":"-0.1477","distance_km":9.73},{"id":0,"code_insee":"17377","nom_standard":"Saint-Ouen-la-Thène","nom_a":null,"nom_de":null,"slug_ville":"saint-ouen-la-thene","departement_id":0,"code_postal":"17490","population":147,"superficie_km2":"704.63","latitude_centre":"45.8622","longitude_centre":"-0.1676","distance_km":10.66}]}