{"ville":{"id":24549,"code_insee":"54132","nom_standard":"Clérey-sur-Brenon","nom_a":null,"nom_de":null,"slug_ville":"clerey-sur-brenon","departement_id":0,"code_postal":"54330","population":57,"superficie_km2":"442.01","latitude_centre":"48.5059","longitude_centre":"6.1377","dep_code":"54","dep_nom":"Meurthe-et-Moselle","dep_slug":"meurthe-et-moselle","reg_code":"44","reg_nom":"Grand Est","reg_slug":"grand-est"},"departement":{"code":"54","nom":"Meurthe-et-Moselle","slug":"meurthe-et-moselle"},"region":{"code":"44","nom":"Grand Est","slug":"grand-est"},"villes_proches":[{"id":0,"code_insee":"54409","nom_standard":"Omelmont","nom_a":null,"nom_de":null,"slug_ville":"omelmont","departement_id":0,"code_postal":"54330","population":192,"superficie_km2":"466.12","latitude_centre":"48.495","longitude_centre":"6.118","distance_km":1.89},{"id":0,"code_insee":"54221","nom_standard":"Gerbécourt-et-Haplemont","nom_a":null,"nom_de":null,"slug_ville":"gerbecourt-et-haplemont","departement_id":0,"code_postal":"54740","population":248,"superficie_km2":"533.81","latitude_centre":"48.4896","longitude_centre":"6.1515","distance_km":2.08},{"id":0,"code_insee":"54266","nom_standard":"Houdreville","nom_a":null,"nom_de":null,"slug_ville":"houdreville","departement_id":0,"code_postal":"54330","population":403,"superficie_km2":"1043.91","latitude_centre":"48.5129","longitude_centre":"6.1009","distance_km":2.82},{"id":24470,"code_insee":"54032","nom_standard":"Autrey","nom_a":null,"nom_de":null,"slug_ville":"autrey","departement_id":0,"code_postal":"54160","population":192,"superficie_km2":"619.23","latitude_centre":"48.5322","longitude_centre":"6.1257","distance_km":3.06},{"id":0,"code_insee":"54591","nom_standard":"Voinémont","nom_a":null,"nom_de":null,"slug_ville":"voinemont","departement_id":0,"code_postal":"54134","population":334,"superficie_km2":"411.11","latitude_centre":"48.5178","longitude_centre":"6.1767","distance_km":3.16},{"id":0,"code_insee":"54309","nom_standard":"Lemainville","nom_a":null,"nom_de":null,"slug_ville":"lemainville","departement_id":0,"code_postal":"54740","population":407,"superficie_km2":"479.33","latitude_centre":"48.5086","longitude_centre":"6.1879","distance_km":3.71},{"id":24532,"code_insee":"54109","nom_standard":"Ceintrey","nom_a":null,"nom_de":null,"slug_ville":"ceintrey","departement_id":0,"code_postal":"54134","population":889,"superficie_km2":"1112.71","latitude_centre":"48.5277","longitude_centre":"6.1787","distance_km":3.87},{"id":0,"code_insee":"54563","nom_standard":"Vézelise","nom_a":null,"nom_de":null,"slug_ville":"vezelise","departement_id":0,"code_postal":"54330","population":1346,"superficie_km2":"536.46","latitude_centre":"48.4838","longitude_centre":"6.0961","distance_km":3.93},{"id":0,"code_insee":"54513","nom_standard":"Tantonville","nom_a":null,"nom_de":null,"slug_ville":"tantonville","departement_id":0,"code_postal":"54116","population":663,"superficie_km2":"807.46","latitude_centre":"48.4672","longitude_centre":"6.1403","distance_km":4.31},{"id":0,"code_insee":"54442","nom_standard":"Quevilloncourt","nom_a":null,"nom_de":null,"slug_ville":"quevilloncourt","departement_id":0,"code_postal":"54330","population":96,"superficie_km2":"289.34","latitude_centre":"48.4716","longitude_centre":"6.1038","distance_km":4.56},{"id":0,"code_insee":"54247","nom_standard":"Hammeville","nom_a":null,"nom_de":null,"slug_ville":"hammeville","departement_id":0,"code_postal":"54330","population":195,"superficie_km2":"548.06","latitude_centre":"48.5003","longitude_centre":"6.075","distance_km":4.66},{"id":0,"code_insee":"54264","nom_standard":"Houdelmont","nom_a":null,"nom_de":null,"slug_ville":"houdelmont","departement_id":0,"code_postal":"54330","population":363,"superficie_km2":"389.26","latitude_centre":"48.5378","longitude_centre":"6.0939","distance_km":4.79},{"id":0,"code_insee":"54437","nom_standard":"Pulligny","nom_a":null,"nom_de":null,"slug_ville":"pulligny","departement_id":0,"code_postal":"54160","population":1155,"superficie_km2":"929.22","latitude_centre":"48.5497","longitude_centre":"6.1498","distance_km":4.95},{"id":0,"code_insee":"54429","nom_standard":"Pierreville","nom_a":null,"nom_de":null,"slug_ville":"pierreville","departement_id":0,"code_postal":"54160","population":299,"superficie_km2":"297.14","latitude_centre":"48.5483","longitude_centre":"6.1109","distance_km":5.11},{"id":0,"code_insee":"54411","nom_standard":"Ormes-et-Ville","nom_a":null,"nom_de":null,"slug_ville":"ormes-et-ville","departement_id":0,"code_postal":"54740","population":218,"superficie_km2":"1254.91","latitude_centre":"48.4876","longitude_centre":"6.2026","distance_km":5.2},{"id":0,"code_insee":"54252","nom_standard":"Haroué","nom_a":null,"nom_de":null,"slug_ville":"haroue","departement_id":0,"code_postal":"54740","population":508,"superficie_km2":"428.33","latitude_centre":"48.4735","longitude_centre":"6.1917","distance_km":5.37},{"id":24446,"code_insee":"54005","nom_standard":"Affracourt","nom_a":null,"nom_de":null,"slug_ville":"affracourt","departement_id":0,"code_postal":"54740","population":113,"superficie_km2":"566.33","latitude_centre":"48.4602","longitude_centre":"6.1655","distance_km":5.48},{"id":0,"code_insee":"54203","nom_standard":"Forcelles-Saint-Gorgon","nom_a":null,"nom_de":null,"slug_ville":"forcelles-saint-gorgon","departement_id":0,"code_postal":"54330","population":168,"superficie_km2":"532.46","latitude_centre":"48.4574","longitude_centre":"6.1047","distance_km":5.92},{"id":0,"code_insee":"54214","nom_standard":"Frolois","nom_a":null,"nom_de":null,"slug_ville":"frolois","departement_id":0,"code_postal":"54160","population":717,"superficie_km2":"938.98","latitude_centre":"48.5698","longitude_centre":"6.1284","distance_km":7.14},{"id":0,"code_insee":"54434","nom_standard":"Praye","nom_a":null,"nom_de":null,"slug_ville":"praye","departement_id":0,"code_postal":"54116","population":267,"superficie_km2":"873.81","latitude_centre":"48.4356","longitude_centre":"6.1137","distance_km":8.01}]}