{"ville":{"id":20548,"code_insee":"38116","nom_standard":"Cognet","nom_a":null,"nom_de":null,"slug_ville":"cognet","departement_id":0,"code_postal":"38350","population":35,"superficie_km2":"194.86","latitude_centre":"44.8815","longitude_centre":"5.7741","dep_code":"38","dep_nom":"Isère","dep_slug":"isere","reg_code":"84","reg_nom":"Auvergne-Rhône-Alpes","reg_slug":"auvergne-rhone-alpes"},"departement":{"code":"38","nom":"Isère","slug":"isere"},"region":{"code":"84","nom":"Auvergne-Rhône-Alpes","slug":"auvergne-rhone-alpes"},"villes_proches":[{"id":0,"code_insee":"38313","nom_standard":"Ponsonnas","nom_a":null,"nom_de":null,"slug_ville":"ponsonnas","departement_id":0,"code_postal":"38350","population":288,"superficie_km2":"295.09","latitude_centre":"44.89","longitude_centre":"5.7979","distance_km":2.1},{"id":0,"code_insee":"38326","nom_standard":"Prunières","nom_a":null,"nom_de":null,"slug_ville":"prunieres","departement_id":0,"code_postal":"38350","population":381,"superficie_km2":"816.54","latitude_centre":"44.8943","longitude_centre":"5.7524","distance_km":2.22},{"id":0,"code_insee":"38361","nom_standard":"Saint-Arey","nom_a":null,"nom_de":null,"slug_ville":"saint-arey","departement_id":0,"code_postal":"38350","population":71,"superficie_km2":"700.95","latitude_centre":"44.8879","longitude_centre":"5.7449","distance_km":2.41},{"id":0,"code_insee":"38403","nom_standard":"Saint-Jean-d'Hérans","nom_a":null,"nom_de":null,"slug_ville":"saint-jean-d-herans","departement_id":0,"code_postal":"38710","population":318,"superficie_km2":"1762.17","latitude_centre":"44.8567","longitude_centre":"5.7621","distance_km":2.92},{"id":0,"code_insee":"38269","nom_standard":"La Mure","nom_a":null,"nom_de":null,"slug_ville":"la-mure","departement_id":0,"code_postal":"38350","population":4963,"superficie_km2":"832.52","latitude_centre":"44.9103","longitude_centre":"5.7861","distance_km":3.34},{"id":0,"code_insee":"38444","nom_standard":"Saint-Pierre-de-Méaroz","nom_a":null,"nom_de":null,"slug_ville":"saint-pierre-de-mearoz","departement_id":0,"code_postal":"38350","population":114,"superficie_km2":"467.03","latitude_centre":"44.8725","longitude_centre":"5.8178","distance_km":3.59},{"id":0,"code_insee":"38497","nom_standard":"Sousville","nom_a":null,"nom_de":null,"slug_ville":"sousville","departement_id":0,"code_postal":"38350","population":141,"superficie_km2":"296.31","latitude_centre":"44.9119","longitude_centre":"5.8066","distance_km":4.24},{"id":0,"code_insee":"38499","nom_standard":"Susville","nom_a":null,"nom_de":null,"slug_ville":"susville","departement_id":0,"code_postal":"38350","population":1134,"superficie_km2":"1002.27","latitude_centre":"44.928","longitude_centre":"5.7607","distance_km":5.28},{"id":0,"code_insee":"38224","nom_standard":"Mayres-Savel","nom_a":null,"nom_de":null,"slug_ville":"mayres-savel","departement_id":0,"code_postal":"38350","population":94,"superficie_km2":"1371.51","latitude_centre":"44.8897","longitude_centre":"5.7062","distance_km":5.43},{"id":0,"code_insee":"38413","nom_standard":"Saint-Laurent-en-Beaumont","nom_a":null,"nom_de":null,"slug_ville":"saint-laurent-en-beaumont","departement_id":0,"code_postal":"38350","population":422,"superficie_km2":"1322.14","latitude_centre":"44.8859","longitude_centre":"5.8475","distance_km":5.8},{"id":0,"code_insee":"38489","nom_standard":"Siévoz","nom_a":null,"nom_de":null,"slug_ville":"sievoz","departement_id":0,"code_postal":"38350","population":132,"superficie_km2":"740.57","latitude_centre":"44.9045","longitude_centre":"5.8503","distance_km":6.52},{"id":0,"code_insee":"38273","nom_standard":"Nantes-en-Ratier","nom_a":null,"nom_de":null,"slug_ville":"nantes-en-ratier","departement_id":0,"code_postal":"38350","population":476,"superficie_km2":"1199.55","latitude_centre":"44.9294","longitude_centre":"5.8285","distance_km":6.84},{"id":0,"code_insee":"38217","nom_standard":"Marcieu","nom_a":null,"nom_de":null,"slug_ville":"marcieu","departement_id":0,"code_postal":"38350","population":66,"superficie_km2":"1328.51","latitude_centre":"44.9206","longitude_centre":"5.6971","distance_km":7.46},{"id":0,"code_insee":"38127","nom_standard":"Cornillon-en-Trièves","nom_a":null,"nom_de":null,"slug_ville":"cornillon-en-trieves","departement_id":0,"code_postal":"38710","population":173,"superficie_km2":"1404.91","latitude_centre":"44.8405","longitude_centre":"5.6991","distance_km":7.47},{"id":0,"code_insee":"38470","nom_standard":"La Salle-en-Beaumont","nom_a":null,"nom_de":null,"slug_ville":"la-salle-en-beaumont","departement_id":0,"code_postal":"38350","population":355,"superficie_km2":"926.33","latitude_centre":"44.8581","longitude_centre":"5.8639","distance_km":7.54},{"id":0,"code_insee":"38265","nom_standard":"La Motte-d'Aveillans","nom_a":null,"nom_de":null,"slug_ville":"la-motte-d-aveillans","departement_id":0,"code_postal":"38770","population":1711,"superficie_km2":"991.01","latitude_centre":"44.9459","longitude_centre":"5.7391","distance_km":7.67},{"id":0,"code_insee":"38456","nom_standard":"Châtel-en-Trièves","nom_a":null,"nom_de":null,"slug_ville":"chatel-en-trieves","departement_id":0,"code_postal":"38710","population":491,"superficie_km2":"4780.67","latitude_centre":"44.8244","longitude_centre":"5.8308","distance_km":7.76},{"id":0,"code_insee":"38226","nom_standard":"Mens","nom_a":null,"nom_de":null,"slug_ville":"mens","departement_id":0,"code_postal":"38710","population":1415,"superficie_km2":"2835.28","latitude_centre":"44.8116","longitude_centre":"5.754","distance_km":7.93},{"id":0,"code_insee":"38304","nom_standard":"Pierre-Châtel","nom_a":null,"nom_de":null,"slug_ville":"pierre-chatel","departement_id":0,"code_postal":"38119","population":1475,"superficie_km2":"1235.55","latitude_centre":"44.9565","longitude_centre":"5.7717","distance_km":8.34},{"id":0,"code_insee":"38396","nom_standard":"Saint-Honoré","nom_a":null,"nom_de":null,"slug_ville":"saint-honore","departement_id":0,"code_postal":"38350","population":830,"superficie_km2":"1465.81","latitude_centre":"44.9571","longitude_centre":"5.8217","distance_km":9.2}]}