{"ville":{"id":17452,"code_insee":"27164","nom_standard":"Combon","nom_a":null,"nom_de":null,"slug_ville":"combon","departement_id":0,"code_postal":"27170","population":823,"superficie_km2":"1621.03","latitude_centre":"49.0913","longitude_centre":"0.8832","dep_code":"27","dep_nom":"Eure","dep_slug":"eure","reg_code":"28","reg_nom":"Normandie","reg_slug":"normandie"},"departement":{"code":"27","nom":"Eure","slug":"eure"},"region":{"code":"28","nom":"Normandie","slug":"normandie"},"villes_proches":[{"id":0,"code_insee":"27466","nom_standard":"Le Plessis-Sainte-Opportune","nom_a":null,"nom_de":null,"slug_ville":"le-plessis-sainte-opportune","departement_id":0,"code_postal":"27170","population":351,"superficie_km2":"1143.00","latitude_centre":"49.0744","longitude_centre":"0.8516","distance_km":2.97},{"id":0,"code_insee":"27217","nom_standard":"Émanville","nom_a":null,"nom_de":null,"slug_ville":"emanville","departement_id":0,"code_postal":"27190","population":538,"superficie_km2":"1080.31","latitude_centre":"49.064","longitude_centre":"0.9086","distance_km":3.55},{"id":17415,"code_insee":"27109","nom_standard":"Bray","nom_a":null,"nom_de":null,"slug_ville":"bray","departement_id":0,"code_postal":"27170","population":398,"superficie_km2":"583.64","latitude_centre":"49.1041","longitude_centre":"0.8363","distance_km":3.7},{"id":0,"code_insee":"27641","nom_standard":"Le Tilleul-Lambert","nom_a":null,"nom_de":null,"slug_ville":"le-tilleul-lambert","departement_id":0,"code_postal":"27110","population":267,"superficie_km2":"580.74","latitude_centre":"49.0794","longitude_centre":"0.9317","distance_km":3.77},{"id":0,"code_insee":"27658","nom_standard":"Le Tremblay-Omonville","nom_a":null,"nom_de":null,"slug_ville":"le-tremblay-omonville","departement_id":0,"code_postal":"27110","population":391,"superficie_km2":"539.73","latitude_centre":"49.1195","longitude_centre":"0.9162","distance_km":3.95},{"id":0,"code_insee":"27524","nom_standard":"Sainte-Colombe-la-Commanderie","nom_a":null,"nom_de":null,"slug_ville":"sainte-colombe-la-commanderie","departement_id":0,"code_postal":"27110","population":841,"superficie_km2":"1083.62","latitude_centre":"49.1102","longitude_centre":"0.9335","distance_km":4.22},{"id":0,"code_insee":"27224","nom_standard":"Épreville-près-le-Neubourg","nom_a":null,"nom_de":null,"slug_ville":"epreville-pres-le-neubourg","departement_id":0,"code_postal":"27110","population":438,"superficie_km2":"774.24","latitude_centre":"49.1313","longitude_centre":"0.8761","distance_km":4.48},{"id":0,"code_insee":"27037","nom_standard":"Barc","nom_a":null,"nom_de":null,"slug_ville":"barc","departement_id":0,"code_postal":"27170","population":1166,"superficie_km2":"1151.23","latitude_centre":"49.0791","longitude_centre":"0.8245","distance_km":4.48},{"id":0,"code_insee":"27210","nom_standard":"Écardenville-la-Campagne","nom_a":null,"nom_de":null,"slug_ville":"ecardenville-la-campagne","departement_id":0,"code_postal":"27170","population":441,"superficie_km2":"738.99","latitude_centre":"49.125","longitude_centre":"0.832","distance_km":5.29},{"id":17374,"code_insee":"27040","nom_standard":"Barquet","nom_a":null,"nom_de":null,"slug_ville":"barquet","departement_id":0,"code_postal":"27170","population":449,"superficie_km2":"1392.81","latitude_centre":"49.0387","longitude_centre":"0.8484","distance_km":6.37},{"id":0,"code_insee":"27428","nom_standard":"Le Neubourg","nom_a":null,"nom_de":null,"slug_ville":"le-neubourg","departement_id":0,"code_postal":"27110","population":4199,"superficie_km2":"988.99","latitude_centre":"49.149","longitude_centre":"0.8903","distance_km":6.44},{"id":0,"code_insee":"27446","nom_standard":"Ormes","nom_a":null,"nom_de":null,"slug_ville":"ormes","departement_id":0,"code_postal":"27190","population":451,"superficie_km2":"1413.71","latitude_centre":"49.057","longitude_centre":"0.9558","distance_km":6.52},{"id":0,"code_insee":"27695","nom_standard":"Villez-sur-le-Neubourg","nom_a":null,"nom_de":null,"slug_ville":"villez-sur-le-neubourg","departement_id":0,"code_postal":"27110","population":225,"superficie_km2":"480.13","latitude_centre":"49.149","longitude_centre":"0.8604","distance_km":6.63},{"id":0,"code_insee":"27498","nom_standard":"Rouge-Perriers","nom_a":null,"nom_de":null,"slug_ville":"rouge-perriers","departement_id":0,"code_postal":"27110","population":374,"superficie_km2":"415.08","latitude_centre":"49.1462","longitude_centre":"0.834","distance_km":7.08},{"id":0,"code_insee":"27192","nom_standard":"Crosville-la-Vieille","nom_a":null,"nom_de":null,"slug_ville":"crosville-la-vieille","departement_id":0,"code_postal":"27110","population":613,"superficie_km2":"779.02","latitude_centre":"49.1484","longitude_centre":"0.93","distance_km":7.21},{"id":17390,"code_insee":"27063","nom_standard":"Berville-la-Campagne","nom_a":null,"nom_de":null,"slug_ville":"berville-la-campagne","departement_id":0,"code_postal":"27170","population":270,"superficie_km2":"867.29","latitude_centre":"49.025","longitude_centre":"0.8898","distance_km":7.39},{"id":0,"code_insee":"27235","nom_standard":"Faverolles-la-Campagne","nom_a":null,"nom_de":null,"slug_ville":"faverolles-la-campagne","departement_id":0,"code_postal":"27190","population":152,"superficie_km2":"470.68","latitude_centre":"49.0233","longitude_centre":"0.9301","distance_km":8.3},{"id":0,"code_insee":"27698","nom_standard":"Vitot","nom_a":null,"nom_de":null,"slug_ville":"vitot","departement_id":0,"code_postal":"27110","population":557,"superficie_km2":"469.76","latitude_centre":"49.1688","longitude_centre":"0.8862","distance_km":8.62},{"id":0,"code_insee":"27576","nom_standard":"Sainte-Opportune-du-Bosc","nom_a":null,"nom_de":null,"slug_ville":"sainte-opportune-du-bosc","departement_id":0,"code_postal":"27110","population":628,"superficie_km2":"817.45","latitude_centre":"49.1675","longitude_centre":"0.8436","distance_km":8.95},{"id":0,"code_insee":"27640","nom_standard":"Tilleul-Dame-Agnès","nom_a":null,"nom_de":null,"slug_ville":"tilleul-dame-agnes","departement_id":0,"code_postal":"27170","population":200,"superficie_km2":"517.23","latitude_centre":"49.0058","longitude_centre":"0.8897","distance_km":9.52}]}