{"ville":{"id":31722,"code_insee":"76185","nom_standard":"Compainville","nom_a":null,"nom_de":null,"slug_ville":"compainville","departement_id":0,"code_postal":"76440","population":159,"superficie_km2":"643.41","latitude_centre":"49.6569","longitude_centre":"1.5636","dep_code":"76","dep_nom":"Seine-Maritime","dep_slug":"seine-maritime","reg_code":"28","reg_nom":"Normandie","reg_slug":"normandie"},"departement":{"code":"76","nom":"Seine-Maritime","slug":"seine-maritime"},"region":{"code":"28","nom":"Normandie","slug":"normandie"},"villes_proches":[{"id":0,"code_insee":"76691","nom_standard":"Le Thil-Riberpré","nom_a":null,"nom_de":null,"slug_ville":"le-thil-riberpre","departement_id":0,"code_postal":"76440","population":241,"superficie_km2":"1008.65","latitude_centre":"49.634","longitude_centre":"1.5837","distance_km":2.93},{"id":0,"code_insee":"76432","nom_standard":"Mesnil-Mauger","nom_a":null,"nom_de":null,"slug_ville":"mesnil-mauger","departement_id":0,"code_postal":"76440","population":243,"superficie_km2":"836.18","latitude_centre":"49.6708","longitude_centre":"1.5247","distance_km":3.2},{"id":31636,"code_insee":"76065","nom_standard":"Beaussault","nom_a":null,"nom_de":null,"slug_ville":"beaussault","departement_id":0,"code_postal":"76870","population":410,"superficie_km2":"1846.50","latitude_centre":"49.6873","longitude_centre":"1.5701","distance_km":3.41},{"id":0,"code_insee":"76672","nom_standard":"Serqueux","nom_a":null,"nom_de":null,"slug_ville":"serqueux","departement_id":0,"code_postal":"76440","population":943,"superficie_km2":"574.30","latitude_centre":"49.6281","longitude_centre":"1.541","distance_km":3.59},{"id":31632,"code_insee":"76060","nom_standard":"Beaubec-la-Rosière","nom_a":null,"nom_de":null,"slug_ville":"beaubec-la-rosiere","departement_id":0,"code_postal":"76440","population":457,"superficie_km2":"1302.25","latitude_centre":"49.6471","longitude_centre":"1.5098","distance_km":4.02},{"id":0,"code_insee":"76295","nom_standard":"Gaillefontaine","nom_a":null,"nom_de":null,"slug_ville":"gaillefontaine","departement_id":0,"code_postal":"76870","population":1108,"superficie_km2":"2643.96","latitude_centre":"49.6524","longitude_centre":"1.6225","distance_km":4.27},{"id":0,"code_insee":"76276","nom_standard":"Forges-les-Eaux","nom_a":null,"nom_de":null,"slug_ville":"forges-les-eaux","departement_id":0,"code_postal":"76440","population":3642,"superficie_km2":"1544.83","latitude_centre":"49.6104","longitude_centre":"1.5644","distance_km":5.17},{"id":0,"code_insee":"76393","nom_standard":"Longmesnil","nom_a":null,"nom_de":null,"slug_ville":"longmesnil","departement_id":0,"code_postal":"76440","population":45,"superficie_km2":"393.66","latitude_centre":"49.6218","longitude_centre":"1.6133","distance_km":5.3},{"id":0,"code_insee":"76459","nom_standard":"Nesle-Hodeng","nom_a":null,"nom_de":null,"slug_ville":"nesle-hodeng","departement_id":0,"code_postal":"76270","population":323,"superficie_km2":"1570.74","latitude_centre":"49.704","longitude_centre":"1.5186","distance_km":6.16},{"id":31643,"code_insee":"76074","nom_standard":"La Bellière","nom_a":null,"nom_de":null,"slug_ville":"la-belliere","departement_id":0,"code_postal":"76440","population":50,"superficie_km2":"455.09","latitude_centre":"49.6062","longitude_centre":"1.6014","distance_km":6.26},{"id":0,"code_insee":"76649","nom_standard":"Saint-Saire","nom_a":null,"nom_de":null,"slug_ville":"saint-saire","departement_id":0,"code_postal":"76270","population":582,"superficie_km2":"1333.78","latitude_centre":"49.6833","longitude_centre":"1.4786","distance_km":6.78},{"id":0,"code_insee":"76186","nom_standard":"Conteville","nom_a":null,"nom_de":null,"slug_ville":"conteville","departement_id":0,"code_postal":"76390","population":507,"superficie_km2":"1377.65","latitude_centre":"49.6962","longitude_centre":"1.6389","distance_km":6.96},{"id":0,"code_insee":"76505","nom_standard":"Pommereux","nom_a":null,"nom_de":null,"slug_ville":"pommereux","departement_id":0,"code_postal":"76440","population":94,"superficie_km2":"536.07","latitude_centre":"49.6112","longitude_centre":"1.6304","distance_km":7.0},{"id":0,"code_insee":"76535","nom_standard":"Roncherolles-en-Bray","nom_a":null,"nom_de":null,"slug_ville":"roncherolles-en-bray","departement_id":0,"code_postal":"76440","population":477,"superficie_km2":"1453.58","latitude_centre":"49.6127","longitude_centre":"1.4793","distance_km":7.81},{"id":0,"code_insee":"76323","nom_standard":"Graval","nom_a":null,"nom_de":null,"slug_ville":"graval","departement_id":0,"code_postal":"76270","population":153,"superficie_km2":"396.36","latitude_centre":"49.7289","longitude_centre":"1.5529","distance_km":8.04},{"id":0,"code_insee":"76265","nom_standard":"Flamets-Frétils","nom_a":null,"nom_de":null,"slug_ville":"flamets-fretils","departement_id":0,"code_postal":"76270","population":159,"superficie_km2":"1228.68","latitude_centre":"49.7288","longitude_centre":"1.5792","distance_km":8.07},{"id":0,"code_insee":"76537","nom_standard":"Ronchois","nom_a":null,"nom_de":null,"slug_ville":"ronchois","departement_id":0,"code_postal":"76390","population":179,"superficie_km2":"871.38","latitude_centre":"49.7235","longitude_centre":"1.6234","distance_km":8.56},{"id":31682,"code_insee":"76130","nom_standard":"Bouelles","nom_a":null,"nom_de":null,"slug_ville":"bouelles","departement_id":0,"code_postal":"76270","population":260,"superficie_km2":"796.40","latitude_centre":"49.7216","longitude_centre":"1.4968","distance_km":8.65},{"id":0,"code_insee":"76261","nom_standard":"La Ferté-Saint-Samson","nom_a":null,"nom_de":null,"slug_ville":"la-ferte-saint-samson","departement_id":0,"code_postal":"76440","population":449,"superficie_km2":"1902.75","latitude_centre":"49.5769","longitude_centre":"1.5389","distance_km":9.07},{"id":0,"code_insee":"76454","nom_standard":"Mortemer","nom_a":null,"nom_de":null,"slug_ville":"mortemer","departement_id":0,"code_postal":"76270","population":94,"superficie_km2":"893.70","latitude_centre":"49.7452","longitude_centre":"1.5434","distance_km":9.93}]}