{"ville":{"id":20183,"code_insee":"36058","nom_standard":"Concremiers","nom_a":null,"nom_de":null,"slug_ville":"concremiers","departement_id":0,"code_postal":"36300","population":590,"superficie_km2":"2810.23","latitude_centre":"46.5934","longitude_centre":"1.0194","dep_code":"36","dep_nom":"Indre","dep_slug":"indre","reg_code":"24","reg_nom":"Centre-Val de Loire","reg_slug":"centre-val-de-loire"},"departement":{"code":"36","nom":"Indre","slug":"indre"},"region":{"code":"24","nom":"Centre-Val de Loire","slug":"centre-val-de-loire"},"villes_proches":[{"id":0,"code_insee":"36087","nom_standard":"Ingrandes","nom_a":null,"nom_de":null,"slug_ville":"ingrandes","departement_id":0,"code_postal":"36300","population":294,"superficie_km2":"1119.55","latitude_centre":"46.5952","longitude_centre":"0.9626","distance_km":4.34},{"id":0,"code_insee":"36178","nom_standard":"Saint-Aigny","nom_a":null,"nom_de":null,"slug_ville":"saint-aigny","departement_id":0,"code_postal":"36300","population":276,"superficie_km2":"1482.88","latitude_centre":"46.6353","longitude_centre":"1.0079","distance_km":4.74},{"id":0,"code_insee":"36197","nom_standard":"Saint-Hilaire-sur-Benaize","nom_a":null,"nom_de":null,"slug_ville":"saint-hilaire-sur-benaize","departement_id":0,"code_postal":"36370","population":311,"superficie_km2":"3322.00","latitude_centre":"46.5545","longitude_centre":"1.069","distance_km":5.75},{"id":0,"code_insee":"86025","nom_standard":"Béthines","nom_a":null,"nom_de":null,"slug_ville":"bethines","departement_id":0,"code_postal":"86310","population":467,"superficie_km2":"3756.41","latitude_centre":"46.5447","longitude_centre":"0.9649","distance_km":6.83},{"id":0,"code_insee":"36213","nom_standard":"Sauzelles","nom_a":null,"nom_de":null,"slug_ville":"sauzelles","departement_id":0,"code_postal":"36220","population":245,"superficie_km2":"1289.57","latitude_centre":"46.6546","longitude_centre":"0.9855","distance_km":7.28},{"id":0,"code_insee":"36018","nom_standard":"Le Blanc","nom_a":null,"nom_de":null,"slug_ville":"le-blanc","departement_id":0,"code_postal":"36300","population":6164,"superficie_km2":"5746.07","latitude_centre":"46.6351","longitude_centre":"1.0955","distance_km":7.44},{"id":0,"code_insee":"36114","nom_standard":"Mauvières","nom_a":null,"nom_de":null,"slug_ville":"mauvieres","departement_id":0,"code_postal":"36370","population":306,"superficie_km2":"2431.94","latitude_centre":"46.5643","longitude_centre":"1.1127","distance_km":7.83},{"id":0,"code_insee":"36119","nom_standard":"Mérigny","nom_a":null,"nom_de":null,"slug_ville":"merigny","departement_id":0,"code_postal":"36220","population":545,"superficie_km2":"3186.82","latitude_centre":"46.6327","longitude_centre":"0.9337","distance_km":7.87},{"id":0,"code_insee":"86291","nom_standard":"Villemort","nom_a":null,"nom_de":null,"slug_ville":"villemort","departement_id":0,"code_postal":"86310","population":100,"superficie_km2":"445.19","latitude_centre":"46.5492","longitude_centre":"0.9251","distance_km":8.72},{"id":0,"code_insee":"86223","nom_standard":"Saint-Germain","nom_a":null,"nom_de":null,"slug_ville":"saint-germain","departement_id":0,"code_postal":"86310","population":886,"superficie_km2":"2034.93","latitude_centre":"46.5737","longitude_centre":"0.9029","distance_km":9.17},{"id":0,"code_insee":"36076","nom_standard":"Fontgombault","nom_a":null,"nom_de":null,"slug_ville":"fontgombault","departement_id":0,"code_postal":"36220","population":268,"superficie_km2":"1049.55","latitude_centre":"46.6717","longitude_centre":"0.9748","distance_km":9.35},{"id":0,"code_insee":"36165","nom_standard":"Pouligny-Saint-Pierre","nom_a":null,"nom_de":null,"slug_ville":"pouligny-saint-pierre","departement_id":0,"code_postal":"36300","population":1023,"superficie_km2":"4739.27","latitude_centre":"46.6866","longitude_centre":"1.0529","distance_km":10.67},{"id":0,"code_insee":"86175","nom_standard":"Nalliers","nom_a":null,"nom_de":null,"slug_ville":"nalliers","departement_id":0,"code_postal":"86310","population":302,"superficie_km2":"1605.09","latitude_centre":"46.6116","longitude_centre":"0.8798","distance_km":10.86},{"id":0,"code_insee":"86110","nom_standard":"Haims","nom_a":null,"nom_de":null,"slug_ville":"haims","departement_id":0,"code_postal":"86310","population":228,"superficie_km2":"3279.25","latitude_centre":"46.5145","longitude_centre":"0.9331","distance_km":10.98},{"id":0,"code_insee":"86132","nom_standard":"Liglet","nom_a":null,"nom_de":null,"slug_ville":"liglet","departement_id":0,"code_postal":"86290","population":297,"superficie_km2":"5334.21","latitude_centre":"46.5042","longitude_centre":"1.085","distance_km":11.12},{"id":0,"code_insee":"36167","nom_standard":"Preuilly-la-Ville","nom_a":null,"nom_de":null,"slug_ville":"preuilly-la-ville","departement_id":0,"code_postal":"36220","population":150,"superficie_km2":"429.85","latitude_centre":"46.697","longitude_centre":"0.9796","distance_km":11.91},{"id":0,"code_insee":"36104","nom_standard":"Lurais","nom_a":null,"nom_de":null,"slug_ville":"lurais","departement_id":0,"code_postal":"36220","population":226,"superficie_km2":"1364.73","latitude_centre":"46.6898","longitude_centre":"0.9371","distance_km":12.42},{"id":0,"code_insee":"86118","nom_standard":"Journet","nom_a":null,"nom_de":null,"slug_ville":"journet","departement_id":0,"code_postal":"86290","population":366,"superficie_km2":"5923.92","latitude_centre":"46.4753","longitude_centre":"0.9666","distance_km":13.74},{"id":0,"code_insee":"36066","nom_standard":"Douadic","nom_a":null,"nom_de":null,"slug_ville":"douadic","departement_id":0,"code_postal":"36300","population":478,"superficie_km2":"4430.56","latitude_centre":"46.7014","longitude_centre":"1.1143","distance_km":14.02},{"id":0,"code_insee":"36224","nom_standard":"Tournon-Saint-Martin","nom_a":null,"nom_de":null,"slug_ville":"tournon-saint-martin","departement_id":0,"code_postal":"36220","population":1112,"superficie_km2":"2586.45","latitude_centre":"46.7321","longitude_centre":"0.9814","distance_km":15.69}]}