{"ville":{"id":22570,"code_insee":"47070","nom_standard":"Condezaygues","nom_a":null,"nom_de":null,"slug_ville":"condezaygues","departement_id":0,"code_postal":"47500","population":839,"superficie_km2":"1088.18","latitude_centre":"44.4874","longitude_centre":"0.9121","dep_code":"47","dep_nom":"Lot-et-Garonne","dep_slug":"lot-et-garonne","reg_code":"75","reg_nom":"Nouvelle-Aquitaine","reg_slug":"nouvelle-aquitaine"},"departement":{"code":"47","nom":"Lot-et-Garonne","slug":"lot-et-garonne"},"region":{"code":"75","nom":"Nouvelle-Aquitaine","slug":"nouvelle-aquitaine"},"villes_proches":[{"id":0,"code_insee":"47179","nom_standard":"Monsempron-Libos","nom_a":null,"nom_de":null,"slug_ville":"monsempron-libos","departement_id":0,"code_postal":"47500","population":2122,"superficie_km2":"903.48","latitude_centre":"44.5002","longitude_centre":"0.9282","distance_km":1.91},{"id":0,"code_insee":"47283","nom_standard":"Saint-Vite","nom_a":null,"nom_de":null,"slug_ville":"saint-vite","departement_id":0,"code_postal":"47500","population":1192,"superficie_km2":"556.62","latitude_centre":"44.4688","longitude_centre":"0.9312","distance_km":2.56},{"id":0,"code_insee":"47178","nom_standard":"Monségur","nom_a":null,"nom_de":null,"slug_ville":"monsegur","departement_id":0,"code_postal":"47150","population":397,"superficie_km2":"1135.22","latitude_centre":"44.4848","longitude_centre":"0.8788","distance_km":2.66},{"id":0,"code_insee":"47328","nom_standard":"Saint-Georges","nom_a":null,"nom_de":null,"slug_ville":"saint-georges","departement_id":0,"code_postal":"47370","population":492,"superficie_km2":"1600.95","latitude_centre":"44.4403","longitude_centre":"0.928","distance_km":5.39},{"id":0,"code_insee":"47284","nom_standard":"Salles","nom_a":null,"nom_de":null,"slug_ville":"salles","departement_id":0,"code_postal":"47150","population":288,"superficie_km2":"2157.68","latitude_centre":"44.5352","longitude_centre":"0.896","distance_km":5.47},{"id":0,"code_insee":"47106","nom_standard":"Fumel","nom_a":null,"nom_de":null,"slug_ville":"fumel","departement_id":0,"code_postal":"47500","population":4690,"superficie_km2":"2275.57","latitude_centre":"44.5122","longitude_centre":"0.9799","distance_km":6.04},{"id":0,"code_insee":"47185","nom_standard":"Montayral","nom_a":null,"nom_de":null,"slug_ville":"montayral","departement_id":0,"code_postal":"47500","population":2654,"superficie_km2":"2506.71","latitude_centre":"44.4705","longitude_centre":"0.9865","distance_km":6.19},{"id":0,"code_insee":"47315","nom_standard":"Trentels","nom_a":null,"nom_de":null,"slug_ville":"trentels","departement_id":0,"code_postal":"47140","population":843,"superficie_km2":"1960.04","latitude_centre":"44.4438","longitude_centre":"0.8615","distance_km":6.3},{"id":0,"code_insee":"47230","nom_standard":"Saint-Aubin","nom_a":null,"nom_de":null,"slug_ville":"saint-aubin","departement_id":0,"code_postal":"47150","population":393,"superficie_km2":"1850.13","latitude_centre":"44.4741","longitude_centre":"0.8322","distance_km":6.51},{"id":0,"code_insee":"47124","nom_standard":"Lacaussade","nom_a":null,"nom_de":null,"slug_ville":"lacaussade","departement_id":0,"code_postal":"47150","population":210,"superficie_km2":"1032.32","latitude_centre":"44.5067","longitude_centre":"0.8253","distance_km":7.21},{"id":0,"code_insee":"47077","nom_standard":"Cuzorn","nom_a":null,"nom_de":null,"slug_ville":"cuzorn","departement_id":0,"code_postal":"47500","population":845,"superficie_km2":"2354.65","latitude_centre":"44.5485","longitude_centre":"0.9504","distance_km":7.44},{"id":0,"code_insee":"47181","nom_standard":"Montagnac-sur-Lède","nom_a":null,"nom_de":null,"slug_ville":"montagnac-sur-lede","departement_id":0,"code_postal":"47150","population":271,"superficie_km2":"1962.33","latitude_centre":"44.5392","longitude_centre":"0.8442","distance_km":7.88},{"id":0,"code_insee":"47314","nom_standard":"Trémons","nom_a":null,"nom_de":null,"slug_ville":"tremons","departement_id":0,"code_postal":"47140","population":409,"superficie_km2":"1355.14","latitude_centre":"44.4169","longitude_centre":"0.8862","distance_km":8.1},{"id":22548,"code_insee":"47036","nom_standard":"Bourlens","nom_a":null,"nom_de":null,"slug_ville":"bourlens","departement_id":0,"code_postal":"47370","population":372,"superficie_km2":"1561.90","latitude_centre":"44.4261","longitude_centre":"0.9711","distance_km":8.27},{"id":22496,"code_insee":"46307","nom_standard":"Soturac","nom_a":null,"nom_de":null,"slug_ville":"soturac","departement_id":0,"code_postal":"46700","population":644,"superficie_km2":"1978.48","latitude_centre":"44.5122","longitude_centre":"1.0169","distance_km":8.76},{"id":0,"code_insee":"47109","nom_standard":"Gavaudun","nom_a":null,"nom_de":null,"slug_ville":"gavaudun","departement_id":0,"code_postal":"47150","population":302,"superficie_km2":"2143.93","latitude_centre":"44.5662","longitude_centre":"0.8884","distance_km":8.96},{"id":22567,"code_insee":"47064","nom_standard":"Cazideroque","nom_a":null,"nom_de":null,"slug_ville":"cazideroque","departement_id":0,"code_postal":"47370","population":249,"superficie_km2":"1204.74","latitude_centre":"44.4051","longitude_centre":"0.9333","distance_km":9.3},{"id":0,"code_insee":"47242","nom_standard":"Saint-Front-sur-Lémance","nom_a":null,"nom_de":null,"slug_ville":"saint-front-sur-lemance","departement_id":0,"code_postal":"47500","population":492,"superficie_km2":"1979.99","latitude_centre":"44.5632","longitude_centre":"0.9975","distance_km":10.81},{"id":0,"code_insee":"47079","nom_standard":"Dausse","nom_a":null,"nom_de":null,"slug_ville":"dausse","departement_id":0,"code_postal":"47140","population":526,"superficie_km2":"698.73","latitude_centre":"44.3894","longitude_centre":"0.8857","distance_km":11.1},{"id":0,"code_insee":"47123","nom_standard":"Lacapelle-Biron","nom_a":null,"nom_de":null,"slug_ville":"lacapelle-biron","departement_id":0,"code_postal":"47150","population":391,"superficie_km2":"1392.55","latitude_centre":"44.6021","longitude_centre":"0.8976","distance_km":12.81}]}