{"ville":{"id":4936,"code_insee":"51165","nom_standard":"Connantre","nom_a":null,"nom_de":null,"slug_ville":"connantre","departement_id":652,"code_postal":"51230","population":1017,"superficie_km2":"28.00","latitude_centre":"48.7379990","longitude_centre":"3.9119999","dep_code":"51","dep_nom":"Marne","dep_slug":"marne","reg_code":"06","reg_nom":"Grand Est","reg_slug":"grand-est"},"departement":{"code":"51","nom":"Marne","slug":"marne"},"region":{"code":"06","nom":"Grand Est","slug":"grand-est"},"villes_proches":[{"id":4947,"code_insee":"51248","nom_standard":"Fère-Champenoise","nom_a":null,"nom_de":null,"slug_ville":"fere-champenoise","departement_id":652,"code_postal":"51230","population":2170,"superficie_km2":"66.00","latitude_centre":"48.7709999","longitude_centre":"4.0170002","distance_km":8.53},{"id":4976,"code_insee":"51535","nom_standard":"Sézanne","nom_a":null,"nom_de":null,"slug_ville":"sezanne","departement_id":652,"code_postal":"51120","population":4783,"superficie_km2":"23.00","latitude_centre":"48.7239990","longitude_centre":"3.7240000","distance_km":13.88},{"id":4982,"code_insee":"51612","nom_standard":"Blancs-Coteaux","nom_a":null,"nom_de":null,"slug_ville":"blancs-coteaux","departement_id":652,"code_postal":"51130","population":3182,"superficie_km2":"36.00","latitude_centre":"48.9080010","longitude_centre":"3.9800000","distance_km":19.55},{"id":668,"code_insee":"10216","nom_standard":"Mailly-le-Camp","nom_a":null,"nom_de":null,"slug_ville":"mailly-le-camp","departement_id":610,"code_postal":"10230","population":2021,"superficie_km2":"43.00","latitude_centre":"48.6739998","longitude_centre":"4.1859999","distance_km":21.33},{"id":4971,"code_insee":"51492","nom_standard":"Saint-Just-Sauvage","nom_a":null,"nom_de":null,"slug_ville":"saint-just-sauvage","departement_id":652,"code_postal":"51260","population":1396,"superficie_km2":"18.00","latitude_centre":"48.5480003","longitude_centre":"3.7720001","distance_km":23.5},{"id":4958,"code_insee":"51367","nom_standard":"Le Mesnil-sur-Oger","nom_a":null,"nom_de":null,"slug_ville":"le-mesnil-sur-oger","departement_id":652,"code_postal":"51190","population":1007,"superficie_km2":"8.00","latitude_centre":"48.9389992","longitude_centre":"4.0200000","distance_km":23.71},{"id":4945,"code_insee":"51237","nom_standard":"Esternay","nom_a":null,"nom_de":null,"slug_ville":"esternay","departement_id":652,"code_postal":"51310","population":1808,"superficie_km2":"32.00","latitude_centre":"48.7260017","longitude_centre":"3.5760000","distance_km":24.68},{"id":671,"code_insee":"10233","nom_standard":"Méry-sur-Seine","nom_a":null,"nom_de":null,"slug_ville":"mery-sur-seine","departement_id":610,"code_postal":"10170","population":1465,"superficie_km2":"12.00","latitude_centre":"48.5089989","longitude_centre":"3.8989999","distance_km":25.48},{"id":4923,"code_insee":"51029","nom_standard":"Avize","nom_a":null,"nom_de":null,"slug_ville":"avize","departement_id":652,"code_postal":"51190","population":1760,"superficie_km2":"8.00","latitude_centre":"48.9729996","longitude_centre":"4.0050001","distance_km":27},{"id":669,"code_insee":"10220","nom_standard":"Maizières-la-Grande-Paroisse","nom_a":null,"nom_de":null,"slug_ville":"maizieres-la-grande-paroisse","departement_id":610,"code_postal":"10510","population":1513,"superficie_km2":"20.00","latitude_centre":"48.5040016","longitude_centre":"3.7890000","distance_km":27.55},{"id":680,"code_insee":"10323","nom_standard":"Romilly-sur-Seine","nom_a":null,"nom_de":null,"slug_ville":"romilly-sur-seine","departement_id":610,"code_postal":"10100","population":14766,"superficie_km2":"25.00","latitude_centre":"48.5190010","longitude_centre":"3.7219999","distance_km":28.07},{"id":652,"code_insee":"10006","nom_standard":"Arcis-sur-Aube","nom_a":null,"nom_de":null,"slug_ville":"arcis-sur-aube","departement_id":610,"code_postal":"10700","population":2759,"superficie_km2":"9.00","latitude_centre":"48.5279999","longitude_centre":"4.1420002","distance_km":28.83},{"id":4959,"code_insee":"51380","nom_standard":"Montmirail","nom_a":null,"nom_de":null,"slug_ville":"montmirail","departement_id":652,"code_postal":"51210","population":3557,"superficie_km2":"48.00","latitude_centre":"48.8800011","longitude_centre":"3.5599999","distance_km":30.23},{"id":4921,"code_insee":"51002","nom_standard":"Saint-Martin-d'Ablois","nom_a":null,"nom_de":null,"slug_ville":"saint-martin-d-ablois","departement_id":652,"code_postal":"51530","population":1374,"superficie_km2":"22.00","latitude_centre":"49.0120010","longitude_centre":"3.8399999","distance_km":30.92},{"id":696,"code_insee":"10420","nom_standard":"Villenauxe-la-Grande","nom_a":null,"nom_de":null,"slug_ville":"villenauxe-la-grande","departement_id":610,"code_postal":"10370","population":2645,"superficie_km2":"18.00","latitude_centre":"48.5950012","longitude_centre":"3.5480001","distance_km":31.1},{"id":4963,"code_insee":"51431","nom_standard":"Pierry","nom_a":null,"nom_de":null,"slug_ville":"pierry","departement_id":652,"code_postal":"51530","population":1237,"superficie_km2":"5.00","latitude_centre":"49.0190010","longitude_centre":"3.9489999","distance_km":31.36},{"id":4934,"code_insee":"51153","nom_standard":"Chouilly","nom_a":null,"nom_de":null,"slug_ville":"chouilly","departement_id":652,"code_postal":"51530","population":1049,"superficie_km2":"16.00","latitude_centre":"49.0180016","longitude_centre":"4.0040002","distance_km":31.85},{"id":4944,"code_insee":"51230","nom_standard":"Épernay","nom_a":null,"nom_de":null,"slug_ville":"epernay","departement_id":652,"code_postal":"51200","population":22001,"superficie_km2":"23.00","latitude_centre":"49.0369988","longitude_centre":"3.9310000","distance_km":33.28},{"id":677,"code_insee":"10298","nom_standard":"Pont-sur-Seine","nom_a":null,"nom_de":null,"slug_ville":"pont-sur-seine","departement_id":610,"code_postal":"10400","population":1156,"superficie_km2":"16.00","latitude_centre":"48.5089989","longitude_centre":"3.5969999","distance_km":34.42},{"id":4956,"code_insee":"51344","nom_standard":"Mardeuil","nom_a":null,"nom_de":null,"slug_ville":"mardeuil","departement_id":652,"code_postal":"51530","population":1469,"superficie_km2":"9.00","latitude_centre":"49.0550003","longitude_centre":"3.9230001","distance_km":35.26}]}