{"ville":{"id":9335,"code_insee":"88114","nom_standard":"Contrexéville","nom_a":null,"nom_de":null,"slug_ville":"contrexeville","departement_id":689,"code_postal":"88140","population":3019,"superficie_km2":"15.00","latitude_centre":"48.1850014","longitude_centre":"5.8940001","dep_code":"88","dep_nom":"Vosges","dep_slug":"vosges","reg_code":"06","reg_nom":"Grand Est","reg_slug":"grand-est"},"departement":{"code":"88","nom":"Vosges","slug":"vosges"},"region":{"code":"06","nom":"Grand Est","slug":"grand-est"},"villes_proches":[{"id":9394,"code_insee":"88516","nom_standard":"Vittel","nom_a":null,"nom_de":null,"slug_ville":"vittel","departement_id":689,"code_postal":"88800","population":4793,"superficie_km2":"24.00","latitude_centre":"48.2010002","longitude_centre":"5.9540000","distance_km":4.79},{"id":9327,"code_insee":"88079","nom_standard":"Bulgnéville","nom_a":null,"nom_de":null,"slug_ville":"bulgneville","departement_id":689,"code_postal":"88140","population":1533,"superficie_km2":"13.00","latitude_centre":"48.2099991","longitude_centre":"5.8410001","distance_km":4.81},{"id":9332,"code_insee":"88095","nom_standard":"Châtenois","nom_a":null,"nom_de":null,"slug_ville":"chatenois","departement_id":689,"code_postal":"88170","population":1720,"superficie_km2":"18.00","latitude_centre":"48.3089981","longitude_centre":"5.8260002","distance_km":14.68},{"id":9338,"code_insee":"88124","nom_standard":"Darney","nom_a":null,"nom_de":null,"slug_ville":"darney","departement_id":689,"code_postal":"88260","population":1056,"superficie_km2":"8.00","latitude_centre":"48.0779991","longitude_centre":"6.0539999","distance_km":16.81},{"id":9357,"code_insee":"88304","nom_standard":"Mirecourt","nom_a":null,"nom_de":null,"slug_ville":"mirecourt","departement_id":689,"code_postal":"88500","population":4782,"superficie_km2":"12.00","latitude_centre":"48.2939987","longitude_centre":"6.1199999","distance_km":20.66},{"id":9343,"code_insee":"88151","nom_standard":"Dompaire","nom_a":null,"nom_de":null,"slug_ville":"dompaire","departement_id":689,"code_postal":"88270","population":1087,"superficie_km2":"17.00","latitude_centre":"48.2260017","longitude_centre":"6.2080002","distance_km":23.71},{"id":9359,"code_insee":"88321","nom_standard":"Neufchâteau","nom_a":null,"nom_de":null,"slug_ville":"neufchateau","departement_id":689,"code_postal":"88300","population":6580,"superficie_km2":"24.00","latitude_centre":"48.3559990","longitude_centre":"5.6910000","distance_km":24.23},{"id":9356,"code_insee":"88270","nom_standard":"Liffol-le-Grand","nom_a":null,"nom_de":null,"slug_ville":"liffol-le-grand","departement_id":689,"code_postal":"88350","population":2118,"superficie_km2":"34.00","latitude_centre":"48.3190002","longitude_centre":"5.5760002","distance_km":27.86},{"id":4991,"code_insee":"52060","nom_standard":"Bourbonne-les-Bains","nom_a":null,"nom_de":null,"slug_ville":"bourbonne-les-bains","departement_id":653,"code_postal":"52400","population":1969,"superficie_km2":"65.00","latitude_centre":"47.9440002","longitude_centre":"5.7420001","distance_km":29.08},{"id":9339,"code_insee":"88126","nom_standard":"Darnieulles","nom_a":null,"nom_de":null,"slug_ville":"darnieulles","departement_id":689,"code_postal":"88390","population":1370,"superficie_km2":"10.00","latitude_centre":"48.1980019","longitude_centre":"6.3379998","distance_km":32.94},{"id":5006,"code_insee":"52332","nom_standard":"Val-de-Meuse","nom_a":null,"nom_de":null,"slug_ville":"val-de-meuse","departement_id":653,"code_postal":"52140","population":1813,"superficie_km2":"77.00","latitude_centre":"48.0070000","longitude_centre":"5.5339999","distance_km":33.26},{"id":9323,"code_insee":"88029","nom_standard":"La Vôge-les-Bains","nom_a":null,"nom_de":null,"slug_ville":"la-voge-les-bains","departement_id":689,"code_postal":"88240","population":1572,"superficie_km2":"26.00","latitude_centre":"47.9970017","longitude_centre":"6.2620001","distance_km":34.41},{"id":9390,"code_insee":"88484","nom_standard":"Uzemain","nom_a":null,"nom_de":null,"slug_ville":"uzemain","departement_id":689,"code_postal":"88220","population":1045,"superficie_km2":"28.00","latitude_centre":"48.1020012","longitude_centre":"6.3439999","distance_km":34.64},{"id":9393,"code_insee":"88513","nom_standard":"Vincey","nom_a":null,"nom_de":null,"slug_ville":"vincey","departement_id":689,"code_postal":"88450","population":2112,"superficie_km2":"13.00","latitude_centre":"48.3300018","longitude_centre":"6.3290000","distance_km":36.01},{"id":9389,"code_insee":"88483","nom_standard":"Uxegney","nom_a":null,"nom_de":null,"slug_ville":"uxegney","departement_id":689,"code_postal":"88390","population":2265,"superficie_km2":"9.00","latitude_centre":"48.1959992","longitude_centre":"6.3820000","distance_km":36.2},{"id":5202,"code_insee":"54563","nom_standard":"Vézelise","nom_a":null,"nom_de":null,"slug_ville":"vezelise","departement_id":655,"code_postal":"54330","population":1364,"superficie_km2":"5.00","latitude_centre":"48.4830017","longitude_centre":"6.0939999","distance_km":36.28},{"id":5110,"code_insee":"54135","nom_standard":"Colombey-les-Belles","nom_a":null,"nom_de":null,"slug_ville":"colombey-les-belles","departement_id":655,"code_postal":"54170","population":1434,"superficie_km2":"18.00","latitude_centre":"48.5159988","longitude_centre":"5.8959999","distance_km":36.81},{"id":9347,"code_insee":"88178","nom_standard":"Les Forges","nom_a":null,"nom_de":null,"slug_ville":"les-forges","departement_id":689,"code_postal":"88390","population":1792,"superficie_km2":"7.00","latitude_centre":"48.1739998","longitude_centre":"6.3950000","distance_km":37.17},{"id":9360,"code_insee":"88327","nom_standard":"Nomexy","nom_a":null,"nom_de":null,"slug_ville":"nomexy","departement_id":689,"code_postal":"88440","population":1951,"superficie_km2":"8.00","latitude_centre":"48.3069992","longitude_centre":"6.3720002","distance_km":37.91},{"id":9354,"code_insee":"88247","nom_standard":"Igney","nom_a":null,"nom_de":null,"slug_ville":"igney","departement_id":689,"code_postal":"88150","population":1152,"superficie_km2":"8.00","latitude_centre":"48.2760010","longitude_centre":"6.3899999","distance_km":38.11}]}