{"ville":{"id":1213,"code_insee":"17120","nom_standard":"Corme-Royal","nom_a":null,"nom_de":null,"slug_ville":"corme-royal","departement_id":617,"code_postal":"17600","population":1939,"superficie_km2":"27.00","latitude_centre":"45.7459984","longitude_centre":"-0.8100000","dep_code":"17","dep_nom":"Charente-Maritime","dep_slug":"charente-maritime","reg_code":"15","reg_nom":"Nouvelle-Aquitaine","reg_slug":"nouvelle-aquitaine"},"departement":{"code":"17","nom":"Charente-Maritime","slug":"charente-maritime"},"region":{"code":"15","nom":"Nouvelle-Aquitaine","slug":"nouvelle-aquitaine"},"villes_proches":[{"id":1252,"code_insee":"17262","nom_standard":"Nieul-lès-Saintes","nom_a":null,"nom_de":null,"slug_ville":"nieul-les-saintes","departement_id":617,"code_postal":"17810","population":1239,"superficie_km2":"20.00","latitude_centre":"45.7540016","longitude_centre":"-0.7450000","distance_km":5.12},{"id":1299,"code_insee":"17393","nom_standard":"Saint-Romain-de-Benet","nom_a":null,"nom_de":null,"slug_ville":"saint-romain-de-benet","departement_id":617,"code_postal":"17600","population":1754,"superficie_km2":"33.00","latitude_centre":"45.6920013","longitude_centre":"-0.8560000","distance_km":6.99},{"id":1275,"code_insee":"17330","nom_standard":"Sainte-Gemme","nom_a":null,"nom_de":null,"slug_ville":"sainte-gemme","departement_id":617,"code_postal":"17250","population":1356,"superficie_km2":"41.00","latitude_centre":"45.7750015","longitude_centre":"-0.8930000","distance_km":7.2},{"id":1268,"code_insee":"17307","nom_standard":"Sablonceaux","nom_a":null,"nom_de":null,"slug_ville":"sablonceaux","departement_id":617,"code_postal":"17600","population":1404,"superficie_km2":"22.00","latitude_centre":"45.7140007","longitude_centre":"-0.8950000","distance_km":7.5},{"id":1278,"code_insee":"17336","nom_standard":"Saint-Georges-des-Coteaux","nom_a":null,"nom_de":null,"slug_ville":"saint-georges-des-coteaux","departement_id":617,"code_postal":"17810","population":2810,"superficie_km2":"19.00","latitude_centre":"45.7700005","longitude_centre":"-0.7010000","distance_km":8.87},{"id":1297,"code_insee":"17387","nom_standard":"Saint-Porchaire","nom_a":null,"nom_de":null,"slug_ville":"saint-porchaire","departement_id":617,"code_postal":"17250","population":1937,"superficie_km2":"17.00","latitude_centre":"45.8230019","longitude_centre":"-0.7750000","distance_km":8.98},{"id":1259,"code_insee":"17284","nom_standard":"Pont-l'Abbé-d'Arnoult","nom_a":null,"nom_de":null,"slug_ville":"pont-l-abbe-d-arnoult","departement_id":617,"code_postal":"17250","population":1792,"superficie_km2":"12.00","latitude_centre":"45.8260002","longitude_centre":"-0.8660000","distance_km":9.9},{"id":1262,"code_insee":"17296","nom_standard":"Rétaud","nom_a":null,"nom_de":null,"slug_ville":"retaud","departement_id":617,"code_postal":"17460","population":1058,"superficie_km2":"20.00","latitude_centre":"45.6730003","longitude_centre":"-0.7300000","distance_km":10.22},{"id":1246,"code_insee":"17232","nom_standard":"Meursac","nom_a":null,"nom_de":null,"slug_ville":"meursac","departement_id":617,"code_postal":"17120","population":1532,"superficie_km2":"26.00","latitude_centre":"45.6520004","longitude_centre":"-0.8200000","distance_km":10.48},{"id":1208,"code_insee":"17102","nom_standard":"Chermignac","nom_a":null,"nom_de":null,"slug_ville":"chermignac","departement_id":617,"code_postal":"17460","population":1266,"superficie_km2":"14.00","latitude_centre":"45.6930008","longitude_centre":"-0.6770000","distance_km":11.89},{"id":1231,"code_insee":"17185","nom_standard":"Le Gua","nom_a":null,"nom_de":null,"slug_ville":"le-gua","departement_id":617,"code_postal":"17600","population":2100,"superficie_km2":"38.00","latitude_centre":"45.7260017","longitude_centre":"-0.9650000","distance_km":12.23},{"id":1307,"code_insee":"17415","nom_standard":"Saintes","nom_a":null,"nom_de":null,"slug_ville":"saintes","departement_id":617,"code_postal":"17100","population":25518,"superficie_km2":"46.00","latitude_centre":"45.7420006","longitude_centre":"-0.6500000","distance_km":12.42},{"id":1309,"code_insee":"17421","nom_standard":"Saujon","nom_a":null,"nom_de":null,"slug_ville":"saujon","departement_id":617,"code_postal":"17600","population":7183,"superficie_km2":"19.00","latitude_centre":"45.6749992","longitude_centre":"-0.9370000","distance_km":12.63},{"id":1189,"code_insee":"17045","nom_standard":"Beurlay","nom_a":null,"nom_de":null,"slug_ville":"beurlay","departement_id":617,"code_postal":"17250","population":1013,"superficie_km2":"10.00","latitude_centre":"45.8610001","longitude_centre":"-0.8450000","distance_km":13.07},{"id":1212,"code_insee":"17119","nom_standard":"Corme-Écluse","nom_a":null,"nom_de":null,"slug_ville":"corme-ecluse","departement_id":617,"code_postal":"17600","population":1228,"superficie_km2":"18.00","latitude_centre":"45.6320000","longitude_centre":"-0.8640000","distance_km":13.35},{"id":1260,"code_insee":"17285","nom_standard":"Port-d'Envaux","nom_a":null,"nom_de":null,"slug_ville":"port-d-envaux","departement_id":617,"code_postal":"17350","population":1152,"superficie_km2":"23.00","latitude_centre":"45.8180008","longitude_centre":"-0.6720000","distance_km":13.36},{"id":1315,"code_insee":"17444","nom_standard":"Thénac","nom_a":null,"nom_de":null,"slug_ville":"thenac","departement_id":617,"code_postal":"17460","population":1705,"superficie_km2":"19.00","latitude_centre":"45.6759987","longitude_centre":"-0.6520000","distance_km":14.53},{"id":1197,"code_insee":"17073","nom_standard":"Bussac-sur-Charente","nom_a":null,"nom_de":null,"slug_ville":"bussac-sur-charente","departement_id":617,"code_postal":"17100","population":1282,"superficie_km2":"10.00","latitude_centre":"45.7919998","longitude_centre":"-0.6240000","distance_km":15.31},{"id":1244,"code_insee":"17228","nom_standard":"Médis","nom_a":null,"nom_de":null,"slug_ville":"medis","departement_id":617,"code_postal":"17600","population":3036,"superficie_km2":"24.00","latitude_centre":"45.6419983","longitude_centre":"-0.9570000","distance_km":16.25},{"id":1230,"code_insee":"17179","nom_standard":"Les Gonds","nom_a":null,"nom_de":null,"slug_ville":"les-gonds","departement_id":617,"code_postal":"17100","population":1789,"superficie_km2":"13.00","latitude_centre":"45.7060013","longitude_centre":"-0.6070000","distance_km":16.37}]}