{"ville":{"id":4937,"code_insee":"51171","nom_standard":"Cormicy","nom_a":null,"nom_de":null,"slug_ville":"cormicy","departement_id":652,"code_postal":"51220","population":1509,"superficie_km2":"24.00","latitude_centre":"49.3769989","longitude_centre":"3.9050000","dep_code":"51","dep_nom":"Marne","dep_slug":"marne","reg_code":"06","reg_nom":"Grand Est","reg_slug":"grand-est"},"departement":{"code":"51","nom":"Marne","slug":"marne"},"region":{"code":"06","nom":"Grand Est","slug":"grand-est"},"villes_proches":[{"id":4951,"code_insee":"51291","nom_standard":"Hermonville","nom_a":null,"nom_de":null,"slug_ville":"hermonville","departement_id":652,"code_postal":"51220","population":1398,"superficie_km2":"13.00","latitude_centre":"49.3320007","longitude_centre":"3.9140000","distance_km":5.05},{"id":4955,"code_insee":"51329","nom_standard":"Loivre","nom_a":null,"nom_de":null,"slug_ville":"loivre","departement_id":652,"code_postal":"51220","population":1409,"superficie_km2":"10.00","latitude_centre":"49.3460007","longitude_centre":"3.9749999","distance_km":6.13},{"id":228,"code_insee":"02360","nom_standard":"Villeneuve-sur-Aisne","nom_a":null,"nom_de":null,"slug_ville":"villeneuve-sur-aisne","departement_id":602,"code_postal":"02190","population":2784,"superficie_km2":"18.00","latitude_centre":"49.4430008","longitude_centre":"3.9549999","distance_km":8.18},{"id":4939,"code_insee":"51183","nom_standard":"Courcy","nom_a":null,"nom_de":null,"slug_ville":"courcy","departement_id":652,"code_postal":"51220","population":1247,"superficie_km2":"15.00","latitude_centre":"49.3199997","longitude_centre":"4.0060000","distance_km":9.68},{"id":4922,"code_insee":"51025","nom_standard":"Auménancourt","nom_a":null,"nom_de":null,"slug_ville":"aumenancourt","departement_id":652,"code_postal":"51110","population":1106,"superficie_km2":"13.00","latitude_centre":"49.3860016","longitude_centre":"4.0580001","distance_km":11.12},{"id":4961,"code_insee":"51391","nom_standard":"Muizon","nom_a":null,"nom_de":null,"slug_ville":"muizon","departement_id":652,"code_postal":"51140","population":2086,"superficie_km2":"7.00","latitude_centre":"49.2719994","longitude_centre":"3.8880000","distance_km":11.74},{"id":4952,"code_insee":"51308","nom_standard":"Jonchery-sur-Vesle","nom_a":null,"nom_de":null,"slug_ville":"jonchery-sur-vesle","departement_id":652,"code_postal":"51140","population":1831,"superficie_km2":"3.00","latitude_centre":"49.2859993","longitude_centre":"3.8180001","distance_km":11.92},{"id":4930,"code_insee":"51075","nom_standard":"Bourgogne-Fresne","nom_a":null,"nom_de":null,"slug_ville":"bourgogne-fresne","departement_id":652,"code_postal":"51110","population":1442,"superficie_km2":"14.00","latitude_centre":"49.3549995","longitude_centre":"4.0720000","distance_km":12.34},{"id":4933,"code_insee":"51118","nom_standard":"Champigny","nom_a":null,"nom_de":null,"slug_ville":"champigny","departement_id":652,"code_postal":"51370","population":1586,"superficie_km2":"4.00","latitude_centre":"49.2680016","longitude_centre":"3.9579999","distance_km":12.71},{"id":4970,"code_insee":"51474","nom_standard":"Saint-Brice-Courcelles","nom_a":null,"nom_de":null,"slug_ville":"saint-brice-courcelles","departement_id":652,"code_postal":"51370","population":3526,"superficie_km2":"4.00","latitude_centre":"49.2700005","longitude_centre":"3.9900000","distance_km":13.4},{"id":4950,"code_insee":"51282","nom_standard":"Gueux","nom_a":null,"nom_de":null,"slug_ville":"gueux","departement_id":652,"code_postal":"51390","population":1871,"superficie_km2":"9.00","latitude_centre":"49.2540016","longitude_centre":"3.9070001","distance_km":13.68},{"id":4927,"code_insee":"51055","nom_standard":"Bétheny","nom_a":null,"nom_de":null,"slug_ville":"betheny","departement_id":652,"code_postal":"51450","population":7086,"superficie_km2":"20.00","latitude_centre":"49.2960014","longitude_centre":"4.0599999","distance_km":14.4},{"id":4980,"code_insee":"51573","nom_standard":"Tinqueux","nom_a":null,"nom_de":null,"slug_ville":"tinqueux","departement_id":652,"code_postal":"51430","population":10552,"superficie_km2":"4.00","latitude_centre":"49.2500000","longitude_centre":"3.9879999","distance_km":15.35},{"id":255,"code_insee":"02676","nom_standard":"Saint-Erme-Outre-et-Ramecourt","nom_a":null,"nom_de":null,"slug_ville":"saint-erme-outre-et-ramecourt","departement_id":602,"code_postal":"02820","population":1705,"superficie_km2":"20.00","latitude_centre":"49.5180016","longitude_centre":"3.8640001","distance_km":15.96},{"id":4967,"code_insee":"51454","nom_standard":"Reims","nom_a":null,"nom_de":null,"slug_ville":"reims","departement_id":652,"code_postal":"51100","population":179380,"superficie_km2":"47.00","latitude_centre":"49.2519989","longitude_centre":"4.0400000","distance_km":17},{"id":4929,"code_insee":"51074","nom_standard":"Boult-sur-Suippe","nom_a":null,"nom_de":null,"slug_ville":"boult-sur-suippe","departement_id":652,"code_postal":"51110","population":1787,"superficie_km2":"20.00","latitude_centre":"49.3820000","longitude_centre":"4.1409998","distance_km":17.09},{"id":4986,"code_insee":"51662","nom_standard":"Witry-lès-Reims","nom_a":null,"nom_de":null,"slug_ville":"witry-les-reims","departement_id":652,"code_postal":"51420","population":4940,"superficie_km2":"17.00","latitude_centre":"49.2970009","longitude_centre":"4.1120000","distance_km":17.44},{"id":237,"code_insee":"02439","nom_standard":"Les Septvallons","nom_a":null,"nom_de":null,"slug_ville":"les-septvallons","departement_id":602,"code_postal":"02160","population":1215,"superficie_km2":"9.00","latitude_centre":"49.3600006","longitude_centre":"3.6559999","distance_km":18.13},{"id":4948,"code_insee":"51250","nom_standard":"Fismes","nom_a":null,"nom_de":null,"slug_ville":"fismes","departement_id":652,"code_postal":"51170","population":5803,"superficie_km2":"17.00","latitude_centre":"49.3059998","longitude_centre":"3.6789999","distance_km":18.18},{"id":4928,"code_insee":"51058","nom_standard":"Bezannes","nom_a":null,"nom_de":null,"slug_ville":"bezannes","departement_id":652,"code_postal":"51430","population":4011,"superficie_km2":"8.00","latitude_centre":"49.2200012","longitude_centre":"3.9900000","distance_km":18.51}]}