{"ville":{"id":16309,"code_insee":"24135","nom_standard":"Cornille","nom_a":null,"nom_de":null,"slug_ville":"cornille","departement_id":0,"code_postal":"24750","population":687,"superficie_km2":"1341.03","latitude_centre":"45.2443","longitude_centre":"0.7818","dep_code":"24","dep_nom":"Dordogne","dep_slug":"dordogne","reg_code":"75","reg_nom":"Nouvelle-Aquitaine","reg_slug":"nouvelle-aquitaine"},"departement":{"code":"24","nom":"Dordogne","slug":"dordogne"},"region":{"code":"75","nom":"Nouvelle-Aquitaine","slug":"nouvelle-aquitaine"},"villes_proches":[{"id":0,"code_insee":"24557","nom_standard":"Trélissac","nom_a":null,"nom_de":null,"slug_ville":"trelissac","departement_id":0,"code_postal":"24750","population":7372,"superficie_km2":"2404.68","latitude_centre":"45.2114","longitude_centre":"0.7738","distance_km":3.71},{"id":0,"code_insee":"24011","nom_standard":"Antonne-et-Trigonant","nom_a":null,"nom_de":null,"slug_ville":"antonne-et-trigonant","departement_id":0,"code_postal":"24420","population":1185,"superficie_km2":"2103.08","latitude_centre":"45.2275","longitude_centre":"0.8289","distance_km":4.13},{"id":0,"code_insee":"24002","nom_standard":"Agonac","nom_a":null,"nom_de":null,"slug_ville":"agonac","departement_id":0,"code_postal":"24460","population":1765,"superficie_km2":"3813.92","latitude_centre":"45.2785","longitude_centre":"0.7415","distance_km":4.94},{"id":0,"code_insee":"24098","nom_standard":"Champcevinel","nom_a":null,"nom_de":null,"slug_ville":"champcevinel","departement_id":0,"code_postal":"24750","population":3126,"superficie_km2":"1834.92","latitude_centre":"45.2198","longitude_centre":"0.7227","distance_km":5.37},{"id":0,"code_insee":"24521","nom_standard":"Sarliac-sur-l'Isle","nom_a":null,"nom_de":null,"slug_ville":"sarliac-sur-l-isle","departement_id":0,"code_postal":"24420","population":1054,"superficie_km2":"1000.70","latitude_centre":"45.2374","longitude_centre":"0.8582","distance_km":6.03},{"id":0,"code_insee":"24162","nom_standard":"Escoire","nom_a":null,"nom_de":null,"slug_ville":"escoire","departement_id":0,"code_postal":"24420","population":401,"superficie_km2":"393.09","latitude_centre":"45.2067","longitude_centre":"0.8542","distance_km":7.04},{"id":0,"code_insee":"24115","nom_standard":"Château-l'Évêque","nom_a":null,"nom_de":null,"slug_ville":"chateau-l-eveque","departement_id":0,"code_postal":"24460","population":2158,"superficie_km2":"3723.47","latitude_centre":"45.2555","longitude_centre":"0.6868","distance_km":7.54},{"id":0,"code_insee":"24540","nom_standard":"Sorges et Ligueux en Périgord","nom_a":null,"nom_de":null,"slug_ville":"sorges-et-ligueux-en-perigord","departement_id":0,"code_postal":"24420","population":1650,"superficie_km2":"5554.20","latitude_centre":"45.2929","longitude_centre":"0.8505","distance_km":7.62},{"id":0,"code_insee":"24322","nom_standard":"Périgueux","nom_a":null,"nom_de":null,"slug_ville":"perigueux","departement_id":0,"code_postal":"24000","population":29055,"superficie_km2":"1012.08","latitude_centre":"45.1939","longitude_centre":"0.7105","distance_km":7.91},{"id":0,"code_insee":"24408","nom_standard":"Saint-Front-d'Alemps","nom_a":null,"nom_de":null,"slug_ville":"saint-front-d-alemps","departement_id":0,"code_postal":"24460","population":252,"superficie_km2":"1934.84","latitude_centre":"45.3203","longitude_centre":"0.7986","distance_km":8.55},{"id":0,"code_insee":"24513","nom_standard":"Saint-Vincent-sur-l'Isle","nom_a":null,"nom_de":null,"slug_ville":"saint-vincent-sur-l-isle","departement_id":0,"code_postal":"24420","population":307,"superficie_km2":"1027.94","latitude_centre":"45.2407","longitude_centre":"0.9002","distance_km":9.28},{"id":0,"code_insee":"24102","nom_standard":"Chancelade","nom_a":null,"nom_de":null,"slug_ville":"chancelade","departement_id":0,"code_postal":"24650","population":4468,"superficie_km2":"1697.35","latitude_centre":"45.2107","longitude_centre":"0.6539","distance_km":10.69},{"id":0,"code_insee":"24138","nom_standard":"Coulounieix-Chamiers","nom_a":null,"nom_de":null,"slug_ville":"coulounieix-chamiers","departement_id":0,"code_postal":"24660","population":7832,"superficie_km2":"2161.69","latitude_centre":"45.1712","longitude_centre":"0.6861","distance_km":11.06},{"id":0,"code_insee":"24527","nom_standard":"Savignac-les-Églises","nom_a":null,"nom_de":null,"slug_ville":"savignac-les-eglises","departement_id":0,"code_postal":"24420","population":1005,"superficie_km2":"2286.43","latitude_centre":"45.2818","longitude_centre":"0.9131","distance_km":11.09},{"id":0,"code_insee":"24053","nom_standard":"Boulazac Isle Manoire","nom_a":null,"nom_de":null,"slug_ville":"boulazac-isle-manoire","departement_id":0,"code_postal":"24330","population":10759,"superficie_km2":"5754.92","latitude_centre":"45.1385","longitude_centre":"0.7878","distance_km":11.77},{"id":0,"code_insee":"24026","nom_standard":"Bassillac et Auberoche","nom_a":null,"nom_de":null,"slug_ville":"bassillac-et-auberoche","departement_id":0,"code_postal":"24330","population":4361,"superficie_km2":"10531.60","latitude_centre":"45.1577","longitude_centre":"0.88","distance_km":12.33},{"id":0,"code_insee":"24238","nom_standard":"Lempzours","nom_a":null,"nom_de":null,"slug_ville":"lempzours","departement_id":0,"code_postal":"24800","population":134,"superficie_km2":"1129.03","latitude_centre":"45.3556","longitude_centre":"0.8279","distance_km":12.89},{"id":0,"code_insee":"24308","nom_standard":"Négrondes","nom_a":null,"nom_de":null,"slug_ville":"negrondes","departement_id":0,"code_postal":"24460","population":778,"superficie_km2":"2086.58","latitude_centre":"45.3396","longitude_centre":"0.8769","distance_km":12.95},{"id":16288,"code_insee":"24107","nom_standard":"La Chapelle-Faucher","nom_a":null,"nom_de":null,"slug_ville":"la-chapelle-faucher","departement_id":0,"code_postal":"24530","population":395,"superficie_km2":"1925.80","latitude_centre":"45.3759","longitude_centre":"0.7622","distance_km":14.71},{"id":0,"code_insee":"24485","nom_standard":"Saint-Pierre-de-Côle","nom_a":null,"nom_de":null,"slug_ville":"saint-pierre-de-cole","departement_id":0,"code_postal":"24800","population":432,"superficie_km2":"2071.37","latitude_centre":"45.3778","longitude_centre":"0.8158","distance_km":15.08}]}