{"ville":{"id":10378,"code_insee":"02219","nom_standard":"Coucy-la-Ville","nom_a":null,"nom_de":null,"slug_ville":"coucy-la-ville","departement_id":0,"code_postal":"02380","population":194,"superficie_km2":"612.35","latitude_centre":"49.5414","longitude_centre":"3.3413","dep_code":"02","dep_nom":"Aisne","dep_slug":"aisne","reg_code":"32","reg_nom":"Hauts-de-France","reg_slug":"hauts-de-france"},"departement":{"code":"02","nom":"Aisne","slug":"aisne"},"region":{"code":"32","nom":"Hauts-de-France","slug":"hauts-de-france"},"villes_proches":[{"id":0,"code_insee":"02786","nom_standard":"Verneuil-sous-Coucy","nom_a":null,"nom_de":null,"slug_ville":"verneuil-sous-coucy","departement_id":0,"code_postal":"02380","population":139,"superficie_km2":"463.50","latitude_centre":"49.5446","longitude_centre":"3.3188","distance_km":1.66},{"id":0,"code_insee":"02333","nom_standard":"Fresnes-sous-Coucy","nom_a":null,"nom_de":null,"slug_ville":"fresnes-sous-coucy","departement_id":0,"code_postal":"02380","population":160,"superficie_km2":"722.28","latitude_centre":"49.5523","longitude_centre":"3.3678","distance_km":2.26},{"id":0,"code_insee":"02395","nom_standard":"Jumencourt","nom_a":null,"nom_de":null,"slug_ville":"jumencourt","departement_id":0,"code_postal":"02380","population":120,"superficie_km2":"617.71","latitude_centre":"49.5151","longitude_centre":"3.3484","distance_km":2.97},{"id":10237,"code_insee":"02052","nom_standard":"Bassoles-Aulers","nom_a":null,"nom_de":null,"slug_ville":"bassoles-aulers","departement_id":0,"code_postal":"02380","population":131,"superficie_km2":"708.32","latitude_centre":"49.5328","longitude_centre":"3.3828","distance_km":3.14},{"id":10376,"code_insee":"02217","nom_standard":"Coucy-le-Château-Auffrique","nom_a":null,"nom_de":null,"slug_ville":"coucy-le-chateau-auffrique","departement_id":0,"code_postal":"02380","population":990,"superficie_km2":"1138.41","latitude_centre":"49.514","longitude_centre":"3.3178","distance_km":3.49},{"id":0,"code_insee":"02318","nom_standard":"Folembray","nom_a":null,"nom_de":null,"slug_ville":"folembray","departement_id":0,"code_postal":"02670","population":1355,"superficie_km2":"892.97","latitude_centre":"49.55","longitude_centre":"3.2896","distance_km":3.85},{"id":0,"code_insee":"02406","nom_standard":"Landricourt","nom_a":null,"nom_de":null,"slug_ville":"landricourt","departement_id":0,"code_postal":"02380","population":126,"superficie_km2":"578.84","latitude_centre":"49.5104","longitude_centre":"3.3717","distance_km":4.09},{"id":10234,"code_insee":"02049","nom_standard":"Barisis-aux-Bois","nom_a":null,"nom_de":null,"slug_ville":"barisis-aux-bois","departement_id":0,"code_postal":"02700","population":752,"superficie_km2":"1491.02","latitude_centre":"49.5814","longitude_centre":"3.332","distance_km":4.5},{"id":0,"code_insee":"02707","nom_standard":"Septvaux","nom_a":null,"nom_de":null,"slug_ville":"septvaux","departement_id":0,"code_postal":"02410","population":179,"superficie_km2":"846.04","latitude_centre":"49.5704","longitude_centre":"3.3856","distance_km":4.54},{"id":0,"code_insee":"02632","nom_standard":"Quincy-Basse","nom_a":null,"nom_de":null,"slug_ville":"quincy-basse","departement_id":0,"code_postal":"02380","population":53,"superficie_km2":"394.41","latitude_centre":"49.5091","longitude_centre":"3.3824","distance_km":4.66},{"id":0,"code_insee":"02619","nom_standard":"Prémontré","nom_a":null,"nom_de":null,"slug_ville":"premontre","departement_id":0,"code_postal":"02320","population":594,"superficie_km2":"830.31","latitude_centre":"49.5493","longitude_centre":"3.4153","distance_km":5.41},{"id":10286,"code_insee":"02111","nom_standard":"Brancourt-en-Laonnois","nom_a":null,"nom_de":null,"slug_ville":"brancourt-en-laonnois","departement_id":0,"code_postal":"02320","population":702,"superficie_km2":"670.52","latitude_centre":"49.517","longitude_centre":"3.4128","distance_km":5.83},{"id":10327,"code_insee":"02159","nom_standard":"Champs","nom_a":null,"nom_de":null,"slug_ville":"champs","departement_id":0,"code_postal":"02670","population":313,"superficie_km2":"922.56","latitude_centre":"49.538","longitude_centre":"3.257","distance_km":6.09},{"id":0,"code_insee":"02363","nom_standard":"Guny","nom_a":null,"nom_de":null,"slug_ville":"guny","departement_id":0,"code_postal":"02300","population":357,"superficie_km2":"941.90","latitude_centre":"49.5117","longitude_centre":"3.2641","distance_km":6.48},{"id":0,"code_insee":"02236","nom_standard":"Crécy-au-Mont","nom_a":null,"nom_de":null,"slug_ville":"crecy-au-mont","departement_id":0,"code_postal":"02380","population":335,"superficie_km2":"1180.96","latitude_centre":"49.4846","longitude_centre":"3.3141","distance_km":6.61},{"id":0,"code_insee":"02616","nom_standard":"Pont-Saint-Mard","nom_a":null,"nom_de":null,"slug_ville":"pont-saint-mard","departement_id":0,"code_postal":"02380","population":176,"superficie_km2":"682.52","latitude_centre":"49.4967","longitude_centre":"3.2785","distance_km":6.73},{"id":0,"code_insee":"02680","nom_standard":"Saint-Gobain","nom_a":null,"nom_de":null,"slug_ville":"saint-gobain","departement_id":0,"code_postal":"02410","population":2288,"superficie_km2":"2975.98","latitude_centre":"49.5966","longitude_centre":"3.394","distance_km":7.22},{"id":0,"code_insee":"02423","nom_standard":"Leuilly-sous-Coucy","nom_a":null,"nom_de":null,"slug_ville":"leuilly-sous-coucy","departement_id":0,"code_postal":"02380","population":455,"superficie_km2":"1269.84","latitude_centre":"49.4755","longitude_centre":"3.3501","distance_km":7.36},{"id":10204,"code_insee":"02014","nom_standard":"Amigny-Rouy","nom_a":null,"nom_de":null,"slug_ville":"amigny-rouy","departement_id":0,"code_postal":"02700","population":707,"superficie_km2":"1312.20","latitude_centre":"49.6111","longitude_centre":"3.3059","distance_km":8.16},{"id":0,"code_insee":"02716","nom_standard":"Servais","nom_a":null,"nom_de":null,"slug_ville":"servais","departement_id":0,"code_postal":"02700","population":287,"superficie_km2":"559.80","latitude_centre":"49.6194","longitude_centre":"3.3422","distance_km":8.67}]}