{"ville":{"id":21483,"code_insee":"41065","nom_standard":"Coulommiers-la-Tour","nom_a":null,"nom_de":null,"slug_ville":"coulommiers-la-tour","departement_id":0,"code_postal":"41100","population":575,"superficie_km2":"1215.11","latitude_centre":"47.78","longitude_centre":"1.1356","dep_code":"41","dep_nom":"Loir-et-Cher","dep_slug":"loir-et-cher","reg_code":"24","reg_nom":"Centre-Val de Loire","reg_slug":"centre-val-de-loire"},"departement":{"code":"41","nom":"Loir-et-Cher","slug":"loir-et-cher"},"region":{"code":"24","nom":"Centre-Val de Loire","slug":"centre-val-de-loire"},"villes_proches":[{"id":0,"code_insee":"41291","nom_standard":"Villetrun","nom_a":null,"nom_de":null,"slug_ville":"villetrun","departement_id":0,"code_postal":"41100","population":316,"superficie_km2":"684.20","latitude_centre":"47.786","longitude_centre":"1.1635","distance_km":2.19},{"id":21446,"code_insee":"41003","nom_standard":"Areines","nom_a":null,"nom_de":null,"slug_ville":"areines","departement_id":0,"code_postal":"41100","population":572,"superficie_km2":"485.84","latitude_centre":"47.7976","longitude_centre":"1.1021","distance_km":3.18},{"id":0,"code_insee":"41174","nom_standard":"Périgny","nom_a":null,"nom_de":null,"slug_ville":"perigny","departement_id":0,"code_postal":"41100","population":166,"superficie_km2":"1039.36","latitude_centre":"47.7523","longitude_centre":"1.1486","distance_km":3.23},{"id":0,"code_insee":"41190","nom_standard":"Rocé","nom_a":null,"nom_de":null,"slug_ville":"roce","departement_id":0,"code_postal":"41100","population":218,"superficie_km2":"1026.63","latitude_centre":"47.8119","longitude_centre":"1.1517","distance_km":3.75},{"id":0,"code_insee":"41138","nom_standard":"Meslay","nom_a":null,"nom_de":null,"slug_ville":"meslay","departement_id":0,"code_postal":"41100","population":297,"superficie_km2":"715.08","latitude_centre":"47.8136","longitude_centre":"1.1097","distance_km":4.21},{"id":0,"code_insee":"41200","nom_standard":"Sainte-Anne","nom_a":null,"nom_de":null,"slug_ville":"sainte-anne","departement_id":0,"code_postal":"41100","population":476,"superficie_km2":"513.46","latitude_centre":"47.7598","longitude_centre":"1.0844","distance_km":4.44},{"id":0,"code_insee":"41081","nom_standard":"Faye","nom_a":null,"nom_de":null,"slug_ville":"faye","departement_id":0,"code_postal":"41100","population":216,"superficie_km2":"881.85","latitude_centre":"47.8061","longitude_centre":"1.1887","distance_km":4.91},{"id":0,"code_insee":"41269","nom_standard":"Vendôme","nom_a":null,"nom_de":null,"slug_ville":"vendome","departement_id":0,"code_postal":"41100","population":15758,"superficie_km2":"2386.48","latitude_centre":"47.7995","longitude_centre":"1.0646","distance_km":5.73},{"id":0,"code_insee":"41243","nom_standard":"Selommes","nom_a":null,"nom_de":null,"slug_ville":"selommes","departement_id":0,"code_postal":"41100","population":785,"superficie_km2":"2807.71","latitude_centre":"47.7652","longitude_centre":"1.2101","distance_km":5.81},{"id":0,"code_insee":"41072","nom_standard":"Crucheray","nom_a":null,"nom_de":null,"slug_ville":"crucheray","departement_id":0,"code_postal":"41100","population":427,"superficie_km2":"2562.77","latitude_centre":"47.7331","longitude_centre":"1.0918","distance_km":6.16},{"id":0,"code_insee":"41290","nom_standard":"Villeromain","nom_a":null,"nom_de":null,"slug_ville":"villeromain","departement_id":0,"code_postal":"41100","population":216,"superficie_km2":"1304.27","latitude_centre":"47.7199","longitude_centre":"1.1463","distance_km":6.73},{"id":0,"code_insee":"41226","nom_standard":"Saint-Ouen","nom_a":null,"nom_de":null,"slug_ville":"saint-ouen","departement_id":0,"code_postal":"41100","population":3041,"superficie_km2":"1119.35","latitude_centre":"47.8238","longitude_centre":"1.0673","distance_km":7.05},{"id":0,"code_insee":"41187","nom_standard":"Renay","nom_a":null,"nom_de":null,"slug_ville":"renay","departement_id":0,"code_postal":"41100","population":174,"superficie_km2":"1208.61","latitude_centre":"47.8382","longitude_centre":"1.1781","distance_km":7.21},{"id":0,"code_insee":"41283","nom_standard":"Villemardy","nom_a":null,"nom_de":null,"slug_ville":"villemardy","departement_id":0,"code_postal":"41100","population":264,"superficie_km2":"1221.76","latitude_centre":"47.724","longitude_centre":"1.1894","distance_km":7.41},{"id":0,"code_insee":"41209","nom_standard":"Saint-Firmin-des-Prés","nom_a":null,"nom_de":null,"slug_ville":"saint-firmin-des-pres","departement_id":0,"code_postal":"41100","population":744,"superficie_km2":"1397.37","latitude_centre":"47.8441","longitude_centre":"1.1039","distance_km":7.51},{"id":21467,"code_insee":"41037","nom_standard":"La Chapelle-Enchérie","nom_a":null,"nom_de":null,"slug_ville":"la-chapelle-encherie","departement_id":0,"code_postal":"41290","population":212,"superficie_km2":"1081.15","latitude_centre":"47.8261","longitude_centre":"1.2103","distance_km":7.58},{"id":0,"code_insee":"41175","nom_standard":"Pezou","nom_a":null,"nom_de":null,"slug_ville":"pezou","departement_id":0,"code_postal":"41100","population":1101,"superficie_km2":"1407.91","latitude_centre":"47.8681","longitude_centre":"1.1477","distance_km":9.84},{"id":0,"code_insee":"41261","nom_standard":"Tourailles","nom_a":null,"nom_de":null,"slug_ville":"tourailles","departement_id":0,"code_postal":"41190","population":129,"superficie_km2":"748.87","latitude_centre":"47.691","longitude_centre":"1.1547","distance_km":10.0},{"id":0,"code_insee":"41116","nom_standard":"Lisle","nom_a":null,"nom_de":null,"slug_ville":"lisle","departement_id":0,"code_postal":"41100","population":181,"superficie_km2":"664.56","latitude_centre":"47.8702","longitude_centre":"1.1078","distance_km":10.24},{"id":0,"code_insee":"41182","nom_standard":"Pray","nom_a":null,"nom_de":null,"slug_ville":"pray","departement_id":0,"code_postal":"41190","population":278,"superficie_km2":"1061.10","latitude_centre":"47.6866","longitude_centre":"1.11","distance_km":10.56}]}