{"ville":{"id":18801,"code_insee":"31153","nom_standard":"Couladère","nom_a":null,"nom_de":null,"slug_ville":"couladere","departement_id":0,"code_postal":"31220","population":415,"superficie_km2":"229.38","latitude_centre":"43.1962","longitude_centre":"1.0935","dep_code":"31","dep_nom":"Haute-Garonne","dep_slug":"haute-garonne","reg_code":"76","reg_nom":"Occitanie","reg_slug":"occitanie"},"departement":{"code":"31","nom":"Haute-Garonne","slug":"haute-garonne"},"region":{"code":"76","nom":"Occitanie","slug":"occitanie"},"villes_proches":[{"id":0,"code_insee":"31135","nom_standard":"Cazères","nom_a":null,"nom_de":null,"slug_ville":"cazeres","departement_id":0,"code_postal":"31220","population":4854,"superficie_km2":"1977.41","latitude_centre":"43.2155","longitude_centre":"1.1005","distance_km":2.22},{"id":0,"code_insee":"31406","nom_standard":"Palaminy","nom_a":null,"nom_de":null,"slug_ville":"palaminy","departement_id":0,"code_postal":"31220","population":751,"superficie_km2":"1128.93","latitude_centre":"43.1948","longitude_centre":"1.059","distance_km":2.8},{"id":0,"code_insee":"31474","nom_standard":"Saint-Christaud","nom_a":null,"nom_de":null,"slug_ville":"saint-christaud","departement_id":0,"code_postal":"31310","population":235,"superficie_km2":"1083.39","latitude_centre":"43.1915","longitude_centre":"1.1329","distance_km":3.24},{"id":0,"code_insee":"31505","nom_standard":"Saint-Michel","nom_a":null,"nom_de":null,"slug_ville":"saint-michel","departement_id":0,"code_postal":"31220","population":306,"superficie_km2":"1557.05","latitude_centre":"43.1613","longitude_centre":"1.0819","distance_km":3.99},{"id":0,"code_insee":"31425","nom_standard":"Le Plan","nom_a":null,"nom_de":null,"slug_ville":"le-plan","departement_id":0,"code_postal":"31220","population":441,"superficie_km2":"813.32","latitude_centre":"43.1631","longitude_centre":"1.1246","distance_km":4.46},{"id":0,"code_insee":"31219","nom_standard":"Gensac-sur-Garonne","nom_a":null,"nom_de":null,"slug_ville":"gensac-sur-garonne","departement_id":0,"code_postal":"31310","population":451,"superficie_km2":"1048.16","latitude_centre":"43.2161","longitude_centre":"1.1422","distance_km":4.53},{"id":0,"code_insee":"31422","nom_standard":"Plagne","nom_a":null,"nom_de":null,"slug_ville":"plagne","departement_id":0,"code_postal":"31220","population":95,"superficie_km2":"422.90","latitude_centre":"43.1591","longitude_centre":"1.0584","distance_km":5.01},{"id":0,"code_insee":"31367","nom_standard":"Montclar-de-Comminges","nom_a":null,"nom_de":null,"slug_ville":"montclar-de-comminges","departement_id":0,"code_postal":"31220","population":79,"superficie_km2":"634.29","latitude_centre":"43.169","longitude_centre":"1.033","distance_km":5.76},{"id":0,"code_insee":"31327","nom_standard":"Mauran","nom_a":null,"nom_de":null,"slug_ville":"mauran","departement_id":0,"code_postal":"31220","population":201,"superficie_km2":"525.58","latitude_centre":"43.1857","longitude_centre":"1.0193","distance_km":6.13},{"id":0,"code_insee":"31362","nom_standard":"Montberaud","nom_a":null,"nom_de":null,"slug_ville":"montberaud","departement_id":0,"code_postal":"31220","population":192,"superficie_km2":"1600.09","latitude_centre":"43.1611","longitude_centre":"1.1535","distance_km":6.24},{"id":0,"code_insee":"31349","nom_standard":"Mondavezan","nom_a":null,"nom_de":null,"slug_ville":"mondavezan","departement_id":0,"code_postal":"31220","population":880,"superficie_km2":"2138.98","latitude_centre":"43.2394","longitude_centre":"1.041","distance_km":6.42},{"id":0,"code_insee":"31286","nom_standard":"Lavelanet-de-Comminges","nom_a":null,"nom_de":null,"slug_ville":"lavelanet-de-comminges","departement_id":0,"code_postal":"31220","population":653,"superficie_km2":"1376.25","latitude_centre":"43.2545","longitude_centre":"1.1149","distance_km":6.71},{"id":0,"code_insee":"31225","nom_standard":"Goutevernisse","nom_a":null,"nom_de":null,"slug_ville":"goutevernisse","departement_id":0,"code_postal":"31310","population":185,"superficie_km2":"481.02","latitude_centre":"43.2138","longitude_centre":"1.1738","distance_km":6.8},{"id":18714,"code_insee":"31030","nom_standard":"Ausseing","nom_a":null,"nom_de":null,"slug_ville":"ausseing","departement_id":0,"code_postal":"31260","population":91,"superficie_km2":"593.62","latitude_centre":"43.1561","longitude_centre":"1.0284","distance_km":6.91},{"id":0,"code_insee":"31492","nom_standard":"Saint-Julien-sur-Garonne","nom_a":null,"nom_de":null,"slug_ville":"saint-julien-sur-garonne","departement_id":0,"code_postal":"31220","population":549,"superficie_km2":"812.50","latitude_centre":"43.2497","longitude_centre":"1.146","distance_km":7.31},{"id":0,"code_insee":"31530","nom_standard":"Sana","nom_a":null,"nom_de":null,"slug_ville":"sana","departement_id":0,"code_postal":"31220","population":236,"superficie_km2":"274.92","latitude_centre":"43.2277","longitude_centre":"1.0115","distance_km":7.51},{"id":0,"code_insee":"31226","nom_standard":"Gouzens","nom_a":null,"nom_de":null,"slug_ville":"gouzens","departement_id":0,"code_postal":"31310","population":81,"superficie_km2":"566.78","latitude_centre":"43.1802","longitude_centre":"1.1843","distance_km":7.57},{"id":12311,"code_insee":"09120","nom_standard":"Fabas","nom_a":null,"nom_de":null,"slug_ville":"fabas","departement_id":0,"code_postal":"09230","population":354,"superficie_km2":"2325.99","latitude_centre":"43.1213","longitude_centre":"1.1105","distance_km":8.44},{"id":12286,"code_insee":"09094","nom_standard":"Cérizols","nom_a":null,"nom_de":null,"slug_ville":"cerizols","departement_id":0,"code_postal":"09230","population":138,"superficie_km2":"1451.64","latitude_centre":"43.1211","longitude_centre":"1.0675","distance_km":8.61},{"id":18731,"code_insee":"31059","nom_standard":"Belbèze-en-Comminges","nom_a":null,"nom_de":null,"slug_ville":"belbeze-en-comminges","departement_id":0,"code_postal":"31260","population":108,"superficie_km2":"962.84","latitude_centre":"43.1326","longitude_centre":"1.0273","distance_km":8.88}]}