{"ville":{"id":13581,"code_insee":"14193","nom_standard":"Courtonne-la-Meurdrac","nom_a":null,"nom_de":null,"slug_ville":"courtonne-la-meurdrac","departement_id":0,"code_postal":"14100","population":683,"superficie_km2":"1281.48","latitude_centre":"49.1209","longitude_centre":"0.3306","dep_code":"14","dep_nom":"Calvados","dep_slug":"calvados","reg_code":"28","reg_nom":"Normandie","reg_slug":"normandie"},"departement":{"code":"14","nom":"Calvados","slug":"calvados"},"region":{"code":"28","nom":"Normandie","slug":"normandie"},"villes_proches":[{"id":0,"code_insee":"14571","nom_standard":"Saint-Denis-de-Mailloc","nom_a":null,"nom_de":null,"slug_ville":"saint-denis-de-mailloc","departement_id":0,"code_postal":"14100","population":296,"superficie_km2":"434.24","latitude_centre":"49.0987","longitude_centre":"0.317","distance_km":2.66},{"id":13575,"code_insee":"14179","nom_standard":"Cordebugle","nom_a":null,"nom_de":null,"slug_ville":"cordebugle","departement_id":0,"code_postal":"14100","population":160,"superficie_km2":"903.64","latitude_centre":"49.1143","longitude_centre":"0.3789","distance_km":3.59},{"id":0,"code_insee":"14403","nom_standard":"Marolles","nom_a":null,"nom_de":null,"slug_ville":"marolles","departement_id":0,"code_postal":"14100","population":749,"superficie_km2":"1233.78","latitude_centre":"49.1403","longitude_centre":"0.3706","distance_km":3.62},{"id":0,"code_insee":"14303","nom_standard":"Glos","nom_a":null,"nom_de":null,"slug_ville":"glos","departement_id":0,"code_postal":"14100","population":931,"superficie_km2":"1300.46","latitude_centre":"49.1237","longitude_centre":"0.2805","distance_km":3.66},{"id":0,"code_insee":"14270","nom_standard":"Firfol","nom_a":null,"nom_de":null,"slug_ville":"firfol","departement_id":0,"code_postal":"14100","population":366,"superficie_km2":"505.77","latitude_centre":"49.1536","longitude_centre":"0.3188","distance_km":3.74},{"id":0,"code_insee":"14421","nom_standard":"Le Mesnil-Guillaume","nom_a":null,"nom_de":null,"slug_ville":"le-mesnil-guillaume","departement_id":0,"code_postal":"14100","population":551,"superficie_km2":"387.19","latitude_centre":"49.1055","longitude_centre":"0.2821","distance_km":3.92},{"id":0,"code_insee":"14484","nom_standard":"Ouilly-du-Houley","nom_a":null,"nom_de":null,"slug_ville":"ouilly-du-houley","departement_id":0,"code_postal":"14590","population":256,"superficie_km2":"902.60","latitude_centre":"49.1635","longitude_centre":"0.3355","distance_km":4.75},{"id":0,"code_insee":"14626","nom_standard":"Saint-Martin-de-Mailloc","nom_a":null,"nom_de":null,"slug_ville":"saint-martin-de-mailloc","departement_id":0,"code_postal":"14100","population":1040,"superficie_km2":"730.89","latitude_centre":"49.089","longitude_centre":"0.283","distance_km":4.96},{"id":0,"code_insee":"14194","nom_standard":"Courtonne-les-Deux-Églises","nom_a":null,"nom_de":null,"slug_ville":"courtonne-les-deux-eglises","departement_id":0,"code_postal":"14290","population":627,"superficie_km2":"1404.87","latitude_centre":"49.0856","longitude_centre":"0.3755","distance_km":5.11},{"id":0,"code_insee":"14326","nom_standard":"Hermival-les-Vaux","nom_a":null,"nom_de":null,"slug_ville":"hermival-les-vaux","departement_id":0,"code_postal":"14100","population":861,"superficie_km2":"1395.72","latitude_centre":"49.1657","longitude_centre":"0.2979","distance_km":5.52},{"id":0,"code_insee":"14069","nom_standard":"Beuvillers","nom_a":null,"nom_de":null,"slug_ville":"beuvillers","departement_id":0,"code_postal":"14100","population":1283,"superficie_km2":"493.15","latitude_centre":"49.1276","longitude_centre":"0.249","distance_km":5.98},{"id":0,"code_insee":"14334","nom_standard":"L'Hôtellerie","nom_a":null,"nom_de":null,"slug_ville":"l-hotellerie","departement_id":0,"code_postal":"14100","population":313,"superficie_km2":"584.26","latitude_centre":"49.1409","longitude_centre":"0.4079","distance_km":6.05},{"id":0,"code_insee":"14293","nom_standard":"Fumichon","nom_a":null,"nom_de":null,"slug_ville":"fumichon","departement_id":0,"code_postal":"14590","population":268,"superficie_km2":"669.32","latitude_centre":"49.1722","longitude_centre":"0.3759","distance_km":6.59},{"id":0,"code_insee":"14570","nom_standard":"Valorbiquet","nom_a":null,"nom_de":null,"slug_ville":"valorbiquet","departement_id":0,"code_postal":"14290","population":2439,"superficie_km2":"2887.37","latitude_centre":"49.0614","longitude_centre":"0.3336","distance_km":6.62},{"id":0,"code_insee":"14366","nom_standard":"Lisieux","nom_a":null,"nom_de":null,"slug_ville":"lisieux","departement_id":0,"code_postal":"14100","population":19645,"superficie_km2":"1306.19","latitude_centre":"49.1477","longitude_centre":"0.2426","distance_km":7.06},{"id":0,"code_insee":"14595","nom_standard":"Saint-Jean-de-Livet","nom_a":null,"nom_de":null,"slug_ville":"saint-jean-de-livet","departement_id":0,"code_postal":"14100","population":229,"superficie_km2":"353.66","latitude_centre":"49.0932","longitude_centre":"0.2426","distance_km":7.11},{"id":0,"code_insee":"14522","nom_standard":"Prêtreville","nom_a":null,"nom_de":null,"slug_ville":"pretreville","departement_id":0,"code_postal":"14140","population":391,"superficie_km2":"1134.94","latitude_centre":"49.0726","longitude_centre":"0.2526","distance_km":7.82},{"id":0,"code_insee":"14460","nom_standard":"Moyaux","nom_a":null,"nom_de":null,"slug_ville":"moyaux","departement_id":0,"code_postal":"14590","population":1383,"superficie_km2":"1659.64","latitude_centre":"49.1974","longitude_centre":"0.3491","distance_km":8.61},{"id":0,"code_insee":"14260","nom_standard":"Fauguernon","nom_a":null,"nom_de":null,"slug_ville":"fauguernon","departement_id":0,"code_postal":"14100","population":221,"superficie_km2":"760.06","latitude_centre":"49.1888","longitude_centre":"0.2725","distance_km":8.65},{"id":0,"code_insee":"14621","nom_standard":"Saint-Martin-de-Bienfaite-la-Cressonnière","nom_a":null,"nom_de":null,"slug_ville":"saint-martin-de-bienfaite-la-cressonniere","departement_id":0,"code_postal":"14290","population":536,"superficie_km2":"1163.13","latitude_centre":"49.0314","longitude_centre":"0.3522","distance_km":10.08}]}