{"ville":{"id":14476,"code_insee":"17126","nom_standard":"Courcerac","nom_a":null,"nom_de":null,"slug_ville":"courcerac","departement_id":0,"code_postal":"17160","population":316,"superficie_km2":"635.38","latitude_centre":"45.8387","longitude_centre":"-0.3637","dep_code":"17","dep_nom":"Charente-Maritime","dep_slug":"charente-maritime","reg_code":"75","reg_nom":"Nouvelle-Aquitaine","reg_slug":"nouvelle-aquitaine"},"departement":{"code":"17","nom":"Charente-Maritime","slug":"charente-maritime"},"region":{"code":"75","nom":"Nouvelle-Aquitaine","slug":"nouvelle-aquitaine"},"villes_proches":[{"id":0,"code_insee":"17290","nom_standard":"Prignac","nom_a":null,"nom_de":null,"slug_ville":"prignac","departement_id":0,"code_postal":"17160","population":282,"superficie_km2":"691.74","latitude_centre":"45.8319","longitude_centre":"-0.3482","distance_km":1.42},{"id":14408,"code_insee":"17023","nom_standard":"Aujac","nom_a":null,"nom_de":null,"slug_ville":"aujac","departement_id":0,"code_postal":"17770","population":372,"superficie_km2":"870.53","latitude_centre":"45.8441","longitude_centre":"-0.4013","distance_km":2.97},{"id":0,"code_insee":"17446","nom_standard":"Thors","nom_a":null,"nom_de":null,"slug_ville":"thors","departement_id":0,"code_postal":"17160","population":477,"superficie_km2":"569.60","latitude_centre":"45.8252","longitude_centre":"-0.3172","distance_km":3.9},{"id":14427,"code_insee":"17048","nom_standard":"Blanzac-lès-Matha","nom_a":null,"nom_de":null,"slug_ville":"blanzac-les-matha","departement_id":0,"code_postal":"17160","population":345,"superficie_km2":"958.34","latitude_centre":"45.875","longitude_centre":"-0.354","distance_km":4.11},{"id":0,"code_insee":"17239","nom_standard":"Mons","nom_a":null,"nom_de":null,"slug_ville":"mons","departement_id":0,"code_postal":"17160","population":445,"superficie_km2":"1577.52","latitude_centre":"45.8053","longitude_centre":"-0.3372","distance_km":4.24},{"id":0,"code_insee":"17224","nom_standard":"Matha","nom_a":null,"nom_de":null,"slug_ville":"matha","departement_id":0,"code_postal":"17160","population":2191,"superficie_km2":"1928.70","latitude_centre":"45.8656","longitude_centre":"-0.3157","distance_km":4.77},{"id":14410,"code_insee":"17026","nom_standard":"Authon-Ébéon","nom_a":null,"nom_de":null,"slug_ville":"authon-ebeon","departement_id":0,"code_postal":"17770","population":410,"superficie_km2":"1191.22","latitude_centre":"45.8447","longitude_centre":"-0.4259","distance_km":4.86},{"id":0,"code_insee":"17235","nom_standard":"Migron","nom_a":null,"nom_de":null,"slug_ville":"migron","departement_id":0,"code_postal":"17770","population":694,"superficie_km2":"1503.52","latitude_centre":"45.8039","longitude_centre":"-0.4049","distance_km":5.02},{"id":0,"code_insee":"17426","nom_standard":"Le Seure","nom_a":null,"nom_de":null,"slug_ville":"le-seure","departement_id":0,"code_postal":"17770","population":274,"superficie_km2":"539.99","latitude_centre":"45.7921","longitude_centre":"-0.3551","distance_km":5.22},{"id":14409,"code_insee":"17025","nom_standard":"Aumagne","nom_a":null,"nom_de":null,"slug_ville":"aumagne","departement_id":0,"code_postal":"17770","population":694,"superficie_km2":"2045.61","latitude_centre":"45.8807","longitude_centre":"-0.4105","distance_km":5.91},{"id":0,"code_insee":"17428","nom_standard":"Sonnac","nom_a":null,"nom_de":null,"slug_ville":"sonnac","departement_id":0,"code_postal":"17160","population":512,"superficie_km2":"1684.10","latitude_centre":"45.83","longitude_centre":"-0.279","distance_km":6.63},{"id":14444,"code_insee":"17071","nom_standard":"La Brousse","nom_a":null,"nom_de":null,"slug_ville":"la-brousse","departement_id":0,"code_postal":"17160","population":516,"superficie_km2":"1885.92","latitude_centre":"45.9006","longitude_centre":"-0.3684","distance_km":6.89},{"id":14255,"code_insee":"16218","nom_standard":"Mesnac","nom_a":null,"nom_de":null,"slug_ville":"mesnac","departement_id":0,"code_postal":"16370","population":404,"superficie_km2":"656.88","latitude_centre":"45.7744","longitude_centre":"-0.3433","distance_km":7.32},{"id":0,"code_insee":"17470","nom_standard":"Villars-les-Bois","nom_a":null,"nom_de":null,"slug_ville":"villars-les-bois","departement_id":0,"code_postal":"17770","population":257,"superficie_km2":"859.15","latitude_centre":"45.7963","longitude_centre":"-0.4365","distance_km":7.35},{"id":14423,"code_insee":"17042","nom_standard":"Bercloux","nom_a":null,"nom_de":null,"slug_ville":"bercloux","departement_id":0,"code_postal":"17770","population":448,"superficie_km2":"960.59","latitude_centre":"45.8401","longitude_centre":"-0.4596","distance_km":7.43},{"id":14412,"code_insee":"17029","nom_standard":"Bagnizeau","nom_a":null,"nom_de":null,"slug_ville":"bagnizeau","departement_id":0,"code_postal":"17160","population":177,"superficie_km2":"974.14","latitude_centre":"45.9008","longitude_centre":"-0.3162","distance_km":7.82},{"id":0,"code_insee":"17072","nom_standard":"Burie","nom_a":null,"nom_de":null,"slug_ville":"burie","departement_id":0,"code_postal":"17770","population":1338,"superficie_km2":"921.70","latitude_centre":"45.778","longitude_centre":"-0.4294","distance_km":8.46},{"id":0,"code_insee":"16097","nom_standard":"Val-de-Cognac","nom_a":null,"nom_de":null,"slug_ville":"val-de-cognac","departement_id":0,"code_postal":"16370","population":3471,"superficie_km2":"6096.82","latitude_centre":"45.748","longitude_centre":"-0.374","distance_km":10.12},{"id":0,"code_insee":"17459","nom_standard":"Varaize","nom_a":null,"nom_de":null,"slug_ville":"varaize","departement_id":0,"code_postal":"17400","population":533,"superficie_km2":"2024.37","latitude_centre":"45.9181","longitude_centre":"-0.4275","distance_km":10.12},{"id":0,"code_insee":"17367","nom_standard":"Saint-Martin-de-Juillers","nom_a":null,"nom_de":null,"slug_ville":"saint-martin-de-juillers","departement_id":0,"code_postal":"17400","population":151,"superficie_km2":"843.79","latitude_centre":"45.938","longitude_centre":"-0.3434","distance_km":11.15}]}