{"ville":{"id":19605,"code_insee":"33137","nom_standard":"Cours-les-Bains","nom_a":null,"nom_de":null,"slug_ville":"cours-les-bains","departement_id":0,"code_postal":"33690","population":227,"superficie_km2":"1043.88","latitude_centre":"44.3788","longitude_centre":"-0.006","dep_code":"33","dep_nom":"Gironde","dep_slug":"gironde","reg_code":"75","reg_nom":"Nouvelle-Aquitaine","reg_slug":"nouvelle-aquitaine"},"departement":{"code":"33","nom":"Gironde","slug":"gironde"},"region":{"code":"75","nom":"Nouvelle-Aquitaine","slug":"nouvelle-aquitaine"},"villes_proches":[{"id":0,"code_insee":"47010","nom_standard":"Antagnac","nom_a":null,"nom_de":null,"slug_ville":"antagnac","departement_id":0,"code_postal":"47700","population":223,"superficie_km2":"937.23","latitude_centre":"44.3561","longitude_centre":"-0.0023","distance_km":2.54},{"id":0,"code_insee":"33195","nom_standard":"Grignols","nom_a":null,"nom_de":null,"slug_ville":"grignols","departement_id":0,"code_postal":"33690","population":1216,"superficie_km2":"2279.74","latitude_centre":"44.4085","longitude_centre":"-0.0281","distance_km":3.74},{"id":0,"code_insee":"47227","nom_standard":"Ruffiac","nom_a":null,"nom_de":null,"slug_ville":"ruffiac","departement_id":0,"code_postal":"47700","population":179,"superficie_km2":"1302.53","latitude_centre":"44.3685","longitude_centre":"0.0392","distance_km":3.77},{"id":0,"code_insee":"33513","nom_standard":"Sillas","nom_a":null,"nom_de":null,"slug_ville":"sillas","departement_id":0,"code_postal":"33690","population":119,"superficie_km2":"766.34","latitude_centre":"44.3711","longitude_centre":"-0.0585","distance_km":4.26},{"id":0,"code_insee":"47224","nom_standard":"Romestaing","nom_a":null,"nom_de":null,"slug_ville":"romestaing","departement_id":0,"code_postal":"47250","population":163,"superficie_km2":"1558.36","latitude_centre":"44.4153","longitude_centre":"0.0174","distance_km":4.46},{"id":0,"code_insee":"33276","nom_standard":"Masseilles","nom_a":null,"nom_de":null,"slug_ville":"masseilles","departement_id":0,"code_postal":"33690","population":136,"superficie_km2":"674.29","latitude_centre":"44.4009","longitude_centre":"-0.0586","distance_km":4.85},{"id":0,"code_insee":"47254","nom_standard":"Saint-Martin-Curton","nom_a":null,"nom_de":null,"slug_ville":"saint-martin-curton","departement_id":0,"code_postal":"47700","population":302,"superficie_km2":"4158.11","latitude_centre":"44.329","longitude_centre":"-0.0167","distance_km":5.6},{"id":0,"code_insee":"47013","nom_standard":"Argenton","nom_a":null,"nom_de":null,"slug_ville":"argenton","departement_id":0,"code_postal":"47250","population":331,"superficie_km2":"1217.89","latitude_centre":"44.3834","longitude_centre":"0.0661","distance_km":5.75},{"id":0,"code_insee":"47115","nom_standard":"Guérin","nom_a":null,"nom_de":null,"slug_ville":"guerin","departement_id":0,"code_postal":"47250","population":246,"superficie_km2":"1049.84","latitude_centre":"44.4121","longitude_centre":"0.0563","distance_km":6.18},{"id":19589,"code_insee":"33113","nom_standard":"Cauvignac","nom_a":null,"nom_de":null,"slug_ville":"cauvignac","departement_id":0,"code_postal":"33690","population":143,"superficie_km2":"554.86","latitude_centre":"44.4171","longitude_centre":"-0.0686","distance_km":6.55},{"id":0,"code_insee":"33271","nom_standard":"Marions","nom_a":null,"nom_de":null,"slug_ville":"marions","departement_id":0,"code_postal":"33690","population":206,"superficie_km2":"1630.84","latitude_centre":"44.373","longitude_centre":"-0.0881","distance_km":6.56},{"id":0,"code_insee":"47212","nom_standard":"Poussignac","nom_a":null,"nom_de":null,"slug_ville":"poussignac","departement_id":0,"code_postal":"47700","population":309,"superficie_km2":"1312.59","latitude_centre":"44.3511","longitude_centre":"0.0772","distance_km":7.3},{"id":0,"code_insee":"47026","nom_standard":"Beauziac","nom_a":null,"nom_de":null,"slug_ville":"beauziac","departement_id":0,"code_postal":"47700","population":241,"superficie_km2":"1544.24","latitude_centre":"44.3158","longitude_centre":"0.0311","distance_km":7.6},{"id":0,"code_insee":"47068","nom_standard":"Cocumont","nom_a":null,"nom_de":null,"slug_ville":"cocumont","departement_id":0,"code_postal":"47250","population":1133,"superficie_km2":"2554.41","latitude_centre":"44.4509","longitude_centre":"0.033","distance_km":8.59},{"id":0,"code_insee":"33235","nom_standard":"Lavazan","nom_a":null,"nom_de":null,"slug_ville":"lavazan","departement_id":0,"code_postal":"33690","population":228,"superficie_km2":"893.43","latitude_centre":"44.3926","longitude_centre":"-0.1133","distance_km":8.66},{"id":0,"code_insee":"33511","nom_standard":"Sendets","nom_a":null,"nom_de":null,"slug_ville":"sendets","departement_id":0,"code_postal":"33690","population":354,"superficie_km2":"838.10","latitude_centre":"44.4272","longitude_centre":"-0.0928","distance_km":8.75},{"id":0,"code_insee":"33512","nom_standard":"Sigalens","nom_a":null,"nom_de":null,"slug_ville":"sigalens","departement_id":0,"code_postal":"33690","population":342,"superficie_km2":"1831.94","latitude_centre":"44.4567","longitude_centre":"-0.0324","distance_km":8.91},{"id":0,"code_insee":"33212","nom_standard":"Labescau","nom_a":null,"nom_de":null,"slug_ville":"labescau","departement_id":0,"code_postal":"33690","population":140,"superficie_km2":"601.98","latitude_centre":"44.4511","longitude_centre":"-0.0812","distance_km":10.02},{"id":0,"code_insee":"47205","nom_standard":"Pindères","nom_a":null,"nom_de":null,"slug_ville":"pinderes","departement_id":0,"code_postal":"47700","population":189,"superficie_km2":"4108.75","latitude_centre":"44.2723","longitude_centre":"0.0006","distance_km":11.85},{"id":0,"code_insee":"47277","nom_standard":"Saint-Sauveur-de-Meilhan","nom_a":null,"nom_de":null,"slug_ville":"saint-sauveur-de-meilhan","departement_id":0,"code_postal":"47180","population":341,"superficie_km2":"705.79","latitude_centre":"44.4892","longitude_centre":"-0.0035","distance_km":12.28}]}