{"ville":{"id":34336,"code_insee":"88118","nom_standard":"Coussey","nom_a":null,"nom_de":null,"slug_ville":"coussey","departement_id":0,"code_postal":"88630","population":716,"superficie_km2":"1623.91","latitude_centre":"48.4136","longitude_centre":"5.6671","dep_code":"88","dep_nom":"Vosges","dep_slug":"vosges","reg_code":"44","reg_nom":"Grand Est","reg_slug":"grand-est"},"departement":{"code":"88","nom":"Vosges","slug":"vosges"},"region":{"code":"44","nom":"Grand Est","slug":"grand-est"},"villes_proches":[{"id":0,"code_insee":"88305","nom_standard":"Moncel-sur-Vair","nom_a":null,"nom_de":null,"slug_ville":"moncel-sur-vair","departement_id":0,"code_postal":"88630","population":171,"superficie_km2":"729.61","latitude_centre":"48.4221","longitude_centre":"5.7044","distance_km":2.91},{"id":0,"code_insee":"88457","nom_standard":"Sionne","nom_a":null,"nom_de":null,"slug_ville":"sionne","departement_id":0,"code_postal":"88630","population":139,"superficie_km2":"1189.49","latitude_centre":"48.395","longitude_centre":"5.6355","distance_km":3.12},{"id":0,"code_insee":"88154","nom_standard":"Domrémy-la-Pucelle","nom_a":null,"nom_de":null,"slug_ville":"domremy-la-pucelle","departement_id":0,"code_postal":"88630","population":102,"superficie_km2":"897.83","latitude_centre":"48.4409","longitude_centre":"5.6566","distance_km":3.13},{"id":0,"code_insee":"88183","nom_standard":"Frebécourt","nom_a":null,"nom_de":null,"slug_ville":"frebecourt","departement_id":0,"code_postal":"88630","population":341,"superficie_km2":"1056.10","latitude_centre":"48.3821","longitude_centre":"5.6756","distance_km":3.56},{"id":0,"code_insee":"88453","nom_standard":"Seraumont","nom_a":null,"nom_de":null,"slug_ville":"seraumont","departement_id":0,"code_postal":"88630","population":33,"superficie_km2":"1041.71","latitude_centre":"48.4322","longitude_centre":"5.6075","distance_km":4.86},{"id":0,"code_insee":"88219","nom_standard":"Greux","nom_a":null,"nom_de":null,"slug_ville":"greux","departement_id":0,"code_postal":"88630","population":130,"superficie_km2":"811.84","latitude_centre":"48.4581","longitude_centre":"5.6665","distance_km":4.95},{"id":25267,"code_insee":"55436","nom_standard":"Les Roises","nom_a":null,"nom_de":null,"slug_ville":"les-roises","departement_id":0,"code_postal":"55130","population":27,"superficie_km2":"378.12","latitude_centre":"48.4521","longitude_centre":"5.6327","distance_km":4.98},{"id":0,"code_insee":"88293","nom_standard":"Maxey-sur-Meuse","nom_a":null,"nom_de":null,"slug_ville":"maxey-sur-meuse","departement_id":0,"code_postal":"88630","population":213,"superficie_km2":"1089.46","latitude_centre":"48.4492","longitude_centre":"5.7167","distance_km":5.39},{"id":0,"code_insee":"88460","nom_standard":"Soulosse-sous-Saint-Élophe","nom_a":null,"nom_de":null,"slug_ville":"soulosse-sous-saint-elophe","departement_id":0,"code_postal":"88630","population":649,"superficie_km2":"1959.46","latitude_centre":"48.4109","longitude_centre":"5.744","distance_km":5.68},{"id":25346,"code_insee":"55534","nom_standard":"Vaudeville-le-Haut","nom_a":null,"nom_de":null,"slug_ville":"vaudeville-le-haut","departement_id":0,"code_postal":"55130","population":46,"superficie_km2":"968.28","latitude_centre":"48.4465","longitude_centre":"5.594","distance_km":6.52},{"id":0,"code_insee":"88321","nom_standard":"Neufchâteau","nom_a":null,"nom_de":null,"slug_ville":"neufchateau","departement_id":0,"code_postal":"88300","population":6732,"superficie_km2":"3195.80","latitude_centre":"48.3568","longitude_centre":"5.7026","distance_km":6.84},{"id":0,"code_insee":"88303","nom_standard":"Midrevaux","nom_a":null,"nom_de":null,"slug_ville":"midrevaux","departement_id":0,"code_postal":"88630","population":173,"superficie_km2":"1424.17","latitude_centre":"48.3869","longitude_centre":"5.5827","distance_km":6.9},{"id":0,"code_insee":"88308","nom_standard":"Mont-lès-Neufchâteau","nom_a":null,"nom_de":null,"slug_ville":"mont-les-neufchateau","departement_id":0,"code_postal":"88300","population":267,"superficie_km2":"1148.54","latitude_centre":"48.3513","longitude_centre":"5.6452","distance_km":7.11},{"id":25087,"code_insee":"55217","nom_standard":"Goussaincourt","nom_a":null,"nom_de":null,"slug_ville":"goussaincourt","departement_id":0,"code_postal":"55140","population":117,"superficie_km2":"1033.02","latitude_centre":"48.4826","longitude_centre":"5.6718","distance_km":7.68},{"id":24982,"code_insee":"55080","nom_standard":"Brixey-aux-Chanoines","nom_a":null,"nom_de":null,"slug_ville":"brixey-aux-chanoines","departement_id":0,"code_postal":"55140","population":77,"superficie_km2":"762.58","latitude_centre":"48.4754","longitude_centre":"5.7161","distance_km":7.76},{"id":0,"code_insee":"88255","nom_standard":"Jubainville","nom_a":null,"nom_de":null,"slug_ville":"jubainville","departement_id":0,"code_postal":"88630","population":88,"superficie_km2":"434.56","latitude_centre":"48.4572","longitude_centre":"5.7508","distance_km":7.85},{"id":0,"code_insee":"88344","nom_standard":"Pargny-sous-Mureau","nom_a":null,"nom_de":null,"slug_ville":"pargny-sous-mureau","departement_id":0,"code_postal":"88350","population":190,"superficie_km2":"1786.26","latitude_centre":"48.3638","longitude_centre":"5.59","distance_km":7.94},{"id":25379,"code_insee":"55575","nom_standard":"Vouthon-Haut","nom_a":null,"nom_de":null,"slug_ville":"vouthon-haut","departement_id":0,"code_postal":"55130","population":73,"superficie_km2":"1336.49","latitude_centre":"48.4784","longitude_centre":"5.6071","distance_km":8.46},{"id":25378,"code_insee":"55574","nom_standard":"Vouthon-Bas","nom_a":null,"nom_de":null,"slug_ville":"vouthon-bas","departement_id":0,"code_postal":"55130","population":42,"superficie_km2":"711.68","latitude_centre":"48.4888","longitude_centre":"5.6165","distance_km":9.16},{"id":24990,"code_insee":"55089","nom_standard":"Burey-la-Côte","nom_a":null,"nom_de":null,"slug_ville":"burey-la-cote","departement_id":0,"code_postal":"55140","population":86,"superficie_km2":"426.36","latitude_centre":"48.5011","longitude_centre":"5.6838","distance_km":9.81}]}