{"ville":{"id":27595,"code_insee":"62253","nom_standard":"Couturelle","nom_a":null,"nom_de":null,"slug_ville":"couturelle","departement_id":0,"code_postal":"62158","population":76,"superficie_km2":"212.79","latitude_centre":"50.2069","longitude_centre":"2.5","dep_code":"62","dep_nom":"Pas-de-Calais","dep_slug":"pas-de-calais","reg_code":"32","reg_nom":"Hauts-de-France","reg_slug":"hauts-de-france"},"departement":{"code":"62","nom":"Pas-de-Calais","slug":"pas-de-calais"},"region":{"code":"32","nom":"Hauts-de-France","slug":"hauts-de-france"},"villes_proches":[{"id":0,"code_insee":"62784","nom_standard":"Saulty","nom_a":null,"nom_de":null,"slug_ville":"saulty","departement_id":0,"code_postal":"62158","population":750,"superficie_km2":"1288.01","latitude_centre":"50.2127","longitude_centre":"2.5251","distance_km":1.9},{"id":27589,"code_insee":"62243","nom_standard":"Coullemont","nom_a":null,"nom_de":null,"slug_ville":"coullemont","departement_id":0,"code_postal":"62158","population":111,"superficie_km2":"406.15","latitude_centre":"50.2207","longitude_centre":"2.4787","distance_km":2.16},{"id":0,"code_insee":"80445","nom_standard":"Humbercourt","nom_a":null,"nom_de":null,"slug_ville":"humbercourt","departement_id":0,"code_postal":"80600","population":247,"superficie_km2":"833.25","latitude_centre":"50.2109","longitude_centre":"2.4597","distance_km":2.9},{"id":0,"code_insee":"62877","nom_standard":"Warlincourt-lès-Pas","nom_a":null,"nom_de":null,"slug_ville":"warlincourt-les-pas","departement_id":0,"code_postal":"62760","population":177,"superficie_km2":"514.80","latitude_centre":"50.1805","longitude_centre":"2.5055","distance_km":2.96},{"id":0,"code_insee":"62389","nom_standard":"Grincourt-lès-Pas","nom_a":null,"nom_de":null,"slug_ville":"grincourt-les-pas","departement_id":0,"code_postal":"62760","population":32,"superficie_km2":"281.53","latitude_centre":"50.1779","longitude_centre":"2.4882","distance_km":3.33},{"id":0,"code_insee":"62879","nom_standard":"Warluzel","nom_a":null,"nom_de":null,"slug_ville":"warluzel","departement_id":0,"code_postal":"62810","population":218,"superficie_km2":"406.11","latitude_centre":"50.2306","longitude_centre":"2.4689","distance_km":3.44},{"id":0,"code_insee":"62798","nom_standard":"Sombrin","nom_a":null,"nom_de":null,"slug_ville":"sombrin","departement_id":0,"code_postal":"62810","population":205,"superficie_km2":"661.50","latitude_centre":"50.238","longitude_centre":"2.5043","distance_km":3.47},{"id":0,"code_insee":"62368","nom_standard":"Gaudiempré","nom_a":null,"nom_de":null,"slug_ville":"gaudiempre","departement_id":0,"code_postal":"62760","population":215,"superficie_km2":"622.31","latitude_centre":"50.1781","longitude_centre":"2.5256","distance_km":3.68},{"id":0,"code_insee":"62434","nom_standard":"La Herlière","nom_a":null,"nom_de":null,"slug_ville":"la-herliere","departement_id":0,"code_postal":"62158","population":135,"superficie_km2":"539.83","latitude_centre":"50.1991","longitude_centre":"2.5588","distance_km":4.27},{"id":0,"code_insee":"62583","nom_standard":"Mondicourt","nom_a":null,"nom_de":null,"slug_ville":"mondicourt","departement_id":0,"code_postal":"62760","population":600,"superficie_km2":"507.17","latitude_centre":"50.1742","longitude_centre":"2.467","distance_km":4.33},{"id":0,"code_insee":"80495","nom_standard":"Lucheux","nom_a":null,"nom_de":null,"slug_ville":"lucheux","departement_id":0,"code_postal":"80600","population":521,"superficie_km2":"2794.18","latitude_centre":"50.204","longitude_centre":"2.4287","distance_km":5.08},{"id":27473,"code_insee":"62086","nom_standard":"Bavincourt","nom_a":null,"nom_de":null,"slug_ville":"bavincourt","departement_id":0,"code_postal":"62158","population":417,"superficie_km2":"763.83","latitude_centre":"50.2236","longitude_centre":"2.567","distance_km":5.12},{"id":27471,"code_insee":"62084","nom_standard":"Barly","nom_a":null,"nom_de":null,"slug_ville":"barly","departement_id":0,"code_postal":"62810","population":199,"superficie_km2":"613.60","latitude_centre":"50.2486","longitude_centre":"2.5374","distance_km":5.35},{"id":0,"code_insee":"62385","nom_standard":"Grand-Rullecourt","nom_a":null,"nom_de":null,"slug_ville":"grand-rullecourt","departement_id":0,"code_postal":"62810","population":383,"superficie_km2":"1078.95","latitude_centre":"50.2536","longitude_centre":"2.4797","distance_km":5.39},{"id":0,"code_insee":"62741","nom_standard":"Saint-Amand","nom_a":null,"nom_de":null,"slug_ville":"saint-amand","departement_id":0,"code_postal":"62760","population":122,"superficie_km2":"546.80","latitude_centre":"50.1716","longitude_centre":"2.5633","distance_km":5.98},{"id":0,"code_insee":"62649","nom_standard":"Pas-en-Artois","nom_a":null,"nom_de":null,"slug_ville":"pas-en-artois","departement_id":0,"code_postal":"62760","population":768,"superficie_km2":"1085.56","latitude_centre":"50.1532","longitude_centre":"2.4899","distance_km":6.01},{"id":0,"code_insee":"62430","nom_standard":"Hénu","nom_a":null,"nom_de":null,"slug_ville":"henu","departement_id":0,"code_postal":"62760","population":147,"superficie_km2":"428.76","latitude_centre":"50.1556","longitude_centre":"2.5335","distance_km":6.18},{"id":0,"code_insee":"62663","nom_standard":"Pommera","nom_a":null,"nom_de":null,"slug_ville":"pommera","departement_id":0,"code_postal":"62760","population":307,"superficie_km2":"444.19","latitude_centre":"50.1671","longitude_centre":"2.4392","distance_km":6.19},{"id":0,"code_insee":"62063","nom_standard":"Avesnes-le-Comte","nom_a":null,"nom_de":null,"slug_ville":"avesnes-le-comte","departement_id":0,"code_postal":"62810","population":1840,"superficie_km2":"929.89","latitude_centre":"50.2688","longitude_centre":"2.533","distance_km":7.27},{"id":27478,"code_insee":"62092","nom_standard":"Beaufort-Blavincourt","nom_a":null,"nom_de":null,"slug_ville":"beaufort-blavincourt","departement_id":0,"code_postal":"62810","population":403,"superficie_km2":"813.41","latitude_centre":"50.2751","longitude_centre":"2.4856","distance_km":7.65}]}