{"ville":{"id":23484,"code_insee":"51196","nom_standard":"Cramant","nom_a":null,"nom_de":null,"slug_ville":"cramant","departement_id":0,"code_postal":"51530","population":871,"superficie_km2":"535.51","latitude_centre":"48.9879","longitude_centre":"4.0004","dep_code":"51","dep_nom":"Marne","dep_slug":"marne","reg_code":"44","reg_nom":"Grand Est","reg_slug":"grand-est"},"departement":{"code":"51","nom":"Marne","slug":"marne"},"region":{"code":"44","nom":"Grand Est","slug":"grand-est"},"villes_proches":[{"id":0,"code_insee":"51029","nom_standard":"Avize","nom_a":null,"nom_de":null,"slug_ville":"avize","departement_id":0,"code_postal":"51190","population":1742,"superficie_km2":"762.58","latitude_centre":"48.9724","longitude_centre":"4.0056","distance_km":1.76},{"id":0,"code_insee":"51200","nom_standard":"Cuis","nom_a":null,"nom_de":null,"slug_ville":"cuis","departement_id":0,"code_postal":"51530","population":368,"superficie_km2":"828.42","latitude_centre":"48.9989","longitude_centre":"3.967","distance_km":2.73},{"id":0,"code_insee":"51153","nom_standard":"Chouilly","nom_a":null,"nom_de":null,"slug_ville":"chouilly","departement_id":0,"code_postal":"51530","population":1064,"superficie_km2":"1607.55","latitude_centre":"49.0146","longitude_centre":"4.0013","distance_km":2.97},{"id":0,"code_insee":"51281","nom_standard":"Grauves","nom_a":null,"nom_de":null,"slug_ville":"grauves","departement_id":0,"code_postal":"51190","population":618,"superficie_km2":"782.66","latitude_centre":"48.9702","longitude_centre":"3.9604","distance_km":3.52},{"id":0,"code_insee":"51413","nom_standard":"Oiry","nom_a":null,"nom_de":null,"slug_ville":"oiry","departement_id":0,"code_postal":"51530","population":884,"superficie_km2":"1075.92","latitude_centre":"49.0075","longitude_centre":"4.0415","distance_km":3.71},{"id":0,"code_insee":"51342","nom_standard":"Mancy","nom_a":null,"nom_de":null,"slug_ville":"mancy","departement_id":0,"code_postal":"51530","population":233,"superficie_km2":"355.73","latitude_centre":"48.9827","longitude_centre":"3.937","distance_km":4.66},{"id":0,"code_insee":"51251","nom_standard":"Flavigny","nom_a":null,"nom_de":null,"slug_ville":"flavigny","departement_id":0,"code_postal":"51190","population":172,"superficie_km2":"796.16","latitude_centre":"48.9738","longitude_centre":"4.0621","distance_km":4.77},{"id":0,"code_insee":"51431","nom_standard":"Pierry","nom_a":null,"nom_de":null,"slug_ville":"pierry","departement_id":0,"code_postal":"51530","population":1264,"superficie_km2":"512.08","latitude_centre":"49.0195","longitude_centre":"3.9527","distance_km":4.95},{"id":0,"code_insee":"51378","nom_standard":"Monthelon","nom_a":null,"nom_de":null,"slug_ville":"monthelon","departement_id":0,"code_postal":"51530","population":334,"superficie_km2":"265.85","latitude_centre":"48.999","longitude_centre":"3.9347","distance_km":4.95},{"id":0,"code_insee":"51367","nom_standard":"Le Mesnil-sur-Oger","nom_a":null,"nom_de":null,"slug_ville":"le-mesnil-sur-oger","departement_id":0,"code_postal":"51190","population":988,"superficie_km2":"797.13","latitude_centre":"48.9404","longitude_centre":"4.0183","distance_km":5.44},{"id":23440,"code_insee":"51142","nom_standard":"Chavot-Courcourt","nom_a":null,"nom_de":null,"slug_ville":"chavot-courcourt","departement_id":0,"code_postal":"51530","population":340,"superficie_km2":"439.02","latitude_centre":"48.9966","longitude_centre":"3.9181","distance_km":6.08},{"id":0,"code_insee":"51390","nom_standard":"Moussy","nom_a":null,"nom_de":null,"slug_ville":"moussy","departement_id":0,"code_postal":"51530","population":725,"superficie_km2":"279.11","latitude_centre":"49.0151","longitude_centre":"3.9271","distance_km":6.14},{"id":0,"code_insee":"51434","nom_standard":"Plivot","nom_a":null,"nom_de":null,"slug_ville":"plivot","departement_id":0,"code_postal":"51150","population":755,"superficie_km2":"1269.02","latitude_centre":"49.0114","longitude_centre":"4.0767","distance_km":6.15},{"id":0,"code_insee":"51302","nom_standard":"Les Istres-et-Bury","nom_a":null,"nom_de":null,"slug_ville":"les-istres-et-bury","departement_id":0,"code_postal":"51190","population":92,"superficie_km2":"504.47","latitude_centre":"48.9874","longitude_centre":"4.0873","distance_km":6.34},{"id":0,"code_insee":"51612","nom_standard":"Blancs-Coteaux","nom_a":null,"nom_de":null,"slug_ville":"blancs-coteaux","departement_id":0,"code_postal":"51130","population":3080,"superficie_km2":"6588.03","latitude_centre":"48.9227","longitude_centre":"3.9714","distance_km":7.55},{"id":0,"code_insee":"51663","nom_standard":"Magenta","nom_a":null,"nom_de":null,"slug_ville":"magenta","departement_id":0,"code_postal":"51530","population":1680,"superficie_km2":"99.49","latitude_centre":"49.0537","longitude_centre":"3.9666","distance_km":7.72},{"id":0,"code_insee":"51230","nom_standard":"Épernay","nom_a":null,"nom_de":null,"slug_ville":"epernay","departement_id":0,"code_postal":"51200","population":22174,"superficie_km2":"2276.05","latitude_centre":"49.0391","longitude_centre":"3.9282","distance_km":7.75},{"id":0,"code_insee":"51630","nom_standard":"Villers-aux-Bois","nom_a":null,"nom_de":null,"slug_ville":"villers-aux-bois","departement_id":0,"code_postal":"51130","population":311,"superficie_km2":"505.60","latitude_centre":"48.9351","longitude_centre":"3.9293","distance_km":7.84},{"id":0,"code_insee":"51030","nom_standard":"Aÿ-Champagne","nom_a":null,"nom_de":null,"slug_ville":"ay-champagne","departement_id":0,"code_postal":"51150","population":5103,"superficie_km2":"3209.75","latitude_centre":"49.0561","longitude_centre":"4.0414","distance_km":8.15},{"id":0,"code_insee":"51210","nom_standard":"Dizy","nom_a":null,"nom_de":null,"slug_ville":"dizy","departement_id":0,"code_postal":"51530","population":1482,"superficie_km2":"321.37","latitude_centre":"49.0699","longitude_centre":"3.9716","distance_km":9.36}]}