{"ville":{"id":19218,"code_insee":"32113","nom_standard":"Cravencères","nom_a":null,"nom_de":null,"slug_ville":"cravenceres","departement_id":0,"code_postal":"32110","population":95,"superficie_km2":"918.59","latitude_centre":"43.7766","longitude_centre":"0.03","dep_code":"32","dep_nom":"Gers","dep_slug":"gers","reg_code":"76","reg_nom":"Occitanie","reg_slug":"occitanie"},"departement":{"code":"32","nom":"Gers","slug":"gers"},"region":{"code":"76","nom":"Occitanie","slug":"occitanie"},"villes_proches":[{"id":0,"code_insee":"32369","nom_standard":"Sainte-Christie-d'Armagnac","nom_a":null,"nom_de":null,"slug_ville":"sainte-christie-d-armagnac","departement_id":0,"code_postal":"32370","population":382,"superficie_km2":"2284.60","latitude_centre":"43.7944","longitude_centre":"-0.0048","distance_km":3.42},{"id":19134,"code_insee":"32022","nom_standard":"Avéron-Bergelle","nom_a":null,"nom_de":null,"slug_ville":"averon-bergelle","departement_id":0,"code_postal":"32290","population":186,"superficie_km2":"1458.13","latitude_centre":"43.7581","longitude_centre":"0.0647","distance_km":3.46},{"id":0,"code_insee":"32214","nom_standard":"Loubédat","nom_a":null,"nom_de":null,"slug_ville":"loubedat","departement_id":0,"code_postal":"32110","population":117,"superficie_km2":"964.40","latitude_centre":"43.744","longitude_centre":"0.0301","distance_km":3.62},{"id":0,"code_insee":"32434","nom_standard":"Sion","nom_a":null,"nom_de":null,"slug_ville":"sion","departement_id":0,"code_postal":"32110","population":99,"superficie_km2":"715.93","latitude_centre":"43.7384","longitude_centre":"0.0055","distance_km":4.68},{"id":0,"code_insee":"32125","nom_standard":"Espas","nom_a":null,"nom_de":null,"slug_ville":"espas","departement_id":0,"code_postal":"32370","population":136,"superficie_km2":"1531.53","latitude_centre":"43.7769","longitude_centre":"0.0903","distance_km":4.84},{"id":0,"code_insee":"32296","nom_standard":"Nogaro","nom_a":null,"nom_de":null,"slug_ville":"nogaro","departement_id":0,"code_postal":"32110","population":2238,"superficie_km2":"1123.39","latitude_centre":"43.7646","longitude_centre":"-0.0295","distance_km":4.96},{"id":0,"code_insee":"32227","nom_standard":"Manciet","nom_a":null,"nom_de":null,"slug_ville":"manciet","departement_id":0,"code_postal":"32370","population":758,"superficie_km2":"4260.36","latitude_centre":"43.8186","longitude_centre":"0.0599","distance_km":5.25},{"id":0,"code_insee":"32458","nom_standard":"Urgosse","nom_a":null,"nom_de":null,"slug_ville":"urgosse","departement_id":0,"code_postal":"32110","population":240,"superficie_km2":"678.45","latitude_centre":"43.7402","longitude_centre":"-0.0214","distance_km":5.78},{"id":19160,"code_insee":"32049","nom_standard":"Bétous","nom_a":null,"nom_de":null,"slug_ville":"betous","departement_id":0,"code_postal":"32110","population":78,"superficie_km2":"518.79","latitude_centre":"43.7184","longitude_centre":"0.0241","distance_km":6.49},{"id":19173,"code_insee":"32062","nom_standard":"Bourrouillan","nom_a":null,"nom_de":null,"slug_ville":"bourrouillan","departement_id":0,"code_postal":"32370","population":165,"superficie_km2":"869.21","latitude_centre":"43.8282","longitude_centre":"-0.0094","distance_km":6.55},{"id":0,"code_insee":"32423","nom_standard":"Séailles","nom_a":null,"nom_de":null,"slug_ville":"seailles","departement_id":0,"code_postal":"32190","population":70,"superficie_km2":"819.12","latitude_centre":"43.751","longitude_centre":"0.1115","distance_km":7.14},{"id":0,"code_insee":"32408","nom_standard":"Salles-d'Armagnac","nom_a":null,"nom_de":null,"slug_ville":"salles-d-armagnac","departement_id":0,"code_postal":"32370","population":116,"superficie_km2":"621.90","latitude_centre":"43.8133","longitude_centre":"-0.045","distance_km":7.27},{"id":0,"code_insee":"32354","nom_standard":"Sabazan","nom_a":null,"nom_de":null,"slug_ville":"sabazan","departement_id":0,"code_postal":"32290","population":126,"superficie_km2":"830.45","latitude_centre":"43.7103","longitude_centre":"0.0482","distance_km":7.52},{"id":0,"code_insee":"32437","nom_standard":"Sorbets","nom_a":null,"nom_de":null,"slug_ville":"sorbets","departement_id":0,"code_postal":"32110","population":203,"superficie_km2":"935.52","latitude_centre":"43.7127","longitude_centre":"-0.0187","distance_km":8.11},{"id":19183,"code_insee":"32073","nom_standard":"Campagne-d'Armagnac","nom_a":null,"nom_de":null,"slug_ville":"campagne-d-armagnac","departement_id":0,"code_postal":"32800","population":213,"superficie_km2":"552.34","latitude_centre":"43.8604","longitude_centre":"0.0068","distance_km":9.5},{"id":19117,"code_insee":"32001","nom_standard":"Aignan","nom_a":null,"nom_de":null,"slug_ville":"aignan","departement_id":0,"code_postal":"32290","population":720,"superficie_km2":"3215.39","latitude_centre":"43.699","longitude_centre":"0.091","distance_km":9.92},{"id":19174,"code_insee":"32063","nom_standard":"Bouzon-Gellenave","nom_a":null,"nom_de":null,"slug_ville":"bouzon-gellenave","departement_id":0,"code_postal":"32290","population":159,"superficie_km2":"1036.03","latitude_centre":"43.6865","longitude_centre":"0.0289","distance_km":10.02},{"id":19137,"code_insee":"32025","nom_standard":"Ayzieu","nom_a":null,"nom_de":null,"slug_ville":"ayzieu","departement_id":0,"code_postal":"32800","population":158,"superficie_km2":"1385.28","latitude_centre":"43.8586","longitude_centre":"-0.0257","distance_km":10.15},{"id":0,"code_insee":"32135","nom_standard":"Fustérouau","nom_a":null,"nom_de":null,"slug_ville":"fusterouau","departement_id":0,"code_postal":"32400","population":125,"superficie_km2":"795.65","latitude_centre":"43.6856","longitude_centre":"0.0048","distance_km":10.32},{"id":0,"code_insee":"32340","nom_standard":"Réans","nom_a":null,"nom_de":null,"slug_ville":"reans","departement_id":0,"code_postal":"32800","population":297,"superficie_km2":"1230.04","latitude_centre":"43.8737","longitude_centre":"0.0362","distance_km":10.81}]}