{"ville":{"id":21277,"code_insee":"40087","nom_standard":"Créon-d'Armagnac","nom_a":null,"nom_de":null,"slug_ville":"creon-d-armagnac","departement_id":0,"code_postal":"40240","population":331,"superficie_km2":"2139.19","latitude_centre":"43.9948","longitude_centre":"-0.0744","dep_code":"40","dep_nom":"Landes","dep_slug":"landes","reg_code":"75","reg_nom":"Nouvelle-Aquitaine","reg_slug":"nouvelle-aquitaine"},"departement":{"code":"40","nom":"Landes","slug":"landes"},"region":{"code":"75","nom":"Nouvelle-Aquitaine","slug":"nouvelle-aquitaine"},"villes_proches":[{"id":0,"code_insee":"40140","nom_standard":"Lagrange","nom_a":null,"nom_de":null,"slug_ville":"lagrange","departement_id":0,"code_postal":"40240","population":185,"superficie_km2":"2123.22","latitude_centre":"43.9661","longitude_centre":"-0.0866","distance_km":3.34},{"id":0,"code_insee":"40124","nom_standard":"Herré","nom_a":null,"nom_de":null,"slug_ville":"herre","departement_id":0,"code_postal":"40310","population":143,"superficie_km2":"2305.68","latitude_centre":"44.0203","longitude_centre":"-0.0381","distance_km":4.06},{"id":0,"code_insee":"40265","nom_standard":"Saint-Julien-d'Armagnac","nom_a":null,"nom_de":null,"slug_ville":"saint-julien-d-armagnac","departement_id":0,"code_postal":"40240","population":108,"superficie_km2":"1480.54","latitude_centre":"43.993","longitude_centre":"-0.1387","distance_km":5.15},{"id":0,"code_insee":"40102","nom_standard":"Gabarret","nom_a":null,"nom_de":null,"slug_ville":"gabarret","departement_id":0,"code_postal":"40310","population":1283,"superficie_km2":"1696.06","latitude_centre":"43.9871","longitude_centre":"-0.0049","distance_km":5.63},{"id":0,"code_insee":"40176","nom_standard":"Mauvezin-d'Armagnac","nom_a":null,"nom_de":null,"slug_ville":"mauvezin-d-armagnac","departement_id":0,"code_postal":"40240","population":105,"superficie_km2":"473.01","latitude_centre":"43.9591","longitude_centre":"-0.1323","distance_km":6.1},{"id":0,"code_insee":"40096","nom_standard":"Estigarde","nom_a":null,"nom_de":null,"slug_ville":"estigarde","departement_id":0,"code_postal":"40240","population":100,"superficie_km2":"2942.24","latitude_centre":"44.0431","longitude_centre":"-0.1165","distance_km":6.34},{"id":21236,"code_insee":"40039","nom_standard":"Betbezer-d'Armagnac","nom_a":null,"nom_de":null,"slug_ville":"betbezer-d-armagnac","departement_id":0,"code_postal":"40240","population":124,"superficie_km2":"798.78","latitude_centre":"43.9754","longitude_centre":"-0.165","distance_km":7.56},{"id":0,"code_insee":"32096","nom_standard":"Cazaubon","nom_a":null,"nom_de":null,"slug_ville":"cazaubon","departement_id":0,"code_postal":"32150","population":1665,"superficie_km2":"5602.54","latitude_centre":"43.9285","longitude_centre":"-0.0336","distance_km":8.06},{"id":0,"code_insee":"40131","nom_standard":"Labastide-d'Armagnac","nom_a":null,"nom_de":null,"slug_ville":"labastide-d-armagnac","departement_id":0,"code_postal":"40240","population":673,"superficie_km2":"3214.67","latitude_centre":"43.9467","longitude_centre":"-0.1589","distance_km":8.62},{"id":0,"code_insee":"40093","nom_standard":"Escalans","nom_a":null,"nom_de":null,"slug_ville":"escalans","departement_id":0,"code_postal":"40310","population":215,"superficie_km2":"3023.10","latitude_centre":"44.0023","longitude_centre":"0.0374","distance_km":8.98},{"id":19350,"code_insee":"32264","nom_standard":"Monclar","nom_a":null,"nom_de":null,"slug_ville":"monclar","departement_id":0,"code_postal":"32150","population":217,"superficie_km2":"1012.18","latitude_centre":"43.9143","longitude_centre":"-0.0998","distance_km":9.18},{"id":19288,"code_insee":"32193","nom_standard":"Larée","nom_a":null,"nom_de":null,"slug_ville":"laree","departement_id":0,"code_postal":"32150","population":237,"superficie_km2":"1299.91","latitude_centre":"43.9075","longitude_centre":"-0.0572","distance_km":9.8},{"id":0,"code_insee":"40327","nom_standard":"Vielle-Soubiran","nom_a":null,"nom_de":null,"slug_ville":"vielle-soubiran","departement_id":0,"code_postal":"40240","population":226,"superficie_km2":"3295.03","latitude_centre":"44.0549","longitude_centre":"-0.1715","distance_km":10.24},{"id":0,"code_insee":"40218","nom_standard":"Parleboscq","nom_a":null,"nom_de":null,"slug_ville":"parleboscq","departement_id":0,"code_postal":"40310","population":451,"superficie_km2":"4021.75","latitude_centre":"43.9365","longitude_centre":"0.0263","distance_km":10.34},{"id":0,"code_insee":"40158","nom_standard":"Losse","nom_a":null,"nom_de":null,"slug_ville":"losse","departement_id":0,"code_postal":"40240","population":286,"superficie_km2":"10303.16","latitude_centre":"44.0948","longitude_centre":"-0.0933","distance_km":11.22},{"id":19334,"code_insee":"32243","nom_standard":"Mauléon-d'Armagnac","nom_a":null,"nom_de":null,"slug_ville":"mauleon-d-armagnac","departement_id":0,"code_postal":"32240","population":265,"superficie_km2":"3539.06","latitude_centre":"43.9033","longitude_centre":"-0.1553","distance_km":12.06},{"id":19328,"code_insee":"32236","nom_standard":"Marguestau","nom_a":null,"nom_de":null,"slug_ville":"marguestau","departement_id":0,"code_postal":"32150","population":56,"superficie_km2":"322.39","latitude_centre":"43.8821","longitude_centre":"-0.0392","distance_km":12.84},{"id":19231,"code_insee":"32127","nom_standard":"Estang","nom_a":null,"nom_de":null,"slug_ville":"estang","departement_id":0,"code_postal":"32240","population":668,"superficie_km2":"2281.65","latitude_centre":"43.8761","longitude_centre":"-0.1043","distance_km":13.41},{"id":0,"code_insee":"40161","nom_standard":"Lubbon","nom_a":null,"nom_de":null,"slug_ville":"lubbon","departement_id":0,"code_postal":"40240","population":85,"superficie_km2":"4819.67","latitude_centre":"44.1097","longitude_centre":"-0.0127","distance_km":13.69},{"id":19305,"code_insee":"32211","nom_standard":"Lias-d'Armagnac","nom_a":null,"nom_de":null,"slug_ville":"lias-d-armagnac","departement_id":0,"code_postal":"32240","population":201,"superficie_km2":"1202.72","latitude_centre":"43.859","longitude_centre":"-0.0646","distance_km":15.12}]}