{"ville":{"id":30711,"code_insee":"71151","nom_standard":"Créot","nom_a":null,"nom_de":null,"slug_ville":"creot","departement_id":0,"code_postal":"71490","population":79,"superficie_km2":"218.24","latitude_centre":"46.9156","longitude_centre":"4.6139","dep_code":"71","dep_nom":"Saône-et-Loire","dep_slug":"saone-et-loire","reg_code":"27","reg_nom":"Bourgogne-Franche-Comté","reg_slug":"bourgogne-franche-comte"},"departement":{"code":"71","nom":"Saône-et-Loire","slug":"saone-et-loire"},"region":{"code":"27","nom":"Bourgogne-Franche-Comté","slug":"bourgogne-franche-comte"},"villes_proches":[{"id":30660,"code_insee":"71085","nom_standard":"Change","nom_a":null,"nom_de":null,"slug_ville":"change","departement_id":0,"code_postal":"21340","population":217,"superficie_km2":"657.60","latitude_centre":"46.929","longitude_centre":"4.6296","distance_km":1.91},{"id":0,"code_insee":"71343","nom_standard":"Paris-l'Hôpital","nom_a":null,"nom_de":null,"slug_ville":"paris-l-hopital","departement_id":0,"code_postal":"71150","population":285,"superficie_km2":"275.33","latitude_centre":"46.9126","longitude_centre":"4.6401","distance_km":2.02},{"id":0,"code_insee":"71480","nom_standard":"Saint-Sernin-du-Plain","nom_a":null,"nom_de":null,"slug_ville":"saint-sernin-du-plain","departement_id":0,"code_postal":"71510","population":613,"superficie_km2":"1457.76","latitude_centre":"46.8873","longitude_centre":"4.6162","distance_km":3.15},{"id":0,"code_insee":"71496","nom_standard":"Sampigny-lès-Maranges","nom_a":null,"nom_de":null,"slug_ville":"sampigny-les-maranges","departement_id":0,"code_postal":"71150","population":131,"superficie_km2":"267.52","latitude_centre":"46.9021","longitude_centre":"4.652","distance_km":3.26},{"id":0,"code_insee":"71188","nom_standard":"Épertully","nom_a":null,"nom_de":null,"slug_ville":"epertully","departement_id":0,"code_postal":"71360","population":66,"superficie_km2":"336.64","latitude_centre":"46.945","longitude_centre":"4.601","distance_km":3.41},{"id":0,"code_insee":"71174","nom_standard":"Dezize-lès-Maranges","nom_a":null,"nom_de":null,"slug_ville":"dezize-les-maranges","departement_id":0,"code_postal":"71150","population":162,"superficie_km2":"513.65","latitude_centre":"46.923","longitude_centre":"4.6613","distance_km":3.69},{"id":0,"code_insee":"71424","nom_standard":"Saint-Gervais-sur-Couches","nom_a":null,"nom_de":null,"slug_ville":"saint-gervais-sur-couches","departement_id":0,"code_postal":"71490","population":209,"superficie_km2":"2047.43","latitude_centre":"46.9216","longitude_centre":"4.5631","distance_km":3.92},{"id":0,"code_insee":"71464","nom_standard":"Saint-Maurice-lès-Couches","nom_a":null,"nom_de":null,"slug_ville":"saint-maurice-les-couches","departement_id":0,"code_postal":"71490","population":176,"superficie_km2":"484.26","latitude_centre":"46.8778","longitude_centre":"4.6011","distance_km":4.31},{"id":30689,"code_insee":"71122","nom_standard":"Cheilly-lès-Maranges","nom_a":null,"nom_de":null,"slug_ville":"cheilly-les-maranges","departement_id":0,"code_postal":"71150","population":515,"superficie_km2":"699.98","latitude_centre":"46.8965","longitude_centre":"4.6648","distance_km":4.41},{"id":0,"code_insee":"71183","nom_standard":"Dracy-lès-Couches","nom_a":null,"nom_de":null,"slug_ville":"dracy-les-couches","departement_id":0,"code_postal":"71490","population":152,"superficie_km2":"829.94","latitude_centre":"46.8922","longitude_centre":"4.5629","distance_km":4.67},{"id":0,"code_insee":"21461","nom_standard":"Nolay","nom_a":null,"nom_de":null,"slug_ville":"nolay","departement_id":0,"code_postal":"21340","population":1409,"superficie_km2":"1440.12","latitude_centre":"46.9588","longitude_centre":"4.6193","distance_km":4.82},{"id":0,"code_insee":"71149","nom_standard":"Couches","nom_a":null,"nom_de":null,"slug_ville":"couches","departement_id":0,"code_postal":"71490","population":1213,"superficie_km2":"1991.49","latitude_centre":"46.8743","longitude_centre":"4.5743","distance_km":5.49},{"id":0,"code_insee":"71425","nom_standard":"Saint-Gilles","nom_a":null,"nom_de":null,"slug_ville":"saint-gilles","departement_id":0,"code_postal":"71510","population":286,"superficie_km2":"351.05","latitude_centre":"46.8772","longitude_centre":"4.6646","distance_km":5.75},{"id":0,"code_insee":"71171","nom_standard":"Dennevy","nom_a":null,"nom_de":null,"slug_ville":"dennevy","departement_id":0,"code_postal":"71510","population":296,"superficie_km2":"463.95","latitude_centre":"46.8661","longitude_centre":"4.6407","distance_km":5.87},{"id":15684,"code_insee":"21582","nom_standard":"Santenay","nom_a":null,"nom_de":null,"slug_ville":"santenay","departement_id":0,"code_postal":"21590","population":820,"superficie_km2":"1034.47","latitude_centre":"46.9184","longitude_centre":"4.6929","distance_km":6.01},{"id":0,"code_insee":"71493","nom_standard":"Saisy","nom_a":null,"nom_de":null,"slug_ville":"saisy","departement_id":0,"code_postal":"71360","population":350,"superficie_km2":"1719.78","latitude_centre":"46.9622","longitude_centre":"4.5563","distance_km":6.78},{"id":15347,"code_insee":"21195","nom_standard":"Cormot-Vauchignon","nom_a":null,"nom_de":null,"slug_ville":"cormot-vauchignon","departement_id":0,"code_postal":"21340","population":210,"superficie_km2":"1019.77","latitude_centre":"46.9772","longitude_centre":"4.6438","distance_km":7.22},{"id":15636,"code_insee":"21527","nom_standard":"La Rochepot","nom_a":null,"nom_de":null,"slug_ville":"la-rochepot","departement_id":0,"code_postal":"21340","population":284,"superficie_km2":"1396.98","latitude_centre":"46.9628","longitude_centre":"4.6811","distance_km":7.32},{"id":15197,"code_insee":"21032","nom_standard":"Aubigny-la-Ronce","nom_a":null,"nom_de":null,"slug_ville":"aubigny-la-ronce","departement_id":0,"code_postal":"21340","population":172,"superficie_km2":"1185.01","latitude_centre":"46.9892","longitude_centre":"4.5986","distance_km":8.27},{"id":0,"code_insee":"71431","nom_standard":"Saint-Jean-de-Trézy","nom_a":null,"nom_de":null,"slug_ville":"saint-jean-de-trezy","departement_id":0,"code_postal":"71490","population":372,"superficie_km2":"1121.43","latitude_centre":"46.8423","longitude_centre":"4.5842","distance_km":8.46}]}