{"ville":{"id":16763,"code_insee":"25185","nom_standard":"Cussey-sur-Lison","nom_a":null,"nom_de":null,"slug_ville":"cussey-sur-lison","departement_id":0,"code_postal":"25440","population":68,"superficie_km2":"856.78","latitude_centre":"47.0711","longitude_centre":"5.9626","dep_code":"25","dep_nom":"Doubs","dep_slug":"doubs","reg_code":"27","reg_nom":"Bourgogne-Franche-Comté","reg_slug":"bourgogne-franche-comte"},"departement":{"code":"25","nom":"Doubs","slug":"doubs"},"region":{"code":"27","nom":"Bourgogne-Franche-Comté","slug":"bourgogne-franche-comte"},"villes_proches":[{"id":0,"code_insee":"25507","nom_standard":"Rouhe","nom_a":null,"nom_de":null,"slug_ville":"rouhe","departement_id":0,"code_postal":"25440","population":87,"superficie_km2":"416.67","latitude_centre":"47.0857","longitude_centre":"5.9663","distance_km":1.65},{"id":0,"code_insee":"25283","nom_standard":"Goux-sous-Landet","nom_a":null,"nom_de":null,"slug_ville":"goux-sous-landet","departement_id":0,"code_postal":"25440","population":61,"superficie_km2":"543.70","latitude_centre":"47.0788","longitude_centre":"5.934","distance_km":2.33},{"id":0,"code_insee":"25209","nom_standard":"Échay","nom_a":null,"nom_de":null,"slug_ville":"echay","departement_id":0,"code_postal":"25440","population":113,"superficie_km2":"551.13","latitude_centre":"47.0465","longitude_centre":"5.9491","distance_km":2.92},{"id":0,"code_insee":"25338","nom_standard":"Lizine","nom_a":null,"nom_de":null,"slug_ville":"lizine","departement_id":0,"code_postal":"25330","population":87,"superficie_km2":"729.75","latitude_centre":"47.0534","longitude_centre":"5.9921","distance_km":2.98},{"id":16749,"code_insee":"25171","nom_standard":"Courcelles","nom_a":null,"nom_de":null,"slug_ville":"courcelles","departement_id":0,"code_postal":"25440","population":102,"superficie_km2":"363.30","latitude_centre":"47.1007","longitude_centre":"5.9623","distance_km":3.29},{"id":0,"code_insee":"25443","nom_standard":"Palantine","nom_a":null,"nom_de":null,"slug_ville":"palantine","departement_id":0,"code_postal":"25440","population":61,"superficie_km2":"436.25","latitude_centre":"47.1004","longitude_centre":"5.9424","distance_km":3.6},{"id":0,"code_insee":"25511","nom_standard":"Rurey","nom_a":null,"nom_de":null,"slug_ville":"rurey","departement_id":0,"code_postal":"25290","population":354,"superficie_km2":"1486.57","latitude_centre":"47.0972","longitude_centre":"5.9962","distance_km":3.86},{"id":16659,"code_insee":"25044","nom_standard":"Bartherans","nom_a":null,"nom_de":null,"slug_ville":"bartherans","departement_id":0,"code_postal":"25440","population":60,"superficie_km2":"582.95","latitude_centre":"47.0365","longitude_centre":"5.9263","distance_km":4.73},{"id":0,"code_insee":"25460","nom_standard":"Le Val","nom_a":null,"nom_de":null,"slug_ville":"le-val","departement_id":0,"code_postal":"25440","population":251,"superficie_km2":"659.09","latitude_centre":"47.0636","longitude_centre":"5.9006","distance_km":4.77},{"id":0,"code_insee":"25330","nom_standard":"Lavans-Quingey","nom_a":null,"nom_de":null,"slug_ville":"lavans-quingey","departement_id":0,"code_postal":"25440","population":188,"superficie_km2":"590.75","latitude_centre":"47.0888","longitude_centre":"5.896","distance_km":5.41},{"id":0,"code_insee":"25450","nom_standard":"Pessans","nom_a":null,"nom_de":null,"slug_ville":"pessans","departement_id":0,"code_postal":"25440","population":89,"superficie_km2":"435.26","latitude_centre":"47.0716","longitude_centre":"5.8907","distance_km":5.45},{"id":16643,"code_insee":"25017","nom_standard":"Amondans","nom_a":null,"nom_de":null,"slug_ville":"amondans","departement_id":0,"code_postal":"25330","population":85,"superficie_km2":"569.65","latitude_centre":"47.0722","longitude_centre":"6.0346","distance_km":5.45},{"id":16707,"code_insee":"25106","nom_standard":"Cademène","nom_a":null,"nom_de":null,"slug_ville":"cademene","departement_id":0,"code_postal":"25290","population":66,"superficie_km2":"345.84","latitude_centre":"47.0939","longitude_centre":"6.0279","distance_km":5.56},{"id":0,"code_insee":"25500","nom_standard":"Ronchaux","nom_a":null,"nom_de":null,"slug_ville":"ronchaux","departement_id":0,"code_postal":"25440","population":103,"superficie_km2":"519.25","latitude_centre":"47.043","longitude_centre":"5.8989","distance_km":5.75},{"id":16710,"code_insee":"25109","nom_standard":"Cessey","nom_a":null,"nom_de":null,"slug_ville":"cessey","departement_id":0,"code_postal":"25440","population":326,"superficie_km2":"754.30","latitude_centre":"47.1152","longitude_centre":"5.9222","distance_km":5.78},{"id":0,"code_insee":"25359","nom_standard":"Malans","nom_a":null,"nom_de":null,"slug_ville":"malans","departement_id":0,"code_postal":"25330","population":157,"superficie_km2":"1054.00","latitude_centre":"47.0452","longitude_centre":"6.0295","distance_km":5.83},{"id":16723,"code_insee":"25126","nom_standard":"Charnay","nom_a":null,"nom_de":null,"slug_ville":"charnay","departement_id":0,"code_postal":"25440","population":467,"superficie_km2":"569.00","latitude_centre":"47.1301","longitude_centre":"5.9523","distance_km":6.61},{"id":16736,"code_insee":"25149","nom_standard":"Chenecey-Buillon","nom_a":null,"nom_de":null,"slug_ville":"chenecey-buillon","departement_id":0,"code_postal":"25440","population":491,"superficie_km2":"1672.51","latitude_centre":"47.1318","longitude_centre":"5.9724","distance_km":6.79},{"id":0,"code_insee":"25223","nom_standard":"Éternoz-Vallée-du-Lison","nom_a":null,"nom_de":null,"slug_ville":"eternoz-vallee-du-lison","departement_id":0,"code_postal":"25330","population":343,"superficie_km2":"3500.50","latitude_centre":"47.0138","longitude_centre":"5.9986","distance_km":6.93},{"id":0,"code_insee":"25416","nom_standard":"Myon","nom_a":null,"nom_de":null,"slug_ville":"myon","departement_id":0,"code_postal":"25440","population":182,"superficie_km2":"1586.46","latitude_centre":"47.0076","longitude_centre":"5.9404","distance_km":7.26}]}