{"ville":{"id":15368,"code_insee":"21220","nom_standard":"Cussey-les-Forges","nom_a":null,"nom_de":null,"slug_ville":"cussey-les-forges","departement_id":0,"code_postal":"21580","population":144,"superficie_km2":"2345.32","latitude_centre":"47.6391","longitude_centre":"5.0845","dep_code":"21","dep_nom":"Côte-d'Or","dep_slug":"cote-d-or","reg_code":"27","reg_nom":"Bourgogne-Franche-Comté","reg_slug":"bourgogne-franche-comte"},"departement":{"code":"21","nom":"Côte-d'Or","slug":"cote-d-or"},"region":{"code":"27","nom":"Bourgogne-Franche-Comté","slug":"bourgogne-franche-comte"},"villes_proches":[{"id":0,"code_insee":"21275","nom_standard":"Foncegrive","nom_a":null,"nom_de":null,"slug_ville":"foncegrive","departement_id":0,"code_postal":"21260","population":126,"superficie_km2":"1020.34","latitude_centre":"47.6184","longitude_centre":"5.1409","distance_km":4.81},{"id":0,"code_insee":"21665","nom_standard":"Vernois-lès-Vesvres","nom_a":null,"nom_de":null,"slug_ville":"vernois-les-vesvres","departement_id":0,"code_postal":"21260","population":151,"superficie_km2":"1165.13","latitude_centre":"47.6529","longitude_centre":"5.1465","distance_km":4.89},{"id":15357,"code_insee":"21207","nom_standard":"Courlon","nom_a":null,"nom_de":null,"slug_ville":"courlon","departement_id":0,"code_postal":"21580","population":79,"superficie_km2":"982.79","latitude_centre":"47.646","longitude_centre":"5.0124","distance_km":5.46},{"id":0,"code_insee":"21385","nom_standard":"Marey-sur-Tille","nom_a":null,"nom_de":null,"slug_ville":"marey-sur-tille","departement_id":0,"code_postal":"21120","population":330,"superficie_km2":"3023.24","latitude_centre":"47.5887","longitude_centre":"5.087","distance_km":5.61},{"id":0,"code_insee":"52092","nom_standard":"Chalancey","nom_a":null,"nom_de":null,"slug_ville":"chalancey","departement_id":0,"code_postal":"52160","population":121,"superficie_km2":"1366.83","latitude_centre":"47.6773","longitude_centre":"5.135","distance_km":5.69},{"id":0,"code_insee":"52094","nom_standard":"Vals-des-Tilles","nom_a":null,"nom_de":null,"slug_ville":"vals-des-tilles","departement_id":0,"code_postal":"52160","population":180,"superficie_km2":"3728.88","latitude_centre":"47.6905","longitude_centre":"5.0868","distance_km":5.72},{"id":0,"code_insee":"21304","nom_standard":"Grancey-le-Château-Neuvelle","nom_a":null,"nom_de":null,"slug_ville":"grancey-le-chateau-neuvelle","departement_id":0,"code_postal":"21580","population":247,"superficie_km2":"2770.56","latitude_centre":"47.6699","longitude_centre":"5.0117","distance_km":6.44},{"id":15205,"code_insee":"21041","nom_standard":"Avot","nom_a":null,"nom_de":null,"slug_ville":"avot","departement_id":0,"code_postal":"21580","population":186,"superficie_km2":"2180.35","latitude_centre":"47.6163","longitude_centre":"5.0053","distance_km":6.45},{"id":0,"code_insee":"52344","nom_standard":"Mouilleron","nom_a":null,"nom_de":null,"slug_ville":"mouilleron","departement_id":0,"code_postal":"52160","population":29,"superficie_km2":"521.04","latitude_centre":"47.6949","longitude_centre":"5.1126","distance_km":6.55},{"id":15203,"code_insee":"21039","nom_standard":"Avelanges","nom_a":null,"nom_de":null,"slug_ville":"avelanges","departement_id":0,"code_postal":"21120","population":33,"superficie_km2":"603.14","latitude_centre":"47.5864","longitude_centre":"5.0278","distance_km":7.24},{"id":0,"code_insee":"21702","nom_standard":"Villey-sur-Tille","nom_a":null,"nom_de":null,"slug_ville":"villey-sur-tille","departement_id":0,"code_postal":"21120","population":264,"superficie_km2":"1274.01","latitude_centre":"47.5709","longitude_centre":"5.1139","distance_km":7.9},{"id":15276,"code_insee":"21118","nom_standard":"Busserotte-et-Montenaille","nom_a":null,"nom_de":null,"slug_ville":"busserotte-et-montenaille","departement_id":0,"code_postal":"21580","population":33,"superficie_km2":"668.57","latitude_centre":"47.6599","longitude_centre":"4.9827","distance_km":7.97},{"id":15360,"code_insee":"21211","nom_standard":"Crécey-sur-Tille","nom_a":null,"nom_de":null,"slug_ville":"crecey-sur-tille","departement_id":0,"code_postal":"21120","population":127,"superficie_km2":"1090.73","latitude_centre":"47.5697","longitude_centre":"5.1426","distance_km":8.86},{"id":0,"code_insee":"52519","nom_standard":"Vesvres-sous-Chalancey","nom_a":null,"nom_de":null,"slug_ville":"vesvres-sous-chalancey","departement_id":0,"code_postal":"52190","population":49,"superficie_km2":"717.62","latitude_centre":"47.6969","longitude_centre":"5.168","distance_km":8.97},{"id":0,"code_insee":"52393","nom_standard":"Poinsenot","nom_a":null,"nom_de":null,"slug_ville":"poinsenot","departement_id":0,"code_postal":"52160","population":54,"superficie_km2":"728.39","latitude_centre":"47.7156","longitude_centre":"5.0094","distance_km":10.2},{"id":0,"code_insee":"52499","nom_standard":"Vaillant","nom_a":null,"nom_de":null,"slug_ville":"vaillant","departement_id":0,"code_postal":"52160","population":46,"superficie_km2":"758.30","latitude_centre":"47.7171","longitude_centre":"5.1591","distance_km":10.32},{"id":0,"code_insee":"21587","nom_standard":"Saulx-le-Duc","nom_a":null,"nom_de":null,"slug_ville":"saulx-le-duc","departement_id":0,"code_postal":"21120","population":246,"superficie_km2":"2896.17","latitude_centre":"47.5514","longitude_centre":"5.0259","distance_km":10.7},{"id":0,"code_insee":"52542","nom_standard":"Vivey","nom_a":null,"nom_de":null,"slug_ville":"vivey","departement_id":0,"code_postal":"52160","population":51,"superficie_km2":"1299.33","latitude_centre":"47.7377","longitude_centre":"5.0608","distance_km":11.11},{"id":0,"code_insee":"52403","nom_standard":"Praslay","nom_a":null,"nom_de":null,"slug_ville":"praslay","departement_id":0,"code_postal":"52160","population":75,"superficie_km2":"1133.06","latitude_centre":"47.7381","longitude_centre":"5.1094","distance_km":11.16},{"id":0,"code_insee":"21240","nom_standard":"Échevannes","nom_a":null,"nom_de":null,"slug_ville":"echevannes","departement_id":0,"code_postal":"21120","population":281,"superficie_km2":"1145.99","latitude_centre":"47.5456","longitude_centre":"5.1544","distance_km":11.64}]}