{"ville":{"id":17877,"code_insee":"28121","nom_standard":"Dambron","nom_a":null,"nom_de":null,"slug_ville":"dambron","departement_id":0,"code_postal":"28140","population":93,"superficie_km2":"1192.76","latitude_centre":"48.1152","longitude_centre":"1.8734","dep_code":"28","dep_nom":"Eure-et-Loir","dep_slug":"eure-et-loir","reg_code":"24","reg_nom":"Centre-Val de Loire","reg_slug":"centre-val-de-loire"},"departement":{"code":"28","nom":"Eure-et-Loir","slug":"eure-et-loir"},"region":{"code":"24","nom":"Centre-Val de Loire","slug":"centre-val-de-loire"},"villes_proches":[{"id":0,"code_insee":"28303","nom_standard":"Poupry","nom_a":null,"nom_de":null,"slug_ville":"poupry","departement_id":0,"code_postal":"28140","population":96,"superficie_km2":"1461.16","latitude_centre":"48.1005","longitude_centre":"1.8343","distance_km":3.33},{"id":0,"code_insee":"28367","nom_standard":"Santilly","nom_a":null,"nom_de":null,"slug_ville":"santilly","departement_id":0,"code_postal":"28310","population":303,"superficie_km2":"1790.19","latitude_centre":"48.151","longitude_centre":"1.8813","distance_km":4.02},{"id":0,"code_insee":"45266","nom_standard":"Ruan","nom_a":null,"nom_de":null,"slug_ville":"ruan","departement_id":0,"code_postal":"45410","population":200,"superficie_km2":"1637.52","latitude_centre":"48.1088","longitude_centre":"1.9277","distance_km":4.09},{"id":17813,"code_insee":"28019","nom_standard":"Baigneaux","nom_a":null,"nom_de":null,"slug_ville":"baigneaux","departement_id":0,"code_postal":"28140","population":232,"superficie_km2":"1196.94","latitude_centre":"48.1266","longitude_centre":"1.8201","distance_km":4.15},{"id":0,"code_insee":"45008","nom_standard":"Artenay","nom_a":null,"nom_de":null,"slug_ville":"artenay","departement_id":0,"code_postal":"45410","population":1997,"superficie_km2":"2040.83","latitude_centre":"48.0773","longitude_centre":"1.8792","distance_km":4.24},{"id":0,"code_insee":"45183","nom_standard":"Lion-en-Beauce","nom_a":null,"nom_de":null,"slug_ville":"lion-en-beauce","departement_id":0,"code_postal":"45410","population":120,"superficie_km2":"702.18","latitude_centre":"48.1326","longitude_centre":"1.933","distance_km":4.83},{"id":17816,"code_insee":"28029","nom_standard":"Bazoches-les-Hautes","nom_a":null,"nom_de":null,"slug_ville":"bazoches-les-hautes","departement_id":0,"code_postal":"28140","population":330,"superficie_km2":"1711.49","latitude_centre":"48.1622","longitude_centre":"1.825","distance_km":6.34},{"id":0,"code_insee":"45325","nom_standard":"Tivernon","nom_a":null,"nom_de":null,"slug_ville":"tivernon","departement_id":0,"code_postal":"45170","population":278,"superficie_km2":"1259.44","latitude_centre":"48.1581","longitude_centre":"1.9365","distance_km":6.68},{"id":0,"code_insee":"45330","nom_standard":"Trinay","nom_a":null,"nom_de":null,"slug_ville":"trinay","departement_id":0,"code_postal":"45410","population":208,"superficie_km2":"1743.71","latitude_centre":"48.0846","longitude_centre":"1.9535","distance_km":6.85},{"id":0,"code_insee":"45058","nom_standard":"Bucy-le-Roi","nom_a":null,"nom_de":null,"slug_ville":"bucy-le-roi","departement_id":0,"code_postal":"45410","population":177,"superficie_km2":"468.52","latitude_centre":"48.062","longitude_centre":"1.921","distance_km":6.89},{"id":0,"code_insee":"28300","nom_standard":"Poinville","nom_a":null,"nom_de":null,"slug_ville":"poinville","departement_id":0,"code_postal":"28310","population":176,"superficie_km2":"814.73","latitude_centre":"48.1758","longitude_centre":"1.8994","distance_km":7.01},{"id":0,"code_insee":"28221","nom_standard":"Lumeau","nom_a":null,"nom_de":null,"slug_ville":"lumeau","departement_id":0,"code_postal":"28140","population":138,"superficie_km2":"1527.61","latitude_centre":"48.1047","longitude_centre":"1.7728","distance_km":7.56},{"id":0,"code_insee":"45231","nom_standard":"Oison","nom_a":null,"nom_de":null,"slug_ville":"oison","departement_id":0,"code_postal":"45170","population":120,"superficie_km2":"1213.49","latitude_centre":"48.1338","longitude_centre":"1.9807","distance_km":8.23},{"id":0,"code_insee":"45313","nom_standard":"Sougy","nom_a":null,"nom_de":null,"slug_ville":"sougy","departement_id":0,"code_postal":"45410","population":853,"superficie_km2":"2823.25","latitude_centre":"48.0611","longitude_centre":"1.7974","distance_km":8.25},{"id":0,"code_insee":"45093","nom_standard":"Chevilly","nom_a":null,"nom_de":null,"slug_ville":"chevilly","departement_id":0,"code_postal":"45520","population":2663,"superficie_km2":"4220.93","latitude_centre":"48.0318","longitude_centre":"1.8918","distance_km":9.37},{"id":0,"code_insee":"28199","nom_standard":"Janville-en-Beauce","nom_a":null,"nom_de":null,"slug_ville":"janville-en-beauce","departement_id":0,"code_postal":"28310","population":2464,"superficie_km2":"4261.62","latitude_centre":"48.1998","longitude_centre":"1.8474","distance_km":9.6},{"id":0,"code_insee":"28390","nom_standard":"Tillay-le-Péneux","nom_a":null,"nom_de":null,"slug_ville":"tillay-le-peneux","departement_id":0,"code_postal":"28140","population":316,"superficie_km2":"2233.44","latitude_centre":"48.1562","longitude_centre":"1.7592","distance_km":9.62},{"id":0,"code_insee":"28391","nom_standard":"Toury","nom_a":null,"nom_de":null,"slug_ville":"toury","departement_id":0,"code_postal":"28310","population":2640,"superficie_km2":"1895.51","latitude_centre":"48.1954","longitude_centre":"1.9425","distance_km":10.29},{"id":0,"code_insee":"45166","nom_standard":"Huêtre","nom_a":null,"nom_de":null,"slug_ville":"huetre","departement_id":0,"code_postal":"45520","population":280,"superficie_km2":"1318.51","latitude_centre":"48.0272","longitude_centre":"1.8031","distance_km":11.09},{"id":0,"code_insee":"28392","nom_standard":"Trancrainville","nom_a":null,"nom_de":null,"slug_ville":"trancrainville","departement_id":0,"code_postal":"28310","population":169,"superficie_km2":"1169.68","latitude_centre":"48.2378","longitude_centre":"1.8631","distance_km":13.65}]}