{"ville":{"id":23055,"code_insee":"50159","nom_standard":"Dangy","nom_a":null,"nom_de":null,"slug_ville":"dangy","departement_id":0,"code_postal":"50750","population":648,"superficie_km2":"991.18","latitude_centre":"49.0325","longitude_centre":"-1.221","dep_code":"50","dep_nom":"Manche","dep_slug":"manche","reg_code":"28","reg_nom":"Normandie","reg_slug":"normandie"},"departement":{"code":"50","nom":"Manche","slug":"manche"},"region":{"code":"28","nom":"Normandie","slug":"normandie"},"villes_proches":[{"id":0,"code_insee":"50512","nom_standard":"Saint-Martin-de-Bonfossé","nom_a":null,"nom_de":null,"slug_ville":"saint-martin-de-bonfosse","departement_id":0,"code_postal":"50750","population":530,"superficie_km2":"1282.26","latitude_centre":"49.042","longitude_centre":"-1.1726","distance_km":3.68},{"id":0,"code_insee":"50111","nom_standard":"Cerisy-la-Salle","nom_a":null,"nom_de":null,"slug_ville":"cerisy-la-salle","departement_id":0,"code_postal":"50210","population":1005,"superficie_km2":"1703.20","latitude_centre":"49.037","longitude_centre":"-1.271","distance_km":3.68},{"id":23026,"code_insee":"50098","nom_standard":"Carantilly","nom_a":null,"nom_de":null,"slug_ville":"carantilly","departement_id":0,"code_postal":"50570","population":619,"superficie_km2":"1088.78","latitude_centre":"49.0659","longitude_centre":"-1.2499","distance_km":4.27},{"id":0,"code_insee":"50420","nom_standard":"Quibou","nom_a":null,"nom_de":null,"slug_ville":"quibou","departement_id":0,"code_postal":"50750","population":858,"superficie_km2":"1728.23","latitude_centre":"49.0739","longitude_centre":"-1.2102","distance_km":4.67},{"id":0,"code_insee":"50378","nom_standard":"Notre-Dame-de-Cenilly","nom_a":null,"nom_de":null,"slug_ville":"notre-dame-de-cenilly","departement_id":0,"code_postal":"50210","population":637,"superficie_km2":"2543.25","latitude_centre":"48.9941","longitude_centre":"-1.2663","distance_km":5.4},{"id":0,"code_insee":"50234","nom_standard":"La Haye-Bellefond","nom_a":null,"nom_de":null,"slug_ville":"la-haye-bellefond","departement_id":0,"code_postal":"50410","population":63,"superficie_km2":"291.74","latitude_centre":"48.982","longitude_centre":"-1.1901","distance_km":6.05},{"id":0,"code_insee":"50095","nom_standard":"Canisy","nom_a":null,"nom_de":null,"slug_ville":"canisy","departement_id":0,"code_postal":"50750","population":1707,"superficie_km2":"1836.09","latitude_centre":"49.0706","longitude_centre":"-1.1583","distance_km":6.23},{"id":23022,"code_insee":"50093","nom_standard":"Cametours","nom_a":null,"nom_de":null,"slug_ville":"cametours","departement_id":0,"code_postal":"50570","population":434,"superficie_km2":"736.83","latitude_centre":"49.072","longitude_centre":"-1.2832","distance_km":6.31},{"id":0,"code_insee":"50546","nom_standard":"Bourgvallées","nom_a":null,"nom_de":null,"slug_ville":"bourgvallees","departement_id":0,"code_postal":"50750","population":3326,"superficie_km2":"4892.67","latitude_centre":"49.0365","longitude_centre":"-1.132","distance_km":6.5},{"id":0,"code_insee":"50225","nom_standard":"Le Guislain","nom_a":null,"nom_de":null,"slug_ville":"le-guislain","departement_id":0,"code_postal":"50410","population":135,"superficie_km2":"548.00","latitude_centre":"48.9683","longitude_centre":"-1.2186","distance_km":7.14},{"id":0,"code_insee":"50350","nom_standard":"Montpinchon","nom_a":null,"nom_de":null,"slug_ville":"montpinchon","departement_id":0,"code_postal":"50210","population":543,"superficie_km2":"1722.81","latitude_centre":"49.0266","longitude_centre":"-1.3218","distance_km":7.38},{"id":0,"code_insee":"50363","nom_standard":"Moyon Villages","nom_a":null,"nom_de":null,"slug_ville":"moyon-villages","departement_id":0,"code_postal":"50420","population":1489,"superficie_km2":"3301.41","latitude_centre":"48.9955","longitude_centre":"-1.1354","distance_km":7.48},{"id":0,"code_insee":"50513","nom_standard":"Saint-Martin-de-Cenilly","nom_a":null,"nom_de":null,"slug_ville":"saint-martin-de-cenilly","departement_id":0,"code_postal":"50210","population":208,"superficie_km2":"676.75","latitude_centre":"48.9782","longitude_centre":"-1.286","distance_km":7.68},{"id":0,"code_insee":"50302","nom_standard":"Le Mesnil-Amey","nom_a":null,"nom_de":null,"slug_ville":"le-mesnil-amey","departement_id":0,"code_postal":"50570","population":288,"superficie_km2":"285.01","latitude_centre":"49.1045","longitude_centre":"-1.2128","distance_km":8.03},{"id":0,"code_insee":"50637","nom_standard":"Villebaudon","nom_a":null,"nom_de":null,"slug_ville":"villebaudon","departement_id":0,"code_postal":"50410","population":327,"superficie_km2":"576.50","latitude_centre":"48.9687","longitude_centre":"-1.1692","distance_km":8.04},{"id":0,"code_insee":"50483","nom_standard":"Saint-Gilles","nom_a":null,"nom_de":null,"slug_ville":"saint-gilles","departement_id":0,"code_postal":"50180","population":1030,"superficie_km2":"789.86","latitude_centre":"49.0953","longitude_centre":"-1.1615","distance_km":8.22},{"id":0,"code_insee":"50295","nom_standard":"Maupertuis","nom_a":null,"nom_de":null,"slug_ville":"maupertuis","departement_id":0,"code_postal":"50410","population":145,"superficie_km2":"547.78","latitude_centre":"48.9568","longitude_centre":"-1.1993","distance_km":8.57},{"id":0,"code_insee":"50228","nom_standard":"Hambye","nom_a":null,"nom_de":null,"slug_ville":"hambye","departement_id":0,"code_postal":"50450","population":1072,"superficie_km2":"2992.18","latitude_centre":"48.9483","longitude_centre":"-1.2625","distance_km":9.84},{"id":0,"code_insee":"50292","nom_standard":"Marigny-Le-Lozon","nom_a":null,"nom_de":null,"slug_ville":"marigny-le-lozon","departement_id":0,"code_postal":"50570","population":2761,"superficie_km2":"1941.35","latitude_centre":"49.1256","longitude_centre":"-1.2609","distance_km":10.75},{"id":0,"code_insee":"50352","nom_standard":"Montreuil-sur-Lozon","nom_a":null,"nom_de":null,"slug_ville":"montreuil-sur-lozon","departement_id":0,"code_postal":"50570","population":339,"superficie_km2":"648.79","latitude_centre":"49.1307","longitude_centre":"-1.2429","distance_km":11.04}]}