{"ville":{"id":10981,"code_insee":"03096","nom_standard":"Deneuille-lès-Chantelle","nom_a":null,"nom_de":null,"slug_ville":"deneuille-les-chantelle","departement_id":0,"code_postal":"03140","population":94,"superficie_km2":"826.36","latitude_centre":"46.2517","longitude_centre":"3.1475","dep_code":"03","dep_nom":"Allier","dep_slug":"allier","reg_code":"84","reg_nom":"Auvergne-Rhône-Alpes","reg_slug":"auvergne-rhone-alpes"},"departement":{"code":"03","nom":"Allier","slug":"allier"},"region":{"code":"84","nom":"Auvergne-Rhône-Alpes","slug":"auvergne-rhone-alpes"},"villes_proches":[{"id":0,"code_insee":"03053","nom_standard":"Chantelle","nom_a":null,"nom_de":null,"slug_ville":"chantelle","departement_id":0,"code_postal":"03140","population":1131,"superficie_km2":"1101.01","latitude_centre":"46.2398","longitude_centre":"3.1547","distance_km":1.43},{"id":0,"code_insee":"03175","nom_standard":"Monestier","nom_a":null,"nom_de":null,"slug_ville":"monestier","departement_id":0,"code_postal":"03140","population":291,"superficie_km2":"2975.40","latitude_centre":"46.2641","longitude_centre":"3.1035","distance_km":3.65},{"id":0,"code_insee":"03116","nom_standard":"Fourilles","nom_a":null,"nom_de":null,"slug_ville":"fourilles","departement_id":0,"code_postal":"03140","population":195,"superficie_km2":"705.95","latitude_centre":"46.2452","longitude_centre":"3.1981","distance_km":3.96},{"id":0,"code_insee":"03115","nom_standard":"Fleuriel","nom_a":null,"nom_de":null,"slug_ville":"fleuriel","departement_id":0,"code_postal":"03140","population":336,"superficie_km2":"2833.51","latitude_centre":"46.2897","longitude_centre":"3.1625","distance_km":4.38},{"id":0,"code_insee":"03278","nom_standard":"Taxat-Senat","nom_a":null,"nom_de":null,"slug_ville":"taxat-senat","departement_id":0,"code_postal":"03140","population":222,"superficie_km2":"1370.74","latitude_centre":"46.2078","longitude_centre":"3.1461","distance_km":4.88},{"id":10965,"code_insee":"03075","nom_standard":"Chezelle","nom_a":null,"nom_de":null,"slug_ville":"chezelle","departement_id":0,"code_postal":"03140","population":158,"superficie_km2":"732.15","latitude_centre":"46.2136","longitude_centre":"3.1097","distance_km":5.14},{"id":0,"code_insee":"03294","nom_standard":"Ussel-d'Allier","nom_a":null,"nom_de":null,"slug_ville":"ussel-d-allier","departement_id":0,"code_postal":"03140","population":166,"superficie_km2":"809.20","latitude_centre":"46.2104","longitude_centre":"3.19","distance_km":5.64},{"id":0,"code_insee":"03112","nom_standard":"Étroussat","nom_a":null,"nom_de":null,"slug_ville":"etroussat","departement_id":0,"code_postal":"03140","population":649,"superficie_km2":"1317.81","latitude_centre":"46.2227","longitude_centre":"3.221","distance_km":6.51},{"id":10942,"code_insee":"03049","nom_standard":"Cesset","nom_a":null,"nom_de":null,"slug_ville":"cesset","departement_id":0,"code_postal":"03500","population":430,"superficie_km2":"1215.80","latitude_centre":"46.2987","longitude_centre":"3.1988","distance_km":6.55},{"id":10950,"code_insee":"03059","nom_standard":"Chareil-Cintrat","nom_a":null,"nom_de":null,"slug_ville":"chareil-cintrat","departement_id":0,"code_postal":"03140","population":388,"superficie_km2":"1269.97","latitude_centre":"46.2657","longitude_centre":"3.2328","distance_km":6.74},{"id":10923,"code_insee":"03022","nom_standard":"Bellenaves","nom_a":null,"nom_de":null,"slug_ville":"bellenaves","departement_id":0,"code_postal":"03330","population":983,"superficie_km2":"3482.78","latitude_centre":"46.2093","longitude_centre":"3.0693","distance_km":7.64},{"id":10953,"code_insee":"03062","nom_standard":"Charroux","nom_a":null,"nom_de":null,"slug_ville":"charroux","departement_id":0,"code_postal":"03140","population":335,"superficie_km2":"1049.96","latitude_centre":"46.1817","longitude_centre":"3.1625","distance_km":7.87},{"id":0,"code_insee":"03277","nom_standard":"Target","nom_a":null,"nom_de":null,"slug_ville":"target","departement_id":0,"code_postal":"03140","population":244,"superficie_km2":"2680.75","latitude_centre":"46.282","longitude_centre":"3.0503","distance_km":8.2},{"id":0,"code_insee":"03188","nom_standard":"Montord","nom_a":null,"nom_de":null,"slug_ville":"montord","departement_id":0,"code_postal":"03500","population":211,"superficie_km2":"456.07","latitude_centre":"46.2897","longitude_centre":"3.2406","distance_km":8.31},{"id":0,"code_insee":"03194","nom_standard":"Naves","nom_a":null,"nom_de":null,"slug_ville":"naves","departement_id":0,"code_postal":"03330","population":146,"superficie_km2":"817.01","latitude_centre":"46.1766","longitude_centre":"3.1154","distance_km":8.71},{"id":0,"code_insee":"03237","nom_standard":"Saint-Germain-de-Salles","nom_a":null,"nom_de":null,"slug_ville":"saint-germain-de-salles","departement_id":0,"code_postal":"03140","population":434,"superficie_km2":"1171.63","latitude_centre":"46.1881","longitude_centre":"3.2234","distance_km":9.17},{"id":0,"code_insee":"03319","nom_standard":"Voussac","nom_a":null,"nom_de":null,"slug_ville":"voussac","departement_id":0,"code_postal":"03140","population":494,"superficie_km2":"3490.13","latitude_centre":"46.3268","longitude_centre":"3.0769","distance_km":9.96},{"id":0,"code_insee":"03295","nom_standard":"Valignat","nom_a":null,"nom_de":null,"slug_ville":"valignat","departement_id":0,"code_postal":"03330","population":64,"superficie_km2":"229.98","latitude_centre":"46.1746","longitude_centre":"3.0785","distance_km":10.08},{"id":0,"code_insee":"03134","nom_standard":"Laféline","nom_a":null,"nom_de":null,"slug_ville":"lafeline","departement_id":0,"code_postal":"03500","population":173,"superficie_km2":"2307.59","latitude_centre":"46.3429","longitude_centre":"3.1786","distance_km":10.42},{"id":0,"code_insee":"03220","nom_standard":"Saint-Bonnet-de-Rochefort","nom_a":null,"nom_de":null,"slug_ville":"saint-bonnet-de-rochefort","departement_id":0,"code_postal":"03800","population":713,"superficie_km2":"1638.38","latitude_centre":"46.149","longitude_centre":"3.141","distance_km":11.43}]}