{"ville":{"id":5457,"code_insee":"57176","nom_standard":"Diebling","nom_a":null,"nom_de":null,"slug_ville":"diebling","departement_id":658,"code_postal":"57980","population":1673,"superficie_km2":"8.00","latitude_centre":"49.1049995","longitude_centre":"6.9359999","dep_code":"57","dep_nom":"Moselle","dep_slug":"moselle","reg_code":"06","reg_nom":"Grand Est","reg_slug":"grand-est"},"departement":{"code":"57","nom":"Moselle","slug":"moselle"},"region":{"code":"06","nom":"Grand Est","slug":"grand-est"},"villes_proches":[{"id":5585,"code_insee":"57665","nom_standard":"Tenteling","nom_a":null,"nom_de":null,"slug_ville":"tenteling","departement_id":658,"code_postal":"57980","population":1046,"superficie_km2":"7.00","latitude_centre":"49.1250000","longitude_centre":"6.9289999","distance_km":2.28},{"id":5494,"code_insee":"57340","nom_standard":"Hundling","nom_a":null,"nom_de":null,"slug_ville":"hundling","departement_id":658,"code_postal":"57990","population":1349,"superficie_km2":"7.00","latitude_centre":"49.1020012","longitude_centre":"6.9850001","distance_km":3.58},{"id":5535,"code_insee":"57514","nom_standard":"Nousseviller-Saint-Nabor","nom_a":null,"nom_de":null,"slug_ville":"nousseviller-saint-nabor","departement_id":658,"code_postal":"57990","population":1188,"superficie_km2":"6.00","latitude_centre":"49.1290016","longitude_centre":"6.9710002","distance_km":3.69},{"id":5467,"code_insee":"57208","nom_standard":"Farschviller","nom_a":null,"nom_de":null,"slug_ville":"farschviller","departement_id":658,"code_postal":"57450","population":1332,"superficie_km2":"11.00","latitude_centre":"49.0900002","longitude_centre":"6.8839998","distance_km":4.14},{"id":5588,"code_insee":"57669","nom_standard":"Théding","nom_a":null,"nom_de":null,"slug_ville":"theding","departement_id":658,"code_postal":"57450","population":2441,"superficie_km2":"8.00","latitude_centre":"49.1279984","longitude_centre":"6.8899999","distance_km":4.21},{"id":5439,"code_insee":"57101","nom_standard":"Bousbach","nom_a":null,"nom_de":null,"slug_ville":"bousbach","departement_id":658,"code_postal":"57460","population":1208,"superficie_km2":"6.00","latitude_centre":"49.1450005","longitude_centre":"6.9480000","distance_km":4.53},{"id":5466,"code_insee":"57207","nom_standard":"Farébersviller","nom_a":null,"nom_de":null,"slug_ville":"farebersviller","departement_id":658,"code_postal":"57450","population":5316,"superficie_km2":"7.00","latitude_centre":"49.1170006","longitude_centre":"6.8680000","distance_km":5.13},{"id":5472,"code_insee":"57222","nom_standard":"Folkling","nom_a":null,"nom_de":null,"slug_ville":"folkling","departement_id":658,"code_postal":"57600","population":1374,"superficie_km2":"12.00","latitude_centre":"49.1510010","longitude_centre":"6.9060001","distance_km":5.56},{"id":5560,"code_insee":"57598","nom_standard":"Rouhling","nom_a":null,"nom_de":null,"slug_ville":"rouhling","departement_id":658,"code_postal":"57520","population":1978,"superficie_km2":"6.00","latitude_centre":"49.1310005","longitude_centre":"7.0029998","distance_km":5.67},{"id":5546,"code_insee":"57556","nom_standard":"Puttelange-aux-Lacs","nom_a":null,"nom_de":null,"slug_ville":"puttelange-aux-lacs","departement_id":658,"code_postal":"57510","population":3051,"superficie_km2":"17.00","latitude_centre":"49.0540009","longitude_centre":"6.9180002","distance_km":5.82},{"id":5604,"code_insee":"57752","nom_standard":"Woustviller","nom_a":null,"nom_de":null,"slug_ville":"woustviller","departement_id":658,"code_postal":"57915","population":2854,"superficie_km2":"11.00","latitude_centre":"49.0789986","longitude_centre":"7.0060000","distance_km":5.86},{"id":5500,"code_insee":"57360","nom_standard":"Kerbach","nom_a":null,"nom_de":null,"slug_ville":"kerbach","departement_id":658,"code_postal":"57460","population":1215,"superficie_km2":"4.00","latitude_centre":"49.1619988","longitude_centre":"6.9740000","distance_km":6.91},{"id":5432,"code_insee":"57058","nom_standard":"Behren-lès-Forbach","nom_a":null,"nom_de":null,"slug_ville":"behren-les-forbach","departement_id":658,"code_postal":"57460","population":6433,"superficie_km2":"6.00","latitude_centre":"49.1679993","longitude_centre":"6.9419999","distance_km":7.02},{"id":5449,"code_insee":"57144","nom_standard":"Cocheren","nom_a":null,"nom_de":null,"slug_ville":"cocheren","departement_id":658,"code_postal":"57800","population":3359,"superficie_km2":"6.00","latitude_centre":"49.1440010","longitude_centre":"6.8530002","distance_km":7.44},{"id":5576,"code_insee":"57644","nom_standard":"Seingbouse","nom_a":null,"nom_de":null,"slug_ville":"seingbouse","departement_id":658,"code_postal":"57455","population":1717,"superficie_km2":"8.00","latitude_centre":"49.1080017","longitude_centre":"6.8319998","distance_km":7.58},{"id":5537,"code_insee":"57521","nom_standard":"Œting","nom_a":null,"nom_de":null,"slug_ville":"oeting","departement_id":658,"code_postal":"57600","population":2674,"superficie_km2":"4.00","latitude_centre":"49.1720009","longitude_centre":"6.9089999","distance_km":7.7},{"id":5433,"code_insee":"57061","nom_standard":"Béning-lès-Saint-Avold","nom_a":null,"nom_de":null,"slug_ville":"bening-les-saint-avold","departement_id":658,"code_postal":"57800","population":1136,"superficie_km2":"4.00","latitude_centre":"49.1339989","longitude_centre":"6.8369999","distance_km":7.89},{"id":5551,"code_insee":"57571","nom_standard":"Rémering-lès-Puttelange","nom_a":null,"nom_de":null,"slug_ville":"remering-les-puttelange","departement_id":658,"code_postal":"57510","population":1017,"superficie_km2":"9.00","latitude_centre":"49.0330010","longitude_centre":"6.9320002","distance_km":8.01},{"id":5481,"code_insee":"57260","nom_standard":"Grosbliederstroff","nom_a":null,"nom_de":null,"slug_ville":"grosbliederstroff","departement_id":658,"code_postal":"57520","population":3297,"superficie_km2":"13.00","latitude_centre":"49.1549988","longitude_centre":"7.0219998","distance_km":8.37},{"id":5463,"code_insee":"57202","nom_standard":"Etzling","nom_a":null,"nom_de":null,"slug_ville":"etzling","departement_id":658,"code_postal":"57460","population":1147,"superficie_km2":"5.00","latitude_centre":"49.1800003","longitude_centre":"6.9580002","distance_km":8.49}]}