{"ville":{"id":22579,"code_insee":"47081","nom_standard":"Dolmayrac","nom_a":null,"nom_de":null,"slug_ville":"dolmayrac","departement_id":0,"code_postal":"47110","population":719,"superficie_km2":"1948.44","latitude_centre":"44.3575","longitude_centre":"0.5916","dep_code":"47","dep_nom":"Lot-et-Garonne","dep_slug":"lot-et-garonne","reg_code":"75","reg_nom":"Nouvelle-Aquitaine","reg_slug":"nouvelle-aquitaine"},"departement":{"code":"47","nom":"Lot-et-Garonne","slug":"lot-et-garonne"},"region":{"code":"75","nom":"Nouvelle-Aquitaine","slug":"nouvelle-aquitaine"},"villes_proches":[{"id":22573,"code_insee":"47073","nom_standard":"Cours","nom_a":null,"nom_de":null,"slug_ville":"cours","departement_id":0,"code_postal":"47360","population":195,"superficie_km2":"1142.88","latitude_centre":"44.3296","longitude_centre":"0.5942","distance_km":3.11},{"id":22525,"code_insee":"47006","nom_standard":"Allez-et-Cazeneuve","nom_a":null,"nom_de":null,"slug_ville":"allez-et-cazeneuve","departement_id":0,"code_postal":"47110","population":609,"superficie_km2":"1078.46","latitude_centre":"44.3774","longitude_centre":"0.6291","distance_km":3.71},{"id":0,"code_insee":"47190","nom_standard":"Montpezat","nom_a":null,"nom_de":null,"slug_ville":"montpezat","departement_id":0,"code_postal":"47360","population":566,"superficie_km2":"2428.92","latitude_centre":"44.3438","longitude_centre":"0.5289","distance_km":5.21},{"id":0,"code_insee":"47252","nom_standard":"Sainte-Livrade-sur-Lot","nom_a":null,"nom_de":null,"slug_ville":"sainte-livrade-sur-lot","departement_id":0,"code_postal":"47110","population":6541,"superficie_km2":"3107.51","latitude_centre":"44.4064","longitude_centre":"0.6005","distance_km":5.48},{"id":0,"code_insee":"47237","nom_standard":"Sainte-Colombe-de-Villeneuve","nom_a":null,"nom_de":null,"slug_ville":"sainte-colombe-de-villeneuve","departement_id":0,"code_postal":"47300","population":496,"superficie_km2":"1902.61","latitude_centre":"44.3594","longitude_centre":"0.6609","distance_km":5.51},{"id":0,"code_insee":"47297","nom_standard":"Sembas","nom_a":null,"nom_de":null,"slug_ville":"sembas","departement_id":0,"code_postal":"47360","population":142,"superficie_km2":"1261.08","latitude_centre":"44.3222","longitude_centre":"0.6448","distance_km":5.77},{"id":0,"code_insee":"47306","nom_standard":"Le Temple-sur-Lot","nom_a":null,"nom_de":null,"slug_ville":"le-temple-sur-lot","departement_id":0,"code_postal":"47110","population":1118,"superficie_km2":"1701.16","latitude_centre":"44.3761","longitude_centre":"0.5203","distance_km":6.03},{"id":0,"code_insee":"47239","nom_standard":"Saint-Étienne-de-Fougères","nom_a":null,"nom_de":null,"slug_ville":"saint-etienne-de-fougeres","departement_id":0,"code_postal":"47380","population":855,"superficie_km2":"995.84","latitude_centre":"44.4125","longitude_centre":"0.557","distance_km":6.71},{"id":0,"code_insee":"47140","nom_standard":"Laugnac","nom_a":null,"nom_de":null,"slug_ville":"laugnac","departement_id":0,"code_postal":"47360","population":675,"superficie_km2":"1730.72","latitude_centre":"44.2958","longitude_centre":"0.5994","distance_km":6.89},{"id":0,"code_insee":"47099","nom_standard":"Fongrave","nom_a":null,"nom_de":null,"slug_ville":"fongrave","departement_id":0,"code_postal":"47260","population":629,"superficie_km2":"949.32","latitude_centre":"44.4052","longitude_centre":"0.5325","distance_km":7.08},{"id":0,"code_insee":"47276","nom_standard":"Saint-Sardos","nom_a":null,"nom_de":null,"slug_ville":"saint-sardos","departement_id":0,"code_postal":"47360","population":289,"superficie_km2":"1446.66","latitude_centre":"44.3404","longitude_centre":"0.4905","distance_km":8.26},{"id":0,"code_insee":"47027","nom_standard":"Bias","nom_a":null,"nom_de":null,"slug_ville":"bias","departement_id":0,"code_postal":"47300","population":2977,"superficie_km2":"1232.70","latitude_centre":"44.4102","longitude_centre":"0.6702","distance_km":8.56},{"id":22559,"code_insee":"47053","nom_standard":"Castella","nom_a":null,"nom_de":null,"slug_ville":"castella","departement_id":0,"code_postal":"47340","population":370,"superficie_km2":"1262.17","latitude_centre":"44.3125","longitude_centre":"0.6799","distance_km":8.62},{"id":0,"code_insee":"47215","nom_standard":"Pujols","nom_a":null,"nom_de":null,"slug_ville":"pujols","departement_id":0,"code_postal":"47300","population":3769,"superficie_km2":"2522.31","latitude_centre":"44.3687","longitude_centre":"0.7006","distance_km":8.75},{"id":0,"code_insee":"47155","nom_standard":"Madaillan","nom_a":null,"nom_de":null,"slug_ville":"madaillan","departement_id":0,"code_postal":"47360","population":648,"superficie_km2":"2440.05","latitude_centre":"44.2764","longitude_centre":"0.5815","distance_km":9.05},{"id":0,"code_insee":"47213","nom_standard":"Prayssas","nom_a":null,"nom_de":null,"slug_ville":"prayssas","departement_id":0,"code_postal":"47360","population":993,"superficie_km2":"2661.21","latitude_centre":"44.2943","longitude_centre":"0.5185","distance_km":9.12},{"id":0,"code_insee":"47125","nom_standard":"Lacépède","nom_a":null,"nom_de":null,"slug_ville":"lacepede","departement_id":0,"code_postal":"47360","population":320,"superficie_km2":"1133.62","latitude_centre":"44.3195","longitude_centre":"0.4862","distance_km":9.39},{"id":0,"code_insee":"47049","nom_standard":"Casseneuil","nom_a":null,"nom_de":null,"slug_ville":"casseneuil","departement_id":0,"code_postal":"47440","population":2348,"superficie_km2":"1813.47","latitude_centre":"44.4461","longitude_centre":"0.6189","distance_km":10.09},{"id":0,"code_insee":"47173","nom_standard":"Monclar","nom_a":null,"nom_de":null,"slug_ville":"monclar","departement_id":0,"code_postal":"47380","population":900,"superficie_km2":"2421.93","latitude_centre":"44.4445","longitude_centre":"0.5257","distance_km":11.0},{"id":0,"code_insee":"47206","nom_standard":"Pinel-Hauterive","nom_a":null,"nom_de":null,"slug_ville":"pinel-hauterive","departement_id":0,"code_postal":"47380","population":564,"superficie_km2":"2191.65","latitude_centre":"44.4637","longitude_centre":"0.5719","distance_km":11.91}]}