{"ville":{"id":423,"code_insee":"06054","nom_standard":"Drap","nom_a":null,"nom_de":null,"slug_ville":"drap","departement_id":606,"code_postal":"06340","population":5238,"superficie_km2":"5.00","latitude_centre":"43.7579994","longitude_centre":"7.3369999","dep_code":"06","dep_nom":"Alpes-Maritimes","dep_slug":"alpes-maritimes","reg_code":"18","reg_nom":"Provence-Alpes-Côte d'Azur","reg_slug":"provence-alpes-cote-d-azur"},"departement":{"code":"06","nom":"Alpes-Maritimes","slug":"alpes-maritimes"},"region":{"code":"18","nom":"Provence-Alpes-Côte d'Azur","slug":"provence-alpes-cote-d-azur"},"villes_proches":[{"id":469,"code_insee":"06149","nom_standard":"La Trinité","nom_a":null,"nom_de":null,"slug_ville":"la-trinite","departement_id":606,"code_postal":"06340","population":10276,"superficie_km2":"15.00","latitude_centre":"43.7430000","longitude_centre":"7.3400002","distance_km":1.69},{"id":414,"code_insee":"06031","nom_standard":"Cantaron","nom_a":null,"nom_de":null,"slug_ville":"cantaron","departement_id":606,"code_postal":"06340","population":1285,"superficie_km2":"7.00","latitude_centre":"43.7709999","longitude_centre":"7.3130002","distance_km":2.41},{"id":443,"code_insee":"06092","nom_standard":"Peillon","nom_a":null,"nom_de":null,"slug_ville":"peillon","departement_id":606,"code_postal":"06440","population":1445,"superficie_km2":"9.00","latitude_centre":"43.7729988","longitude_centre":"7.3720002","distance_km":3.27},{"id":425,"code_insee":"06059","nom_standard":"Èze","nom_a":null,"nom_de":null,"slug_ville":"eze","departement_id":606,"code_postal":"06360","population":2189,"superficie_km2":"10.00","latitude_centre":"43.7290001","longitude_centre":"7.3610001","distance_km":3.76},{"id":452,"code_insee":"06114","nom_standard":"Saint-André-de-la-Roche","nom_a":null,"nom_de":null,"slug_ville":"saint-andre-de-la-roche","departement_id":606,"code_postal":"06730","population":5782,"superficie_km2":"3.00","latitude_centre":"43.7459984","longitude_centre":"7.2890000","distance_km":4.08},{"id":407,"code_insee":"06019","nom_standard":"Blausasc","nom_a":null,"nom_de":null,"slug_ville":"blausasc","departement_id":606,"code_postal":"06440","population":1659,"superficie_km2":"10.00","latitude_centre":"43.7939987","longitude_centre":"7.3600001","distance_km":4.41},{"id":470,"code_insee":"06150","nom_standard":"La Turbie","nom_a":null,"nom_de":null,"slug_ville":"la-turbie","departement_id":606,"code_postal":"06320","population":3015,"superficie_km2":"7.00","latitude_centre":"43.7449989","longitude_centre":"7.3979998","distance_km":5.11},{"id":474,"code_insee":"06159","nom_standard":"Villefranche-sur-Mer","nom_a":null,"nom_de":null,"slug_ville":"villefranche-sur-mer","departement_id":606,"code_postal":"06230","population":4989,"superficie_km2":"5.00","latitude_centre":"43.7120018","longitude_centre":"7.3220000","distance_km":5.25},{"id":403,"code_insee":"06011","nom_standard":"Beaulieu-sur-Mer","nom_a":null,"nom_de":null,"slug_ville":"beaulieu-sur-mer","departement_id":606,"code_postal":"06310","population":3796,"superficie_km2":"1.00","latitude_centre":"43.7080002","longitude_centre":"7.3330002","distance_km":5.57},{"id":426,"code_insee":"06060","nom_standard":"Falicon","nom_a":null,"nom_de":null,"slug_ville":"falicon","departement_id":606,"code_postal":"06950","population":2111,"superficie_km2":"5.00","latitude_centre":"43.7519989","longitude_centre":"7.2659998","distance_km":5.74},{"id":422,"code_insee":"06048","nom_standard":"Contes","nom_a":null,"nom_de":null,"slug_ville":"contes","departement_id":606,"code_postal":"06390","population":7544,"superficie_km2":"20.00","latitude_centre":"43.8089981","longitude_centre":"7.3239999","distance_km":5.77},{"id":467,"code_insee":"06147","nom_standard":"Tourrette-Levens","nom_a":null,"nom_de":null,"slug_ville":"tourrette-levens","departement_id":606,"code_postal":"06690","population":4760,"superficie_km2":"16.00","latitude_centre":"43.7859993","longitude_centre":"7.2729998","distance_km":6.01},{"id":415,"code_insee":"06032","nom_standard":"Cap-d'Ail","nom_a":null,"nom_de":null,"slug_ville":"cap-d-ail","departement_id":606,"code_postal":"06320","population":4508,"superficie_km2":"2.00","latitude_centre":"43.7249985","longitude_centre":"7.4020000","distance_km":6.38},{"id":404,"code_insee":"06012","nom_standard":"Beausoleil","nom_a":null,"nom_de":null,"slug_ville":"beausoleil","departement_id":606,"code_postal":"06240","population":12674,"superficie_km2":"3.00","latitude_centre":"43.7480011","longitude_centre":"7.4219999","distance_km":6.92},{"id":400,"code_insee":"06006","nom_standard":"Aspremont","nom_a":null,"nom_de":null,"slug_ville":"aspremont","departement_id":606,"code_postal":"06790","population":2300,"superficie_km2":"9.00","latitude_centre":"43.7750015","longitude_centre":"7.2449999","distance_km":7.63},{"id":456,"code_insee":"06121","nom_standard":"Saint-Jean-Cap-Ferrat","nom_a":null,"nom_de":null,"slug_ville":"saint-jean-cap-ferrat","departement_id":606,"code_postal":"06230","population":1471,"superficie_km2":"3.00","latitude_centre":"43.6870003","longitude_centre":"7.3299999","distance_km":7.91},{"id":442,"code_insee":"06091","nom_standard":"Peille","nom_a":null,"nom_de":null,"slug_ville":"peille","departement_id":606,"code_postal":"06440","population":2287,"superficie_km2":"43.00","latitude_centre":"43.8059998","longitude_centre":"7.4109998","distance_km":7.99},{"id":424,"code_insee":"06057","nom_standard":"L'Escarène","nom_a":null,"nom_de":null,"slug_ville":"l-escarene","departement_id":606,"code_postal":"06440","population":2563,"superficie_km2":"11.00","latitude_centre":"43.8339996","longitude_centre":"7.3660002","distance_km":8.77},{"id":405,"code_insee":"06015","nom_standard":"Berre-les-Alpes","nom_a":null,"nom_de":null,"slug_ville":"berre-les-alpes","departement_id":606,"code_postal":"06390","population":1227,"superficie_km2":"10.00","latitude_centre":"43.8380013","longitude_centre":"7.3309999","distance_km":8.91},{"id":421,"code_insee":"06046","nom_standard":"Colomars","nom_a":null,"nom_de":null,"slug_ville":"colomars","departement_id":606,"code_postal":"06670","population":3487,"superficie_km2":"6.00","latitude_centre":"43.7589989","longitude_centre":"7.2230001","distance_km":9.16}]}