{"ville":{"id":17476,"code_insee":"27206","nom_standard":"Droisy","nom_a":null,"nom_de":null,"slug_ville":"droisy","departement_id":0,"code_postal":"27320","population":455,"superficie_km2":"1768.71","latitude_centre":"48.7977","longitude_centre":"1.1168","dep_code":"27","dep_nom":"Eure","dep_slug":"eure","reg_code":"28","reg_nom":"Normandie","reg_slug":"normandie"},"departement":{"code":"27","nom":"Eure","slug":"eure"},"region":{"code":"28","nom":"Normandie","slug":"normandie"},"villes_proches":[{"id":17352,"code_insee":"27002","nom_standard":"Acon","nom_a":null,"nom_de":null,"slug_ville":"acon","departement_id":0,"code_postal":"27570","population":478,"superficie_km2":"926.05","latitude_centre":"48.7681","longitude_centre":"1.105","distance_km":3.4},{"id":17419,"code_insee":"27115","nom_standard":"Breux-sur-Avre","nom_a":null,"nom_de":null,"slug_ville":"breux-sur-avre","departement_id":0,"code_postal":"27570","population":326,"superficie_km2":"720.56","latitude_centre":"48.7688","longitude_centre":"1.0755","distance_km":4.41},{"id":0,"code_insee":"28124","nom_standard":"Dampierre-sur-Avre","nom_a":null,"nom_de":null,"slug_ville":"dampierre-sur-avre","departement_id":0,"code_postal":"28350","population":756,"superficie_km2":"1834.00","latitude_centre":"48.7575","longitude_centre":"1.1437","distance_km":4.89},{"id":0,"code_insee":"27438","nom_standard":"Nonancourt","nom_a":null,"nom_de":null,"slug_ville":"nonancourt","departement_id":0,"code_postal":"27320","population":2321,"superficie_km2":"731.08","latitude_centre":"48.7775","longitude_centre":"1.1907","distance_km":5.86},{"id":0,"code_insee":"27390","nom_standard":"Marcilly-la-Campagne","nom_a":null,"nom_de":null,"slug_ville":"marcilly-la-campagne","departement_id":0,"code_postal":"27320","population":1118,"superficie_km2":"1969.80","latitude_centre":"48.8277","longitude_centre":"1.1866","distance_km":6.1},{"id":0,"code_insee":"27341","nom_standard":"L'Hosmes","nom_a":null,"nom_de":null,"slug_ville":"l-hosmes","departement_id":0,"code_postal":"27570","population":65,"superficie_km2":"672.08","latitude_centre":"48.7889","longitude_centre":"1.0291","distance_km":6.5},{"id":0,"code_insee":"27411","nom_standard":"Moisville","nom_a":null,"nom_de":null,"slug_ville":"moisville","departement_id":0,"code_postal":"27320","population":233,"superficie_km2":"702.06","latitude_centre":"48.8483","longitude_centre":"1.1633","distance_km":6.58},{"id":0,"code_insee":"28037","nom_standard":"Bérou-la-Mulotière","nom_a":null,"nom_de":null,"slug_ville":"berou-la-mulotiere","departement_id":0,"code_postal":"28270","population":345,"superficie_km2":"1320.29","latitude_centre":"48.742","longitude_centre":"1.0741","distance_km":6.94},{"id":0,"code_insee":"27378","nom_standard":"La Madeleine-de-Nonancourt","nom_a":null,"nom_de":null,"slug_ville":"la-madeleine-de-nonancourt","departement_id":0,"code_postal":"27320","population":1150,"superficie_km2":"2252.67","latitude_centre":"48.7913","longitude_centre":"1.219","distance_km":7.52},{"id":0,"code_insee":"27643","nom_standard":"Tillières-sur-Avre","nom_a":null,"nom_de":null,"slug_ville":"tillieres-sur-avre","departement_id":0,"code_postal":"27570","population":1020,"superficie_km2":"1679.00","latitude_centre":"48.7585","longitude_centre":"1.0284","distance_km":7.81},{"id":0,"code_insee":"28348","nom_standard":"Saint-Lubin-des-Joncherets","nom_a":null,"nom_de":null,"slug_ville":"saint-lubin-des-joncherets","departement_id":0,"code_postal":"28350","population":4116,"superficie_km2":"1443.15","latitude_centre":"48.7465","longitude_centre":"1.1923","distance_km":7.94},{"id":0,"code_insee":"27198","nom_standard":"Mesnils-sur-Iton","nom_a":null,"nom_de":null,"slug_ville":"mesnils-sur-iton","departement_id":0,"code_postal":"27160","population":6078,"superficie_km2":"12493.88","latitude_centre":"48.8606","longitude_centre":"1.0481","distance_km":8.61},{"id":0,"code_insee":"28308","nom_standard":"Prudemanche","nom_a":null,"nom_de":null,"slug_ville":"prudemanche","departement_id":0,"code_postal":"28270","population":262,"superficie_km2":"1544.38","latitude_centre":"48.7202","longitude_centre":"1.1375","distance_km":8.75},{"id":0,"code_insee":"28315","nom_standard":"Revercourt","nom_a":null,"nom_de":null,"slug_ville":"revercourt","departement_id":0,"code_postal":"28270","population":26,"superficie_km2":"551.61","latitude_centre":"48.7217","longitude_centre":"1.0787","distance_km":8.9},{"id":0,"code_insee":"28346","nom_standard":"Saint-Lubin-de-Cravant","nom_a":null,"nom_de":null,"slug_ville":"saint-lubin-de-cravant","departement_id":0,"code_postal":"28270","population":54,"superficie_km2":"693.27","latitude_centre":"48.7076","longitude_centre":"1.0987","distance_km":10.11},{"id":17446,"code_insee":"27154","nom_standard":"Chavigny-Bailleul","nom_a":null,"nom_de":null,"slug_ville":"chavigny-bailleul","departement_id":0,"code_postal":"27220","population":566,"superficie_km2":"1844.83","latitude_centre":"48.881","longitude_centre":"1.1967","distance_km":10.95},{"id":0,"code_insee":"27032","nom_standard":"Chambois","nom_a":null,"nom_de":null,"slug_ville":"chambois","departement_id":0,"code_postal":"27240","population":1322,"superficie_km2":"2737.54","latitude_centre":"48.9038","longitude_centre":"1.1542","distance_km":12.11},{"id":0,"code_insee":"27693","nom_standard":"Sylvains-Lès-Moulins","nom_a":null,"nom_de":null,"slug_ville":"sylvains-les-moulins","departement_id":0,"code_postal":"27240","population":1267,"superficie_km2":"2388.54","latitude_centre":"48.9057","longitude_centre":"1.0935","distance_km":12.13},{"id":0,"code_insee":"28059","nom_standard":"Brezolles","nom_a":null,"nom_de":null,"slug_ville":"brezolles","departement_id":0,"code_postal":"28270","population":1785,"superficie_km2":"1427.06","latitude_centre":"48.6898","longitude_centre":"1.064","distance_km":12.61},{"id":0,"code_insee":"28120","nom_standard":"Crucey-Villages","nom_a":null,"nom_de":null,"slug_ville":"crucey-villages","departement_id":0,"code_postal":"28270","population":463,"superficie_km2":"4445.73","latitude_centre":"48.6749","longitude_centre":"1.1036","distance_km":13.69}]}