{"ville":{"id":7781,"code_insee":"74108","nom_standard":"Duingt","nom_a":null,"nom_de":null,"slug_ville":"duingt","departement_id":675,"code_postal":"74410","population":1044,"superficie_km2":"6.00","latitude_centre":"45.8199997","longitude_centre":"6.1950002","dep_code":"74","dep_nom":"Haute-Savoie","dep_slug":"haute-savoie","reg_code":"01","reg_nom":"Auvergne-Rhône-Alpes","reg_slug":"auvergne-rhone-alpes"},"departement":{"code":"74","nom":"Haute-Savoie","slug":"haute-savoie"},"region":{"code":"01","nom":"Auvergne-Rhône-Alpes","slug":"auvergne-rhone-alpes"},"villes_proches":[{"id":7874,"code_insee":"74275","nom_standard":"Talloires-Montmin","nom_a":null,"nom_de":null,"slug_ville":"talloires-montmin","departement_id":675,"code_postal":"74210","population":1926,"superficie_km2":"26.00","latitude_centre":"45.8359985","longitude_centre":"6.2300000","distance_km":3.24},{"id":7858,"code_insee":"74242","nom_standard":"Saint-Jorioz","nom_a":null,"nom_de":null,"slug_ville":"saint-jorioz","departement_id":675,"code_postal":"74410","population":6287,"superficie_km2":"23.00","latitude_centre":"45.8230019","longitude_centre":"6.1500001","distance_km":3.5},{"id":7823,"code_insee":"74176","nom_standard":"Menthon-Saint-Bernard","nom_a":null,"nom_de":null,"slug_ville":"menthon-saint-bernard","departement_id":675,"code_postal":"74290","population":1885,"superficie_km2":"7.00","latitude_centre":"45.8650017","longitude_centre":"6.1939998","distance_km":5},{"id":7803,"code_insee":"74147","nom_standard":"Lathuile","nom_a":null,"nom_de":null,"slug_ville":"lathuile","departement_id":675,"code_postal":"74210","population":1048,"superficie_km2":"9.00","latitude_centre":"45.7729988","longitude_centre":"6.1960001","distance_km":5.23},{"id":7779,"code_insee":"74104","nom_standard":"Doussard","nom_a":null,"nom_de":null,"slug_ville":"doussard","departement_id":675,"code_postal":"74210","population":3626,"superficie_km2":"23.00","latitude_centre":"45.7709999","longitude_centre":"6.2220001","distance_km":5.84},{"id":7871,"code_insee":"74267","nom_standard":"Sevrier","nom_a":null,"nom_de":null,"slug_ville":"sevrier","departement_id":675,"code_postal":"74320","population":4156,"superficie_km2":"18.00","latitude_centre":"45.8559990","longitude_centre":"6.1380000","distance_km":5.96},{"id":7887,"code_insee":"74299","nom_standard":"Veyrier-du-Lac","nom_a":null,"nom_de":null,"slug_ville":"veyrier-du-lac","departement_id":675,"code_postal":"74290","population":2297,"superficie_km2":"13.00","latitude_centre":"45.8860016","longitude_centre":"6.1770000","distance_km":7.47},{"id":7726,"code_insee":"74003","nom_standard":"Alex","nom_a":null,"nom_de":null,"slug_ville":"alex","departement_id":675,"code_postal":"74290","population":1113,"superficie_km2":"17.00","latitude_centre":"45.8810005","longitude_centre":"6.2360001","distance_km":7.49},{"id":7847,"code_insee":"74219","nom_standard":"Quintal","nom_a":null,"nom_de":null,"slug_ville":"quintal","departement_id":675,"code_postal":"74600","population":1247,"superficie_km2":"9.00","latitude_centre":"45.8330002","longitude_centre":"6.0910001","distance_km":8.19},{"id":7892,"code_insee":"74310","nom_standard":"Viuz-la-Chiésaz","nom_a":null,"nom_de":null,"slug_ville":"viuz-la-chiesaz","departement_id":675,"code_postal":"74540","population":1304,"superficie_km2":"14.00","latitude_centre":"45.8110008","longitude_centre":"6.0760002","distance_km":9.28},{"id":7731,"code_insee":"74010","nom_standard":"Annecy","nom_a":null,"nom_de":null,"slug_ville":"annecy","departement_id":675,"code_postal":"74000","population":131715,"superficie_km2":"16.00","latitude_centre":"45.8909988","longitude_centre":"6.1259999","distance_km":9.53},{"id":7787,"code_insee":"74123","nom_standard":"Faverges-Seythenex","nom_a":null,"nom_de":null,"slug_ville":"faverges-seythenex","departement_id":675,"code_postal":"74210","population":7581,"superficie_km2":"26.00","latitude_centre":"45.7490006","longitude_centre":"6.2849998","distance_km":10.54},{"id":7797,"code_insee":"74138","nom_standard":"Gruffy","nom_a":null,"nom_de":null,"slug_ville":"gruffy","departement_id":675,"code_postal":"74540","population":1503,"superficie_km2":"14.00","latitude_centre":"45.7830010","longitude_centre":"6.0630002","distance_km":11.03},{"id":7877,"code_insee":"74280","nom_standard":"Thônes","nom_a":null,"nom_de":null,"slug_ville":"thones","departement_id":675,"code_postal":"74230","population":6600,"superficie_km2":"52.00","latitude_centre":"45.8849983","longitude_centre":"6.3200002","distance_km":12.08},{"id":7833,"code_insee":"74198","nom_standard":"Nâves-Parmelan","nom_a":null,"nom_de":null,"slug_ville":"naves-parmelan","departement_id":675,"code_postal":"74370","population":1002,"superficie_km2":"5.00","latitude_centre":"45.9319992","longitude_centre":"6.1970000","distance_km":12.45},{"id":7777,"code_insee":"74102","nom_standard":"Dingy-Saint-Clair","nom_a":null,"nom_de":null,"slug_ville":"dingy-saint-clair","departement_id":675,"code_postal":"74230","population":1452,"superficie_km2":"34.00","latitude_centre":"45.9290009","longitude_centre":"6.2500000","distance_km":12.85},{"id":7760,"code_insee":"74067","nom_standard":"Chavanod","nom_a":null,"nom_de":null,"slug_ville":"chavanod","departement_id":675,"code_postal":"74650","population":2913,"superficie_km2":"13.00","latitude_centre":"45.8839989","longitude_centre":"6.0500002","distance_km":13.3},{"id":7817,"code_insee":"74167","nom_standard":"Val de Chaise","nom_a":null,"nom_de":null,"slug_ville":"val-de-chaise","departement_id":675,"code_postal":"74210","population":1390,"superficie_km2":"15.00","latitude_centre":"45.7649994","longitude_centre":"6.3509998","distance_km":13.55},{"id":7725,"code_insee":"74002","nom_standard":"Alby-sur-Chéran","nom_a":null,"nom_de":null,"slug_ville":"alby-sur-cheran","departement_id":675,"code_postal":"74540","population":2665,"superficie_km2":"7.00","latitude_centre":"45.8160019","longitude_centre":"6.0159998","distance_km":13.88},{"id":7775,"code_insee":"74097","nom_standard":"Cusy","nom_a":null,"nom_de":null,"slug_ville":"cusy","departement_id":675,"code_postal":"74540","population":1849,"superficie_km2":"18.00","latitude_centre":"45.7579994","longitude_centre":"6.0330000","distance_km":14.33}]}