{"ville":{"id":22314,"code_insee":"46089","nom_standard":"Duravel","nom_a":null,"nom_de":null,"slug_ville":"duravel","departement_id":0,"code_postal":"46700","population":950,"superficie_km2":"1501.11","latitude_centre":"44.5164","longitude_centre":"1.0859","dep_code":"46","dep_nom":"Lot","dep_slug":"lot","reg_code":"76","reg_nom":"Occitanie","reg_slug":"occitanie"},"departement":{"code":"46","nom":"Lot","slug":"lot"},"region":{"code":"76","nom":"Occitanie","slug":"occitanie"},"villes_proches":[{"id":0,"code_insee":"46321","nom_standard":"Touzac","nom_a":null,"nom_de":null,"slug_ville":"touzac","departement_id":0,"code_postal":"46700","population":354,"superficie_km2":"410.02","latitude_centre":"44.496","longitude_centre":"1.0616","distance_km":2.98},{"id":0,"code_insee":"46336","nom_standard":"Vire-sur-Lot","nom_a":null,"nom_de":null,"slug_ville":"vire-sur-lot","departement_id":0,"code_postal":"46700","population":348,"superficie_km2":"776.63","latitude_centre":"44.4902","longitude_centre":"1.0948","distance_km":3.0},{"id":0,"code_insee":"46199","nom_standard":"Montcabrier","nom_a":null,"nom_de":null,"slug_ville":"montcabrier","departement_id":0,"code_postal":"46700","population":342,"superficie_km2":"2179.07","latitude_centre":"44.5529","longitude_centre":"1.0833","distance_km":4.06},{"id":0,"code_insee":"46231","nom_standard":"Puy-l'Évêque","nom_a":null,"nom_de":null,"slug_ville":"puy-l-eveque","departement_id":0,"code_postal":"46700","population":1860,"superficie_km2":"2645.20","latitude_centre":"44.5137","longitude_centre":"1.1387","distance_km":4.2},{"id":0,"code_insee":"46277","nom_standard":"Saint-Martin-le-Redon","nom_a":null,"nom_de":null,"slug_ville":"saint-martin-le-redon","departement_id":0,"code_postal":"46700","population":195,"superficie_km2":"1069.28","latitude_centre":"44.5372","longitude_centre":"1.0346","distance_km":4.68},{"id":0,"code_insee":"46142","nom_standard":"Lacapelle-Cabanac","nom_a":null,"nom_de":null,"slug_ville":"lacapelle-cabanac","departement_id":0,"code_postal":"46700","population":172,"superficie_km2":"806.28","latitude_centre":"44.4707","longitude_centre":"1.0739","distance_km":5.17},{"id":0,"code_insee":"46307","nom_standard":"Soturac","nom_a":null,"nom_de":null,"slug_ville":"soturac","departement_id":0,"code_postal":"46700","population":644,"superficie_km2":"1978.48","latitude_centre":"44.5122","longitude_centre":"1.0169","distance_km":5.49},{"id":22291,"code_insee":"46061","nom_standard":"Cassagnes","nom_a":null,"nom_de":null,"slug_ville":"cassagnes","departement_id":0,"code_postal":"46700","population":172,"superficie_km2":"1153.47","latitude_centre":"44.564","longitude_centre":"1.1285","distance_km":6.28},{"id":0,"code_insee":"46218","nom_standard":"Pescadoires","nom_a":null,"nom_de":null,"slug_ville":"pescadoires","departement_id":0,"code_postal":"46220","population":184,"superficie_km2":"246.17","latitude_centre":"44.4973","longitude_centre":"1.1605","distance_km":6.29},{"id":0,"code_insee":"46107","nom_standard":"Floressas","nom_a":null,"nom_de":null,"slug_ville":"floressas","departement_id":0,"code_postal":"46700","population":176,"superficie_km2":"1385.22","latitude_centre":"44.4604","longitude_centre":"1.1137","distance_km":6.61},{"id":0,"code_insee":"46147","nom_standard":"Lagardelle","nom_a":null,"nom_de":null,"slug_ville":"lagardelle","departement_id":0,"code_postal":"46220","population":120,"superficie_km2":"314.01","latitude_centre":"44.4863","longitude_centre":"1.1697","distance_km":7.44},{"id":0,"code_insee":"46130","nom_standard":"Grézels","nom_a":null,"nom_de":null,"slug_ville":"grezels","departement_id":0,"code_postal":"46700","population":235,"superficie_km2":"1084.91","latitude_centre":"44.4674","longitude_centre":"1.1507","distance_km":7.49},{"id":0,"code_insee":"46187","nom_standard":"Mauroux","nom_a":null,"nom_de":null,"slug_ville":"mauroux","departement_id":0,"code_postal":"46700","population":580,"superficie_km2":"1633.96","latitude_centre":"44.4539","longitude_centre":"1.0476","distance_km":7.58},{"id":0,"code_insee":"46225","nom_standard":"Prayssac","nom_a":null,"nom_de":null,"slug_ville":"prayssac","departement_id":0,"code_postal":"46220","population":2519,"superficie_km2":"2421.29","latitude_centre":"44.5087","longitude_centre":"1.1863","distance_km":8.01},{"id":0,"code_insee":"46222","nom_standard":"Pomarède","nom_a":null,"nom_de":null,"slug_ville":"pomarede","departement_id":0,"code_postal":"46250","population":189,"superficie_km2":"707.69","latitude_centre":"44.5594","longitude_centre":"1.1779","distance_km":8.72},{"id":0,"code_insee":"47242","nom_standard":"Saint-Front-sur-Lémance","nom_a":null,"nom_de":null,"slug_ville":"saint-front-sur-lemance","departement_id":0,"code_postal":"47500","population":492,"superficie_km2":"1979.99","latitude_centre":"44.5632","longitude_centre":"0.9975","distance_km":8.73},{"id":0,"code_insee":"47292","nom_standard":"Sauveterre-la-Lémance","nom_a":null,"nom_de":null,"slug_ville":"sauveterre-la-lemance","departement_id":0,"code_postal":"47500","population":563,"superficie_km2":"2358.32","latitude_centre":"44.5868","longitude_centre":"1.0366","distance_km":8.75},{"id":0,"code_insee":"46114","nom_standard":"Frayssinet-le-Gélat","nom_a":null,"nom_de":null,"slug_ville":"frayssinet-le-gelat","departement_id":0,"code_postal":"46250","population":376,"superficie_km2":"2322.20","latitude_centre":"44.59","longitude_centre":"1.1441","distance_km":9.39},{"id":0,"code_insee":"46305","nom_standard":"Sérignac","nom_a":null,"nom_de":null,"slug_ville":"serignac","departement_id":0,"code_postal":"46700","population":326,"superficie_km2":"1867.68","latitude_centre":"44.4299","longitude_centre":"1.0874","distance_km":9.62},{"id":16383,"code_insee":"24245","nom_standard":"Loubejac","nom_a":null,"nom_de":null,"slug_ville":"loubejac","departement_id":0,"code_postal":"24550","population":266,"superficie_km2":"1907.39","latitude_centre":"44.6042","longitude_centre":"1.0705","distance_km":9.84}]}