{"ville":{"id":10985,"code_insee":"03108","nom_standard":"Échassières","nom_a":null,"nom_de":null,"slug_ville":"echassieres","departement_id":0,"code_postal":"03330","population":364,"superficie_km2":"2328.55","latitude_centre":"46.198","longitude_centre":"2.9473","dep_code":"03","dep_nom":"Allier","dep_slug":"allier","reg_code":"84","reg_nom":"Auvergne-Rhône-Alpes","reg_slug":"auvergne-rhone-alpes"},"departement":{"code":"03","nom":"Allier","slug":"allier"},"region":{"code":"84","nom":"Auvergne-Rhône-Alpes","slug":"auvergne-rhone-alpes"},"villes_proches":[{"id":0,"code_insee":"03152","nom_standard":"Louroux-de-Bouble","nom_a":null,"nom_de":null,"slug_ville":"louroux-de-bouble","departement_id":0,"code_postal":"03330","population":226,"superficie_km2":"1670.80","latitude_centre":"46.2286","longitude_centre":"2.9727","distance_km":3.92},{"id":0,"code_insee":"63140","nom_standard":"Durmignat","nom_a":null,"nom_de":null,"slug_ville":"durmignat","departement_id":0,"code_postal":"63700","population":214,"superficie_km2":"1246.57","latitude_centre":"46.1978","longitude_centre":"2.8901","distance_km":4.4},{"id":10977,"code_insee":"03089","nom_standard":"Coutansouze","nom_a":null,"nom_de":null,"slug_ville":"coutansouze","departement_id":0,"code_postal":"03330","population":154,"superficie_km2":"1366.56","latitude_centre":"46.2071","longitude_centre":"3.0041","distance_km":4.49},{"id":0,"code_insee":"03192","nom_standard":"Nades","nom_a":null,"nom_de":null,"slug_ville":"nades","departement_id":0,"code_postal":"03450","population":162,"superficie_km2":"841.25","latitude_centre":"46.1523","longitude_centre":"2.9704","distance_km":5.38},{"id":0,"code_insee":"03135","nom_standard":"Lalizolle","nom_a":null,"nom_de":null,"slug_ville":"lalizolle","departement_id":0,"code_postal":"03450","population":399,"superficie_km2":"2372.61","latitude_centre":"46.1615","longitude_centre":"3.001","distance_km":5.79},{"id":0,"code_insee":"63243","nom_standard":"Moureuille","nom_a":null,"nom_de":null,"slug_ville":"moureuille","departement_id":0,"code_postal":"63700","population":371,"superficie_km2":"1688.84","latitude_centre":"46.1615","longitude_centre":"2.8896","distance_km":6.02},{"id":0,"code_insee":"63187","nom_standard":"Lapeyrouse","nom_a":null,"nom_de":null,"slug_ville":"lapeyrouse","departement_id":0,"code_postal":"63700","population":521,"superficie_km2":"3614.47","latitude_centre":"46.2308","longitude_centre":"2.8818","distance_km":6.22},{"id":0,"code_insee":"63419","nom_standard":"Servant","nom_a":null,"nom_de":null,"slug_ville":"servant","departement_id":0,"code_postal":"63560","population":558,"superficie_km2":"2658.55","latitude_centre":"46.1399","longitude_centre":"2.9287","distance_km":6.62},{"id":0,"code_insee":"03308","nom_standard":"Vernusse","nom_a":null,"nom_de":null,"slug_ville":"vernusse","departement_id":0,"code_postal":"03390","population":149,"superficie_km2":"1969.42","latitude_centre":"46.2612","longitude_centre":"2.9774","distance_km":7.4},{"id":0,"code_insee":"63062","nom_standard":"Buxières-sous-Montaigut","nom_a":null,"nom_de":null,"slug_ville":"buxieres-sous-montaigut","departement_id":0,"code_postal":"63700","population":244,"superficie_km2":"1099.87","latitude_centre":"46.2035","longitude_centre":"2.8395","distance_km":8.32},{"id":10967,"code_insee":"03077","nom_standard":"Chirat-l'Église","nom_a":null,"nom_de":null,"slug_ville":"chirat-l-eglise","departement_id":0,"code_postal":"03330","population":129,"superficie_km2":"1838.56","latitude_centre":"46.2499","longitude_centre":"3.0339","distance_km":8.81},{"id":0,"code_insee":"03302","nom_standard":"Veauce","nom_a":null,"nom_de":null,"slug_ville":"veauce","departement_id":0,"code_postal":"03450","population":40,"superficie_km2":"352.19","latitude_centre":"46.1699","longitude_centre":"3.0554","distance_km":8.89},{"id":0,"code_insee":"63338","nom_standard":"Saint-Éloy-les-Mines","nom_a":null,"nom_de":null,"slug_ville":"saint-eloy-les-mines","departement_id":0,"code_postal":"63700","population":3480,"superficie_km2":"2208.02","latitude_centre":"46.162","longitude_centre":"2.8439","distance_km":8.91},{"id":10968,"code_insee":"03078","nom_standard":"Chouvigny","nom_a":null,"nom_de":null,"slug_ville":"chouvigny","departement_id":0,"code_postal":"03450","population":232,"superficie_km2":"1336.92","latitude_centre":"46.1246","longitude_centre":"3.0018","distance_km":9.18},{"id":0,"code_insee":"03276","nom_standard":"Sussat","nom_a":null,"nom_de":null,"slug_ville":"sussat","departement_id":0,"code_postal":"03450","population":107,"superficie_km2":"799.00","latitude_centre":"46.1527","longitude_centre":"3.0557","distance_km":9.75},{"id":10921,"code_insee":"03020","nom_standard":"Beaune-d'Allier","nom_a":null,"nom_de":null,"slug_ville":"beaune-d-allier","departement_id":0,"code_postal":"03390","population":296,"superficie_km2":"2443.36","latitude_centre":"46.2782","longitude_centre":"2.8889","distance_km":9.99},{"id":10931,"code_insee":"03032","nom_standard":"Blomard","nom_a":null,"nom_de":null,"slug_ville":"blomard","departement_id":0,"code_postal":"03390","population":222,"superficie_km2":"2249.82","latitude_centre":"46.2908","longitude_centre":"2.9644","distance_km":10.4},{"id":0,"code_insee":"63344","nom_standard":"Saint-Gal-sur-Sioule","nom_a":null,"nom_de":null,"slug_ville":"saint-gal-sur-sioule","departement_id":0,"code_postal":"63440","population":148,"superficie_km2":"953.91","latitude_centre":"46.108","longitude_centre":"2.9968","distance_km":10.71},{"id":0,"code_insee":"63223","nom_standard":"Menat","nom_a":null,"nom_de":null,"slug_ville":"menat","departement_id":0,"code_postal":"63560","population":547,"superficie_km2":"2052.06","latitude_centre":"46.1051","longitude_centre":"2.889","distance_km":11.26},{"id":0,"code_insee":"63286","nom_standard":"Pouzol","nom_a":null,"nom_de":null,"slug_ville":"pouzol","departement_id":0,"code_postal":"63440","population":274,"superficie_km2":"1395.58","latitude_centre":"46.0956","longitude_centre":"2.9748","distance_km":11.58}]}