{"ville":{"id":26347,"code_insee":"59187","nom_standard":"Éclaibes","nom_a":null,"nom_de":null,"slug_ville":"eclaibes","departement_id":0,"code_postal":"59330","population":269,"superficie_km2":"487.26","latitude_centre":"50.2018","longitude_centre":"3.937","dep_code":"59","dep_nom":"Nord","dep_slug":"nord","reg_code":"32","reg_nom":"Hauts-de-France","reg_slug":"hauts-de-france"},"departement":{"code":"59","nom":"Nord","slug":"nord"},"region":{"code":"32","nom":"Hauts-de-France","slug":"hauts-de-france"},"villes_proches":[{"id":0,"code_insee":"59351","nom_standard":"Limont-Fontaine","nom_a":null,"nom_de":null,"slug_ville":"limont-fontaine","departement_id":0,"code_postal":"59330","population":525,"superficie_km2":"679.99","latitude_centre":"50.2126","longitude_centre":"3.9244","distance_km":1.5},{"id":0,"code_insee":"59058","nom_standard":"Beaufort","nom_a":null,"nom_de":null,"slug_ville":"beaufort","departement_id":0,"code_postal":"59330","population":995,"superficie_km2":"1281.90","latitude_centre":"50.219","longitude_centre":"3.966","distance_km":2.81},{"id":0,"code_insee":"59240","nom_standard":"Floursies","nom_a":null,"nom_de":null,"slug_ville":"floursies","departement_id":0,"code_postal":"59440","population":131,"superficie_km2":"466.66","latitude_centre":"50.1857","longitude_centre":"3.9699","distance_km":2.95},{"id":0,"code_insee":"59188","nom_standard":"Écuélin","nom_a":null,"nom_de":null,"slug_ville":"ecuelin","departement_id":0,"code_postal":"59620","population":145,"superficie_km2":"338.11","latitude_centre":"50.1925","longitude_centre":"3.8931","distance_km":3.29},{"id":26343,"code_insee":"59181","nom_standard":"Dourlers","nom_a":null,"nom_de":null,"slug_ville":"dourlers","departement_id":0,"code_postal":"59440","population":536,"superficie_km2":"873.94","latitude_centre":"50.1731","longitude_centre":"3.9518","distance_km":3.36},{"id":0,"code_insee":"59529","nom_standard":"Saint-Aubin","nom_a":null,"nom_de":null,"slug_ville":"saint-aubin","departement_id":0,"code_postal":"59440","population":328,"superficie_km2":"1014.36","latitude_centre":"50.1732","longitude_centre":"3.9093","distance_km":3.74},{"id":0,"code_insee":"59543","nom_standard":"Saint-Remy-du-Nord","nom_a":null,"nom_de":null,"slug_ville":"saint-remy-du-nord","departement_id":0,"code_postal":"59330","population":1054,"superficie_km2":"595.44","latitude_centre":"50.228","longitude_centre":"3.903","distance_km":3.79},{"id":0,"code_insee":"59041","nom_standard":"Bachant","nom_a":null,"nom_de":null,"slug_ville":"bachant","departement_id":0,"code_postal":"59138","population":2230,"superficie_km2":"941.04","latitude_centre":"50.2078","longitude_centre":"3.8754","distance_km":4.43},{"id":0,"code_insee":"59563","nom_standard":"Semousies","nom_a":null,"nom_de":null,"slug_ville":"semousies","departement_id":0,"code_postal":"59440","population":227,"superficie_km2":"306.98","latitude_centre":"50.1635","longitude_centre":"3.9695","distance_km":4.85},{"id":0,"code_insee":"59649","nom_standard":"Wattignies-la-Victoire","nom_a":null,"nom_de":null,"slug_ville":"wattignies-la-victoire","departement_id":0,"code_postal":"59680","population":240,"superficie_km2":"633.16","latitude_centre":"50.2011","longitude_centre":"4.0056","distance_km":4.88},{"id":0,"code_insee":"59542","nom_standard":"Saint-Remy-Chaussée","nom_a":null,"nom_de":null,"slug_ville":"saint-remy-chaussee","departement_id":0,"code_postal":"59620","population":469,"superficie_km2":"517.87","latitude_centre":"50.1779","longitude_centre":"3.8786","distance_km":4.93},{"id":0,"code_insee":"59291","nom_standard":"Hautmont","nom_a":null,"nom_de":null,"slug_ville":"hautmont","departement_id":0,"code_postal":"59330","population":14152,"superficie_km2":"1234.81","latitude_centre":"50.248","longitude_centre":"3.9204","distance_km":5.27},{"id":26337,"code_insee":"59169","nom_standard":"Damousies","nom_a":null,"nom_de":null,"slug_ville":"damousies","departement_id":0,"code_postal":"59680","population":205,"superficie_km2":"502.01","latitude_centre":"50.2184","longitude_centre":"4.008","distance_km":5.38},{"id":26299,"code_insee":"59078","nom_standard":"Beugnies","nom_a":null,"nom_de":null,"slug_ville":"beugnies","departement_id":0,"code_postal":"59216","population":599,"superficie_km2":"892.47","latitude_centre":"50.1674","longitude_centre":"3.999","distance_km":5.84},{"id":0,"code_insee":"59230","nom_standard":"Ferrière-la-Grande","nom_a":null,"nom_de":null,"slug_ville":"ferriere-la-grande","departement_id":0,"code_postal":"59680","population":5131,"superficie_km2":"1001.25","latitude_centre":"50.2438","longitude_centre":"3.9894","distance_km":5.98},{"id":26310,"code_insee":"59103","nom_standard":"Boussières-sur-Sambre","nom_a":null,"nom_de":null,"slug_ville":"boussieres-sur-sambre","departement_id":0,"code_postal":"59330","population":522,"superficie_km2":"327.53","latitude_centre":"50.2424","longitude_centre":"3.8775","distance_km":6.19},{"id":0,"code_insee":"59365","nom_standard":"Louvroil","nom_a":null,"nom_de":null,"slug_ville":"louvroil","departement_id":0,"code_postal":"59720","population":6294,"superficie_km2":"596.23","latitude_centre":"50.2597","longitude_centre":"3.9517","distance_km":6.52},{"id":26283,"code_insee":"59050","nom_standard":"Bas-Lieu","nom_a":null,"nom_de":null,"slug_ville":"bas-lieu","departement_id":0,"code_postal":"59440","population":348,"superficie_km2":"762.18","latitude_centre":"50.1424","longitude_centre":"3.9544","distance_km":6.72},{"id":0,"code_insee":"59424","nom_standard":"Neuf-Mesnil","nom_a":null,"nom_de":null,"slug_ville":"neuf-mesnil","departement_id":0,"code_postal":"59330","population":1286,"superficie_km2":"126.32","latitude_centre":"50.2655","longitude_centre":"3.9108","distance_km":7.32},{"id":0,"code_insee":"59534","nom_standard":"Saint-Hilaire-sur-Helpe","nom_a":null,"nom_de":null,"slug_ville":"saint-hilaire-sur-helpe","departement_id":0,"code_postal":"59440","population":733,"superficie_km2":"1543.96","latitude_centre":"50.1355","longitude_centre":"3.9016","distance_km":7.79}]}