{"ville":{"id":31754,"code_insee":"76226","nom_standard":"Écretteville-sur-Mer","nom_a":null,"nom_de":null,"slug_ville":"ecretteville-sur-mer","departement_id":0,"code_postal":"76540","population":140,"superficie_km2":"190.12","latitude_centre":"49.7917","longitude_centre":"0.4851","dep_code":"76","dep_nom":"Seine-Maritime","dep_slug":"seine-maritime","reg_code":"28","reg_nom":"Normandie","reg_slug":"normandie"},"departement":{"code":"76","nom":"Seine-Maritime","slug":"seine-maritime"},"region":{"code":"28","nom":"Normandie","slug":"normandie"},"villes_proches":[{"id":31600,"code_insee":"76011","nom_standard":"Ancretteville-sur-Mer","nom_a":null,"nom_de":null,"slug_ville":"ancretteville-sur-mer","departement_id":0,"code_postal":"76540","population":143,"superficie_km2":"316.34","latitude_centre":"49.7891","longitude_centre":"0.5037","distance_km":1.37},{"id":0,"code_insee":"76232","nom_standard":"Életot","nom_a":null,"nom_de":null,"slug_ville":"eletot","departement_id":0,"code_postal":"76540","population":626,"superficie_km2":"690.90","latitude_centre":"49.792","longitude_centre":"0.4566","distance_km":2.05},{"id":0,"code_insee":"76637","nom_standard":"Saint-Pierre-en-Port","nom_a":null,"nom_de":null,"slug_ville":"saint-pierre-en-port","departement_id":0,"code_postal":"76540","population":826,"superficie_km2":"391.46","latitude_centre":"49.808","longitude_centre":"0.4987","distance_km":2.06},{"id":0,"code_insee":"76013","nom_standard":"Angerville-la-Martel","nom_a":null,"nom_de":null,"slug_ville":"angerville-la-martel","departement_id":0,"code_postal":"76540","population":1079,"superficie_km2":"1016.91","latitude_centre":"49.7672","longitude_centre":"0.5037","distance_km":3.03},{"id":0,"code_insee":"76587","nom_standard":"Sainte-Hélène-Bondeville","nom_a":null,"nom_de":null,"slug_ville":"sainte-helene-bondeville","departement_id":0,"code_postal":"76400","population":681,"superficie_km2":"692.97","latitude_centre":"49.7702","longitude_centre":"0.4579","distance_km":3.09},{"id":0,"code_insee":"76663","nom_standard":"Sassetot-le-Mauconduit","nom_a":null,"nom_de":null,"slug_ville":"sassetot-le-mauconduit","departement_id":0,"code_postal":"76540","population":997,"superficie_km2":"880.47","latitude_centre":"49.8024","longitude_centre":"0.5316","distance_km":3.54},{"id":31720,"code_insee":"76183","nom_standard":"Colleville","nom_a":null,"nom_de":null,"slug_ville":"colleville","departement_id":0,"code_postal":"76400","population":746,"superficie_km2":"739.64","latitude_centre":"49.7538","longitude_centre":"0.4595","distance_km":4.6},{"id":0,"code_insee":"76685","nom_standard":"Thérouldeville","nom_a":null,"nom_de":null,"slug_ville":"therouldeville","departement_id":0,"code_postal":"76540","population":664,"superficie_km2":"460.65","latitude_centre":"49.7574","longitude_centre":"0.5238","distance_km":4.72},{"id":0,"code_insee":"76746","nom_standard":"Vinnemerville","nom_a":null,"nom_de":null,"slug_ville":"vinnemerville","departement_id":0,"code_postal":"76540","population":217,"superficie_km2":"426.22","latitude_centre":"49.808","longitude_centre":"0.5558","distance_km":5.39},{"id":31730,"code_insee":"76195","nom_standard":"Criquetot-le-Mauconduit","nom_a":null,"nom_de":null,"slug_ville":"criquetot-le-mauconduit","departement_id":0,"code_postal":"76540","population":196,"superficie_km2":"415.38","latitude_centre":"49.7901","longitude_centre":"0.5623","distance_km":5.54},{"id":0,"code_insee":"76670","nom_standard":"Senneville-sur-Fécamp","nom_a":null,"nom_de":null,"slug_ville":"senneville-sur-fecamp","departement_id":0,"code_postal":"76400","population":868,"superficie_km2":"495.33","latitude_centre":"49.7736","longitude_centre":"0.4105","distance_km":5.72},{"id":0,"code_insee":"76686","nom_standard":"Theuville-aux-Maillots","nom_a":null,"nom_de":null,"slug_ville":"theuville-aux-maillots","departement_id":0,"code_postal":"76540","population":520,"superficie_km2":"727.39","latitude_centre":"49.7587","longitude_centre":"0.5469","distance_km":5.76},{"id":0,"code_insee":"76613","nom_standard":"Saint-Martin-aux-Buneaux","nom_a":null,"nom_de":null,"slug_ville":"saint-martin-aux-buneaux","departement_id":0,"code_postal":"76450","population":633,"superficie_km2":"822.63","latitude_centre":"49.828","longitude_centre":"0.5497","distance_km":6.15},{"id":0,"code_insee":"76719","nom_standard":"Valmont","nom_a":null,"nom_de":null,"slug_ville":"valmont","departement_id":0,"code_postal":"76540","population":849,"superficie_km2":"553.58","latitude_centre":"49.7381","longitude_centre":"0.5121","distance_km":6.27},{"id":0,"code_insee":"76688","nom_standard":"Thiergeville","nom_a":null,"nom_de":null,"slug_ville":"thiergeville","departement_id":0,"code_postal":"76540","population":397,"superficie_km2":"925.76","latitude_centre":"49.728","longitude_centre":"0.4859","distance_km":7.08},{"id":0,"code_insee":"76708","nom_standard":"Toussaint","nom_a":null,"nom_de":null,"slug_ville":"toussaint","departement_id":0,"code_postal":"76400","population":692,"superficie_km2":"448.06","latitude_centre":"49.7345","longitude_centre":"0.4379","distance_km":7.21},{"id":0,"code_insee":"76299","nom_standard":"Gerponville","nom_a":null,"nom_de":null,"slug_ville":"gerponville","departement_id":0,"code_postal":"76540","population":397,"superficie_km2":"491.50","latitude_centre":"49.7489","longitude_centre":"0.5623","distance_km":7.31},{"id":31724,"code_insee":"76187","nom_standard":"Contremoulins","nom_a":null,"nom_de":null,"slug_ville":"contremoulins","departement_id":0,"code_postal":"76400","population":167,"superficie_km2":"437.84","latitude_centre":"49.7256","longitude_centre":"0.4378","distance_km":8.1},{"id":0,"code_insee":"76689","nom_standard":"Thiétreville","nom_a":null,"nom_de":null,"slug_ville":"thietreville","departement_id":0,"code_postal":"76540","population":378,"superficie_km2":"536.74","latitude_centre":"49.7192","longitude_centre":"0.5176","distance_km":8.39},{"id":31639,"code_insee":"76068","nom_standard":"Bec-de-Mortagne","nom_a":null,"nom_de":null,"slug_ville":"bec-de-mortagne","departement_id":0,"code_postal":"76110","population":703,"superficie_km2":"1207.47","latitude_centre":"49.7039","longitude_centre":"0.4507","distance_km":10.07}]}