{"ville":{"id":7239,"code_insee":"69081","nom_standard":"Écully","nom_a":null,"nom_de":null,"slug_ville":"ecully","departement_id":670,"code_postal":"69130","population":18361,"superficie_km2":"8.00","latitude_centre":"45.7820015","longitude_centre":"4.7719998","dep_code":"69","dep_nom":"Rhône","dep_slug":"rhone","reg_code":"01","reg_nom":"Auvergne-Rhône-Alpes","reg_slug":"auvergne-rhone-alpes"},"departement":{"code":"69","nom":"Rhône","slug":"rhone"},"region":{"code":"01","nom":"Auvergne-Rhône-Alpes","slug":"auvergne-rhone-alpes"},"villes_proches":[{"id":7212,"code_insee":"69040","nom_standard":"Champagne-au-Mont-d'Or","nom_a":null,"nom_de":null,"slug_ville":"champagne-au-mont-d-or","departement_id":670,"code_postal":"69410","population":5936,"superficie_km2":"3.00","latitude_centre":"45.7980003","longitude_centre":"4.7870002","distance_km":2.13},{"id":7214,"code_insee":"69044","nom_standard":"Charbonnières-les-Bains","nom_a":null,"nom_de":null,"slug_ville":"charbonnieres-les-bains","departement_id":670,"code_postal":"69260","population":5311,"superficie_km2":"4.00","latitude_centre":"45.7799988","longitude_centre":"4.7430000","distance_km":2.26},{"id":7326,"code_insee":"69244","nom_standard":"Tassin-la-Demi-Lune","nom_a":null,"nom_de":null,"slug_ville":"tassin-la-demi-lune","departement_id":670,"code_postal":"69160","population":22676,"superficie_km2":"8.00","latitude_centre":"45.7630005","longitude_centre":"4.7550001","distance_km":2.49},{"id":7234,"code_insee":"69072","nom_standard":"Dardilly","nom_a":null,"nom_de":null,"slug_ville":"dardilly","departement_id":670,"code_postal":"69570","population":8828,"superficie_km2":"14.00","latitude_centre":"45.8120003","longitude_centre":"4.7470002","distance_km":3.86},{"id":7301,"code_insee":"69194","nom_standard":"Saint-Didier-au-Mont-d'Or","nom_a":null,"nom_de":null,"slug_ville":"saint-didier-au-mont-d-or","departement_id":670,"code_postal":"69370","population":7265,"superficie_km2":"8.00","latitude_centre":"45.8149986","longitude_centre":"4.7979999","distance_km":4.19},{"id":7308,"code_insee":"69205","nom_standard":"Saint-Genis-les-Ollières","nom_a":null,"nom_de":null,"slug_ville":"saint-genis-les-ollieres","departement_id":670,"code_postal":"69290","population":5300,"superficie_km2":"4.00","latitude_centre":"45.7610016","longitude_centre":"4.7259998","distance_km":4.26},{"id":7267,"code_insee":"69127","nom_standard":"Marcy-l'Étoile","nom_a":null,"nom_de":null,"slug_ville":"marcy-l-etoile","departement_id":670,"code_postal":"69280","population":3644,"superficie_km2":"5.00","latitude_centre":"45.7849999","longitude_centre":"4.7119999","distance_km":4.66},{"id":7246,"code_insee":"69089","nom_standard":"Francheville","nom_a":null,"nom_de":null,"slug_ville":"francheville","departement_id":670,"code_postal":"69340","population":15204,"superficie_km2":"8.00","latitude_centre":"45.7379990","longitude_centre":"4.7550001","distance_km":5.07},{"id":7231,"code_insee":"69069","nom_standard":"Craponne","nom_a":null,"nom_de":null,"slug_ville":"craponne","departement_id":670,"code_postal":"69290","population":11903,"superficie_km2":"5.00","latitude_centre":"45.7459984","longitude_centre":"4.7270002","distance_km":5.31},{"id":7261,"code_insee":"69116","nom_standard":"Limonest","nom_a":null,"nom_de":null,"slug_ville":"limonest","departement_id":670,"code_postal":"69760","population":3838,"superficie_km2":"9.00","latitude_centre":"45.8300018","longitude_centre":"4.7719998","distance_km":5.34},{"id":7306,"code_insee":"69202","nom_standard":"Sainte-Foy-lès-Lyon","nom_a":null,"nom_de":null,"slug_ville":"sainte-foy-les-lyon","departement_id":670,"code_postal":"69110","population":21858,"superficie_km2":"7.00","latitude_centre":"45.7360001","longitude_centre":"4.7930002","distance_km":5.37},{"id":7299,"code_insee":"69191","nom_standard":"Saint-Cyr-au-Mont-d'Or","nom_a":null,"nom_de":null,"slug_ville":"saint-cyr-au-mont-d-or","departement_id":670,"code_postal":"69450","population":5900,"superficie_km2":"7.00","latitude_centre":"45.8190002","longitude_centre":"4.8179998","distance_km":5.44},{"id":7330,"code_insee":"69250","nom_standard":"La Tour-de-Salvagny","nom_a":null,"nom_de":null,"slug_ville":"la-tour-de-salvagny","departement_id":670,"code_postal":"69890","population":4272,"superficie_km2":"8.00","latitude_centre":"45.8100014","longitude_centre":"4.7119999","distance_km":5.6},{"id":7298,"code_insee":"69190","nom_standard":"Sainte-Consorce","nom_a":null,"nom_de":null,"slug_ville":"sainte-consorce","departement_id":670,"code_postal":"69280","population":2059,"superficie_km2":"6.00","latitude_centre":"45.7739983","longitude_centre":"4.6939998","distance_km":6.11},{"id":7210,"code_insee":"69034","nom_standard":"Caluire-et-Cuire","nom_a":null,"nom_de":null,"slug_ville":"caluire-et-cuire","departement_id":670,"code_postal":"69300","population":43572,"superficie_km2":"10.00","latitude_centre":"45.7970009","longitude_centre":"4.8509998","distance_km":6.35},{"id":7275,"code_insee":"69142","nom_standard":"La Mulatière","nom_a":null,"nom_de":null,"slug_ville":"la-mulatiere","departement_id":670,"code_postal":"69350","population":6595,"superficie_km2":"2.00","latitude_centre":"45.7299995","longitude_centre":"4.8119998","distance_km":6.56},{"id":7266,"code_insee":"69123","nom_standard":"Lyon","nom_a":null,"nom_de":null,"slug_ville":"lyon","departement_id":670,"code_postal":"69000","population":522250,"superficie_km2":"48.00","latitude_centre":"45.7500000","longitude_centre":"4.8500000","distance_km":7.02},{"id":7226,"code_insee":"69063","nom_standard":"Collonges-au-Mont-d'Or","nom_a":null,"nom_de":null,"slug_ville":"collonges-au-mont-d-or","departement_id":670,"code_postal":"69660","population":4517,"superficie_km2":"4.00","latitude_centre":"45.8219986","longitude_centre":"4.8420000","distance_km":7.02},{"id":7319,"code_insee":"69233","nom_standard":"Saint-Romain-au-Mont-d'Or","nom_a":null,"nom_de":null,"slug_ville":"saint-romain-au-mont-d-or","departement_id":670,"code_postal":"69270","population":1238,"superficie_km2":"3.00","latitude_centre":"45.8359985","longitude_centre":"4.8210001","distance_km":7.1},{"id":7250,"code_insee":"69094","nom_standard":"Grézieu-la-Varenne","nom_a":null,"nom_de":null,"slug_ville":"grezieu-la-varenne","departement_id":670,"code_postal":"69290","population":6094,"superficie_km2":"7.00","latitude_centre":"45.7480011","longitude_centre":"4.6900001","distance_km":7.4}]}