{"ville":{"id":12614,"code_insee":"10136","nom_standard":"Éguilly-sous-Bois","nom_a":null,"nom_de":null,"slug_ville":"eguilly-sous-bois","departement_id":0,"code_postal":"10110","population":111,"superficie_km2":"1011.96","latitude_centre":"48.1367","longitude_centre":"4.5396","dep_code":"10","dep_nom":"Aube","dep_slug":"aube","reg_code":"44","reg_nom":"Grand Est","reg_slug":"grand-est"},"departement":{"code":"10","nom":"Aube","slug":"aube"},"region":{"code":"44","nom":"Grand Est","slug":"grand-est"},"villes_proches":[{"id":12529,"code_insee":"10041","nom_standard":"Bertignolles","nom_a":null,"nom_de":null,"slug_ville":"bertignolles","departement_id":0,"code_postal":"10110","population":52,"superficie_km2":"621.82","latitude_centre":"48.1348","longitude_centre":"4.512","distance_km":2.06},{"id":0,"code_insee":"10438","nom_standard":"Vitry-le-Croisé","nom_a":null,"nom_de":null,"slug_ville":"vitry-le-croise","departement_id":0,"code_postal":"10110","population":223,"superficie_km2":"3239.64","latitude_centre":"48.1443","longitude_centre":"4.5811","distance_km":3.19},{"id":12555,"code_insee":"10071","nom_standard":"Chacenay","nom_a":null,"nom_de":null,"slug_ville":"chacenay","departement_id":0,"code_postal":"10110","population":52,"superficie_km2":"775.45","latitude_centre":"48.1055","longitude_centre":"4.5323","distance_km":3.51},{"id":12577,"code_insee":"10097","nom_standard":"Chervey","nom_a":null,"nom_de":null,"slug_ville":"chervey","departement_id":0,"code_postal":"10110","population":145,"superficie_km2":"1347.25","latitude_centre":"48.1339","longitude_centre":"4.4905","distance_km":3.66},{"id":0,"code_insee":"10264","nom_standard":"Noé-les-Mallets","nom_a":null,"nom_de":null,"slug_ville":"noe-les-mallets","departement_id":0,"code_postal":"10360","population":104,"superficie_km2":"844.72","latitude_centre":"48.0974","longitude_centre":"4.5592","distance_km":4.61},{"id":0,"code_insee":"10439","nom_standard":"Viviers-sur-Artaut","nom_a":null,"nom_de":null,"slug_ville":"viviers-sur-artaut","departement_id":0,"code_postal":"10110","population":119,"superficie_km2":"614.26","latitude_centre":"48.0979","longitude_centre":"4.5003","distance_km":5.21},{"id":0,"code_insee":"10205","nom_standard":"Longpré-le-Sec","nom_a":null,"nom_de":null,"slug_ville":"longpre-le-sec","departement_id":0,"code_postal":"10140","population":67,"superficie_km2":"1570.17","latitude_centre":"48.1846","longitude_centre":"4.5317","distance_km":5.36},{"id":12536,"code_insee":"10048","nom_standard":"Bligny","nom_a":null,"nom_de":null,"slug_ville":"bligny","departement_id":0,"code_postal":"10200","population":160,"superficie_km2":"2294.60","latitude_centre":"48.1696","longitude_centre":"4.5963","distance_km":5.57},{"id":12553,"code_insee":"10069","nom_standard":"Buxières-sur-Arce","nom_a":null,"nom_de":null,"slug_ville":"buxieres-sur-arce","departement_id":0,"code_postal":"10110","population":100,"superficie_km2":"1067.50","latitude_centre":"48.1359","longitude_centre":"4.4521","distance_km":6.49},{"id":12533,"code_insee":"10045","nom_standard":"Beurey","nom_a":null,"nom_de":null,"slug_ville":"beurey","departement_id":0,"code_postal":"10140","population":176,"superficie_km2":"1732.17","latitude_centre":"48.1751","longitude_centre":"4.4734","distance_km":6.51},{"id":0,"code_insee":"10427","nom_standard":"Ville-sur-Arce","nom_a":null,"nom_de":null,"slug_ville":"ville-sur-arce","departement_id":0,"code_postal":"10110","population":206,"superficie_km2":"1622.04","latitude_centre":"48.1143","longitude_centre":"4.4473","distance_km":7.29},{"id":0,"code_insee":"10199","nom_standard":"Loches-sur-Ource","nom_a":null,"nom_de":null,"slug_ville":"loches-sur-ource","departement_id":0,"code_postal":"10110","population":350,"superficie_km2":"1380.71","latitude_centre":"48.0705","longitude_centre":"4.5025","distance_km":7.86},{"id":0,"code_insee":"10252","nom_standard":"Montmartin-le-Haut","nom_a":null,"nom_de":null,"slug_ville":"montmartin-le-haut","departement_id":0,"code_postal":"10140","population":62,"superficie_km2":"164.78","latitude_centre":"48.2105","longitude_centre":"4.5503","distance_km":8.24},{"id":0,"code_insee":"10364","nom_standard":"Saint-Usage","nom_a":null,"nom_de":null,"slug_ville":"saint-usage","departement_id":0,"code_postal":"10360","population":68,"superficie_km2":"1653.69","latitude_centre":"48.0993","longitude_centre":"4.6363","distance_km":8.3},{"id":0,"code_insee":"10187","nom_standard":"Landreville","nom_a":null,"nom_de":null,"slug_ville":"landreville","departement_id":0,"code_postal":"10110","population":395,"superficie_km2":"1422.52","latitude_centre":"48.0755","longitude_centre":"4.4659","distance_km":8.73},{"id":0,"code_insee":"10155","nom_standard":"Fontette","nom_a":null,"nom_de":null,"slug_ville":"fontette","departement_id":0,"code_postal":"10360","population":178,"superficie_km2":"1952.88","latitude_centre":"48.0751","longitude_centre":"4.6133","distance_km":8.77},{"id":0,"code_insee":"10310","nom_standard":"Puits-et-Nuisement","nom_a":null,"nom_de":null,"slug_ville":"puits-et-nuisement","departement_id":0,"code_postal":"10140","population":201,"superficie_km2":"1215.04","latitude_centre":"48.2141","longitude_centre":"4.5121","distance_km":8.84},{"id":0,"code_insee":"10242","nom_standard":"Meurville","nom_a":null,"nom_de":null,"slug_ville":"meurville","departement_id":0,"code_postal":"10200","population":151,"superficie_km2":"1641.87","latitude_centre":"48.2066","longitude_centre":"4.61","distance_km":9.36},{"id":0,"code_insee":"10141","nom_standard":"Essoyes","nom_a":null,"nom_de":null,"slug_ville":"essoyes","departement_id":0,"code_postal":"10360","population":708,"superficie_km2":"3590.78","latitude_centre":"48.0473","longitude_centre":"4.5426","distance_km":9.94},{"id":0,"code_insee":"10215","nom_standard":"Magny-Fouchard","nom_a":null,"nom_de":null,"slug_ville":"magny-fouchard","departement_id":0,"code_postal":"10140","population":260,"superficie_km2":"1507.48","latitude_centre":"48.2327","longitude_centre":"4.5416","distance_km":10.68}]}