{"ville":{"id":19224,"code_insee":"32120","nom_standard":"Encausse","nom_a":null,"nom_de":null,"slug_ville":"encausse","departement_id":0,"code_postal":"32430","population":445,"superficie_km2":"1582.00","latitude_centre":"43.6923","longitude_centre":"1.0306","dep_code":"32","dep_nom":"Gers","dep_slug":"gers","reg_code":"76","reg_nom":"Occitanie","reg_slug":"occitanie"},"departement":{"code":"32","nom":"Gers","slug":"gers"},"region":{"code":"76","nom":"Occitanie","slug":"occitanie"},"villes_proches":[{"id":19101,"code_insee":"31577","nom_standard":"Vignaux","nom_a":null,"nom_de":null,"slug_ville":"vignaux","departement_id":0,"code_postal":"31480","population":157,"superficie_km2":"404.70","latitude_centre":"43.6897","longitude_centre":"1.0654","distance_km":2.81},{"id":0,"code_insee":"32262","nom_standard":"Monbrun","nom_a":null,"nom_de":null,"slug_ville":"monbrun","departement_id":0,"code_postal":"32600","population":394,"superficie_km2":"1083.32","latitude_centre":"43.6654","longitude_centre":"1.0372","distance_km":3.04},{"id":0,"code_insee":"32444","nom_standard":"Thoux","nom_a":null,"nom_de":null,"slug_ville":"thoux","departement_id":0,"code_postal":"32430","population":260,"superficie_km2":"606.10","latitude_centre":"43.6808","longitude_centre":"0.9926","distance_km":3.31},{"id":0,"code_insee":"32372","nom_standard":"Saint-Cricq","nom_a":null,"nom_de":null,"slug_ville":"saint-cricq","departement_id":0,"code_postal":"32430","population":293,"superficie_km2":"303.98","latitude_centre":"43.698","longitude_centre":"0.9884","distance_km":3.45},{"id":0,"code_insee":"31098","nom_standard":"Cadours","nom_a":null,"nom_de":null,"slug_ville":"cadours","departement_id":0,"code_postal":"31480","population":1142,"superficie_km2":"1085.23","latitude_centre":"43.725","longitude_centre":"1.0489","distance_km":3.92},{"id":18779,"code_insee":"31126","nom_standard":"Caubiac","nom_a":null,"nom_de":null,"slug_ville":"caubiac","departement_id":0,"code_postal":"31480","population":441,"superficie_km2":"802.74","latitude_centre":"43.7155","longitude_centre":"1.0756","distance_km":4.44},{"id":19122,"code_insee":"32007","nom_standard":"Ardizas","nom_a":null,"nom_de":null,"slug_ville":"ardizas","departement_id":0,"code_postal":"32430","population":217,"superficie_km2":"854.53","latitude_centre":"43.7262","longitude_centre":"0.9977","distance_km":4.6},{"id":0,"code_insee":"32349","nom_standard":"Roquelaure-Saint-Aubin","nom_a":null,"nom_de":null,"slug_ville":"roquelaure-saint-aubin","departement_id":0,"code_postal":"32430","population":102,"superficie_km2":"425.17","latitude_centre":"43.6637","longitude_centre":"0.9841","distance_km":4.91},{"id":18733,"code_insee":"31061","nom_standard":"Bellegarde-Sainte-Marie","nom_a":null,"nom_de":null,"slug_ville":"bellegarde-sainte-marie","departement_id":0,"code_postal":"31530","population":204,"superficie_km2":"1177.21","latitude_centre":"43.6779","longitude_centre":"1.0911","distance_km":5.12},{"id":19149,"code_insee":"32038","nom_standard":"Beaupuy","nom_a":null,"nom_de":null,"slug_ville":"beaupuy","departement_id":0,"code_postal":"32600","population":210,"superficie_km2":"658.68","latitude_centre":"43.647","longitude_centre":"1.0172","distance_km":5.15},{"id":19212,"code_insee":"32106","nom_standard":"Cologne","nom_a":null,"nom_de":null,"slug_ville":"cologne","departement_id":0,"code_postal":"32430","population":947,"superficie_km2":"655.91","latitude_centre":"43.7197","longitude_centre":"0.9759","distance_km":5.35},{"id":18838,"code_insee":"31209","nom_standard":"Garac","nom_a":null,"nom_de":null,"slug_ville":"garac","departement_id":0,"code_postal":"31480","population":168,"superficie_km2":"608.00","latitude_centre":"43.6869","longitude_centre":"1.097","distance_km":5.37},{"id":18881,"code_insee":"31275","nom_standard":"Laréole","nom_a":null,"nom_de":null,"slug_ville":"lareole","departement_id":0,"code_postal":"31480","population":157,"superficie_km2":"895.11","latitude_centre":"43.741","longitude_centre":"1.0206","distance_km":5.47},{"id":18855,"code_insee":"31234","nom_standard":"Le Grès","nom_a":null,"nom_de":null,"slug_ville":"le-gres","departement_id":0,"code_postal":"31480","population":463,"superficie_km2":"819.66","latitude_centre":"43.719","longitude_centre":"1.0981","distance_km":6.18},{"id":0,"code_insee":"32379","nom_standard":"Saint-Germier","nom_a":null,"nom_de":null,"slug_ville":"saint-germier","departement_id":0,"code_postal":"32200","population":212,"superficie_km2":"712.11","latitude_centre":"43.6733","longitude_centre":"0.9581","distance_km":6.2},{"id":0,"code_insee":"32435","nom_standard":"Sirac","nom_a":null,"nom_de":null,"slug_ville":"sirac","departement_id":0,"code_postal":"32430","population":164,"superficie_km2":"804.47","latitude_centre":"43.7014","longitude_centre":"0.9522","distance_km":6.38},{"id":0,"code_insee":"32339","nom_standard":"Razengues","nom_a":null,"nom_de":null,"slug_ville":"razengues","departement_id":0,"code_postal":"32600","population":263,"superficie_km2":"438.43","latitude_centre":"43.6437","longitude_centre":"0.9838","distance_km":6.59},{"id":19007,"code_insee":"31444","nom_standard":"Puysségur","nom_a":null,"nom_de":null,"slug_ville":"puyssegur","departement_id":0,"code_postal":"31480","population":140,"superficie_km2":"543.64","latitude_centre":"43.7531","longitude_centre":"1.067","distance_km":7.37},{"id":18803,"code_insee":"31156","nom_standard":"Cox","nom_a":null,"nom_de":null,"slug_ville":"cox","departement_id":0,"code_postal":"31480","population":364,"superficie_km2":"410.58","latitude_centre":"43.7606","longitude_centre":"1.0419","distance_km":7.65},{"id":19211,"code_insee":"32105","nom_standard":"Clermont-Savès","nom_a":null,"nom_de":null,"slug_ville":"clermont-saves","departement_id":0,"code_postal":"32600","population":387,"superficie_km2":"520.48","latitude_centre":"43.62","longitude_centre":"1.0107","distance_km":8.2}]}