{"ville":{"id":26352,"code_insee":"59195","nom_standard":"Englos","nom_a":null,"nom_de":null,"slug_ville":"englos","departement_id":0,"code_postal":"59320","population":618,"superficie_km2":"133.84","latitude_centre":"50.6266","longitude_centre":"2.9564","dep_code":"59","dep_nom":"Nord","dep_slug":"nord","reg_code":"32","reg_nom":"Hauts-de-France","reg_slug":"hauts-de-france"},"departement":{"code":"59","nom":"Nord","slug":"nord"},"region":{"code":"32","nom":"Hauts-de-France","slug":"hauts-de-france"},"villes_proches":[{"id":0,"code_insee":"59278","nom_standard":"Hallennes-lez-Haubourdin","nom_a":null,"nom_de":null,"slug_ville":"hallennes-lez-haubourdin","departement_id":0,"code_postal":"59320","population":4683,"superficie_km2":"434.29","latitude_centre":"50.6131","longitude_centre":"2.9553","distance_km":1.5},{"id":0,"code_insee":"59208","nom_standard":"Escobecques","nom_a":null,"nom_de":null,"slug_ville":"escobecques","departement_id":0,"code_postal":"59320","population":302,"superficie_km2":"184.73","latitude_centre":"50.6219","longitude_centre":"2.9326","distance_km":1.76},{"id":0,"code_insee":"59566","nom_standard":"Sequedin","nom_a":null,"nom_de":null,"slug_ville":"sequedin","departement_id":0,"code_postal":"59320","population":4675,"superficie_km2":"396.58","latitude_centre":"50.6252","longitude_centre":"2.9887","distance_km":2.28},{"id":0,"code_insee":"59201","nom_standard":"Erquinghem-le-Sec","nom_a":null,"nom_de":null,"slug_ville":"erquinghem-le-sec","departement_id":0,"code_postal":"59320","population":620,"superficie_km2":"174.72","latitude_centre":"50.6109","longitude_centre":"2.9336","distance_km":2.37},{"id":0,"code_insee":"59128","nom_standard":"Capinghem","nom_a":null,"nom_de":null,"slug_ville":"capinghem","departement_id":0,"code_postal":"59160","population":2728,"superficie_km2":"186.57","latitude_centre":"50.648","longitude_centre":"2.9633","distance_km":2.43},{"id":0,"code_insee":"59196","nom_standard":"Ennetières-en-Weppes","nom_a":null,"nom_de":null,"slug_ville":"ennetieres-en-weppes","departement_id":0,"code_postal":"59320","population":1280,"superficie_km2":"1046.74","latitude_centre":"50.6423","longitude_centre":"2.931","distance_km":2.5},{"id":0,"code_insee":"59286","nom_standard":"Haubourdin","nom_a":null,"nom_de":null,"slug_ville":"haubourdin","departement_id":0,"code_postal":"59320","population":15074,"superficie_km2":"538.20","latitude_centre":"50.6002","longitude_centre":"2.9893","distance_km":3.74},{"id":26285,"code_insee":"59056","nom_standard":"Beaucamps-Ligny","nom_a":null,"nom_de":null,"slug_ville":"beaucamps-ligny","departement_id":0,"code_postal":"59134","population":845,"superficie_km2":"504.27","latitude_centre":"50.6037","longitude_centre":"2.9154","distance_km":3.85},{"id":0,"code_insee":"59470","nom_standard":"Prémesques","nom_a":null,"nom_de":null,"slug_ville":"premesques","departement_id":0,"code_postal":"59840","population":2031,"superficie_km2":"505.45","latitude_centre":"50.6611","longitude_centre":"2.9481","distance_km":3.88},{"id":0,"code_insee":"59487","nom_standard":"Radinghem-en-Weppes","nom_a":null,"nom_de":null,"slug_ville":"radinghem-en-weppes","departement_id":0,"code_postal":"59320","population":1410,"superficie_km2":"683.47","latitude_centre":"50.6299","longitude_centre":"2.8988","distance_km":4.08},{"id":0,"code_insee":"59553","nom_standard":"Santes","nom_a":null,"nom_de":null,"slug_ville":"santes","departement_id":0,"code_postal":"59211","population":5652,"superficie_km2":"753.73","latitude_centre":"50.588","longitude_centre":"2.9561","distance_km":4.29},{"id":0,"code_insee":"59356","nom_standard":"Lompret","nom_a":null,"nom_de":null,"slug_ville":"lompret","departement_id":0,"code_postal":"59840","population":2155,"superficie_km2":"310.43","latitude_centre":"50.6638","longitude_centre":"2.9949","distance_km":4.95},{"id":0,"code_insee":"59457","nom_standard":"Pérenchies","nom_a":null,"nom_de":null,"slug_ville":"perenchies","departement_id":0,"code_postal":"59840","population":8455,"superficie_km2":"303.74","latitude_centre":"50.6708","longitude_centre":"2.9682","distance_km":4.98},{"id":0,"code_insee":"59360","nom_standard":"Loos","nom_a":null,"nom_de":null,"slug_ville":"loos","departement_id":0,"code_postal":"59120","population":22567,"superficie_km2":"690.04","latitude_centre":"50.6078","longitude_centre":"3.0215","distance_km":5.05},{"id":0,"code_insee":"59193","nom_standard":"Emmerin","nom_a":null,"nom_de":null,"slug_ville":"emmerin","departement_id":0,"code_postal":"59320","population":3026,"superficie_km2":"494.73","latitude_centre":"50.5906","longitude_centre":"3.0062","distance_km":5.33},{"id":0,"code_insee":"59250","nom_standard":"Fournes-en-Weppes","nom_a":null,"nom_de":null,"slug_ville":"fournes-en-weppes","departement_id":0,"code_postal":"59134","population":2179,"superficie_km2":"831.90","latitude_centre":"50.5934","longitude_centre":"2.8968","distance_km":5.6},{"id":0,"code_insee":"59653","nom_standard":"Wavrin","nom_a":null,"nom_de":null,"slug_ville":"wavrin","departement_id":0,"code_postal":"59136","population":7758,"superficie_km2":"1358.55","latitude_centre":"50.5735","longitude_centre":"2.9356","distance_km":6.08},{"id":0,"code_insee":"59317","nom_standard":"Houplines","nom_a":null,"nom_de":null,"slug_ville":"houplines","departement_id":0,"code_postal":"59116","population":7921,"superficie_km2":"1127.46","latitude_centre":"50.6832","longitude_centre":"2.9271","distance_km":6.62},{"id":0,"code_insee":"59611","nom_standard":"Verlinghem","nom_a":null,"nom_de":null,"slug_ville":"verlinghem","departement_id":0,"code_postal":"59237","population":2682,"superficie_km2":"1007.80","latitude_centre":"50.682","longitude_centre":"2.9965","distance_km":6.78},{"id":0,"code_insee":"59316","nom_standard":"Houplin-Ancoisne","nom_a":null,"nom_de":null,"slug_ville":"houplin-ancoisne","departement_id":0,"code_postal":"59263","population":3326,"superficie_km2":"647.55","latitude_centre":"50.5686","longitude_centre":"2.9943","distance_km":6.98}]}