{"ville":{"id":22317,"code_insee":"46092","nom_standard":"Esclauzels","nom_a":null,"nom_de":null,"slug_ville":"esclauzels","departement_id":0,"code_postal":"46090","population":224,"superficie_km2":"1788.50","latitude_centre":"44.4373","longitude_centre":"1.6008","dep_code":"46","dep_nom":"Lot","dep_slug":"lot","reg_code":"76","reg_nom":"Occitanie","reg_slug":"occitanie"},"departement":{"code":"46","nom":"Lot","slug":"lot"},"region":{"code":"76","nom":"Occitanie","slug":"occitanie"},"villes_proches":[{"id":22264,"code_insee":"46027","nom_standard":"Berganty","nom_a":null,"nom_de":null,"slug_ville":"berganty","departement_id":0,"code_postal":"46090","population":146,"superficie_km2":"703.28","latitude_centre":"44.4421","longitude_centre":"1.6303","distance_km":2.4},{"id":0,"code_insee":"46256","nom_standard":"Saint-Cirq-Lapopie","nom_a":null,"nom_de":null,"slug_ville":"saint-cirq-lapopie","departement_id":0,"code_postal":"46330","population":201,"superficie_km2":"1808.34","latitude_centre":"44.4519","longitude_centre":"1.6528","distance_km":4.44},{"id":22248,"code_insee":"46007","nom_standard":"Arcambal","nom_a":null,"nom_de":null,"slug_ville":"arcambal","departement_id":0,"code_postal":"46090","population":1004,"superficie_km2":"2346.46","latitude_centre":"44.4557","longitude_centre":"1.5432","distance_km":5.01},{"id":22251,"code_insee":"46010","nom_standard":"Aujols","nom_a":null,"nom_de":null,"slug_ville":"aujols","departement_id":0,"code_postal":"46090","population":383,"superficie_km2":"1630.44","latitude_centre":"44.4234","longitude_centre":"1.5402","distance_km":5.05},{"id":22272,"code_insee":"46037","nom_standard":"Bouziès","nom_a":null,"nom_de":null,"slug_ville":"bouzies","departement_id":0,"code_postal":"46330","population":93,"superficie_km2":"824.82","latitude_centre":"44.4776","longitude_centre":"1.6384","distance_km":5.38},{"id":22300,"code_insee":"46073","nom_standard":"Concots","nom_a":null,"nom_de":null,"slug_ville":"concots","departement_id":0,"code_postal":"46260","population":420,"superficie_km2":"2605.32","latitude_centre":"44.3982","longitude_centre":"1.6458","distance_km":5.63},{"id":22308,"code_insee":"46082","nom_standard":"Cremps","nom_a":null,"nom_de":null,"slug_ville":"cremps","departement_id":0,"code_postal":"46230","population":410,"superficie_km2":"1968.39","latitude_centre":"44.3867","longitude_centre":"1.583","distance_km":5.8},{"id":0,"code_insee":"46268","nom_standard":"Saint Géry-Vers","nom_a":null,"nom_de":null,"slug_ville":"saint-gery-vers","departement_id":0,"code_postal":"46090","population":910,"superficie_km2":"3177.39","latitude_centre":"44.4915","longitude_centre":"1.5797","distance_km":6.26},{"id":0,"code_insee":"46140","nom_standard":"Laburgade","nom_a":null,"nom_de":null,"slug_ville":"laburgade","departement_id":0,"code_postal":"46230","population":379,"superficie_km2":"1243.24","latitude_centre":"44.3898","longitude_centre":"1.5408","distance_km":7.11},{"id":22307,"code_insee":"46081","nom_standard":"Crégols","nom_a":null,"nom_de":null,"slug_ville":"cregols","departement_id":0,"code_postal":"46330","population":87,"superficie_km2":"1848.78","latitude_centre":"44.4304","longitude_centre":"1.6899","distance_km":7.12},{"id":0,"code_insee":"46320","nom_standard":"Tour-de-Faure","nom_a":null,"nom_de":null,"slug_ville":"tour-de-faure","departement_id":0,"code_postal":"46330","population":342,"superficie_km2":"881.60","latitude_centre":"44.4788","longitude_centre":"1.6785","distance_km":7.7},{"id":22316,"code_insee":"46091","nom_standard":"Escamps","nom_a":null,"nom_de":null,"slug_ville":"escamps","departement_id":0,"code_postal":"46230","population":206,"superficie_km2":"1231.25","latitude_centre":"44.3672","longitude_centre":"1.6195","distance_km":7.94},{"id":22274,"code_insee":"46040","nom_standard":"Cabrerets","nom_a":null,"nom_de":null,"slug_ville":"cabrerets","departement_id":0,"code_postal":"46330","population":220,"superficie_km2":"4399.69","latitude_centre":"44.5155","longitude_centre":"1.6216","distance_km":8.85},{"id":0,"code_insee":"46105","nom_standard":"Flaujac-Poujols","nom_a":null,"nom_de":null,"slug_ville":"flaujac-poujols","departement_id":0,"code_postal":"46090","population":811,"superficie_km2":"1262.90","latitude_centre":"44.408","longitude_centre":"1.496","distance_km":8.94},{"id":0,"code_insee":"46149","nom_standard":"Lamagdelaine","nom_a":null,"nom_de":null,"slug_ville":"lamagdelaine","departement_id":0,"code_postal":"46090","population":721,"superficie_km2":"1049.26","latitude_centre":"44.4768","longitude_centre":"1.5011","distance_km":9.05},{"id":22298,"code_insee":"46070","nom_standard":"Cieurac","nom_a":null,"nom_de":null,"slug_ville":"cieurac","departement_id":0,"code_postal":"46230","population":660,"superficie_km2":"1866.86","latitude_centre":"44.3773","longitude_centre":"1.5002","distance_km":10.41},{"id":0,"code_insee":"46156","nom_standard":"Bellefont-La Rauze","nom_a":null,"nom_de":null,"slug_ville":"bellefont-la-rauze","departement_id":0,"code_postal":"46090","population":1183,"superficie_km2":"3774.83","latitude_centre":"44.5082","longitude_centre":"1.5041","distance_km":11.0},{"id":0,"code_insee":"46148","nom_standard":"Lalbenque","nom_a":null,"nom_de":null,"slug_ville":"lalbenque","departement_id":0,"code_postal":"46230","population":1899,"superficie_km2":"5225.77","latitude_centre":"44.3356","longitude_centre":"1.563","distance_km":11.7},{"id":22254,"code_insee":"46013","nom_standard":"Bach","nom_a":null,"nom_de":null,"slug_ville":"bach","departement_id":0,"code_postal":"46230","population":211,"superficie_km2":"2106.96","latitude_centre":"44.343","longitude_centre":"1.6798","distance_km":12.22},{"id":0,"code_insee":"46245","nom_standard":"Sabadel-Lauzès","nom_a":null,"nom_de":null,"slug_ville":"sabadel-lauzes","departement_id":0,"code_postal":"46360","population":91,"superficie_km2":"875.87","latitude_centre":"44.5581","longitude_centre":"1.6089","distance_km":13.45}]}