{"ville":{"id":24007,"code_insee":"52190","nom_standard":"Esnouveaux","nom_a":null,"nom_de":null,"slug_ville":"esnouveaux","departement_id":0,"code_postal":"52340","population":301,"superficie_km2":"1705.47","latitude_centre":"48.1332","longitude_centre":"5.3417","dep_code":"52","dep_nom":"Haute-Marne","dep_slug":"haute-marne","reg_code":"44","reg_nom":"Grand Est","reg_slug":"grand-est"},"departement":{"code":"52","nom":"Haute-Marne","slug":"haute-marne"},"region":{"code":"44","nom":"Grand Est","slug":"grand-est"},"villes_proches":[{"id":23869,"code_insee":"52001","nom_standard":"Ageville","nom_a":null,"nom_de":null,"slug_ville":"ageville","departement_id":0,"code_postal":"52340","population":290,"superficie_km2":"1967.66","latitude_centre":"48.1102","longitude_centre":"5.3376","distance_km":2.58},{"id":0,"code_insee":"52204","nom_standard":"Forcey","nom_a":null,"nom_de":null,"slug_ville":"forcey","departement_id":0,"code_postal":"52700","population":59,"superficie_km2":"535.73","latitude_centre":"48.1511","longitude_centre":"5.3694","distance_km":2.86},{"id":23912,"code_insee":"52061","nom_standard":"Bourdons-sur-Rognon","nom_a":null,"nom_de":null,"slug_ville":"bourdons-sur-rognon","departement_id":0,"code_postal":"52700","population":293,"superficie_km2":"3981.31","latitude_centre":"48.1717","longitude_centre":"5.3434","distance_km":4.28},{"id":0,"code_insee":"52050","nom_standard":"Biesles","nom_a":null,"nom_de":null,"slug_ville":"biesles","departement_id":0,"code_postal":"52340","population":1342,"superficie_km2":"2411.75","latitude_centre":"48.1119","longitude_centre":"5.2896","distance_km":4.53},{"id":0,"code_insee":"52271","nom_standard":"Lanques-sur-Rognon","nom_a":null,"nom_de":null,"slug_ville":"lanques-sur-rognon","departement_id":0,"code_postal":"52800","population":213,"superficie_km2":"1317.85","latitude_centre":"48.083","longitude_centre":"5.3638","distance_km":5.82},{"id":0,"code_insee":"52319","nom_standard":"Mennouveaux","nom_a":null,"nom_de":null,"slug_ville":"mennouveaux","departement_id":0,"code_postal":"52240","population":64,"superficie_km2":"788.28","latitude_centre":"48.1007","longitude_centre":"5.4141","distance_km":6.48},{"id":23972,"code_insee":"52142","nom_standard":"Consigny","nom_a":null,"nom_de":null,"slug_ville":"consigny","departement_id":0,"code_postal":"52700","population":79,"superficie_km2":"1103.82","latitude_centre":"48.167","longitude_centre":"5.4138","distance_km":6.54},{"id":0,"code_insee":"52325","nom_standard":"Millières","nom_a":null,"nom_de":null,"slug_ville":"millieres","departement_id":0,"code_postal":"52240","population":115,"superficie_km2":"1408.86","latitude_centre":"48.1411","longitude_centre":"5.4302","distance_km":6.63},{"id":0,"code_insee":"52305","nom_standard":"Mandres-la-Côte","nom_a":null,"nom_de":null,"slug_ville":"mandres-la-cote","departement_id":0,"code_postal":"52800","population":556,"superficie_km2":"1151.45","latitude_centre":"48.0692","longitude_centre":"5.3323","distance_km":7.15},{"id":0,"code_insee":"52313","nom_standard":"Mareilles","nom_a":null,"nom_de":null,"slug_ville":"mareilles","departement_id":0,"code_postal":"52700","population":139,"superficie_km2":"2214.63","latitude_centre":"48.1662","longitude_centre":"5.257","distance_km":7.28},{"id":0,"code_insee":"52291","nom_standard":"Longchamp","nom_a":null,"nom_de":null,"slug_ville":"longchamp","departement_id":0,"code_postal":"52240","population":59,"superficie_km2":"609.16","latitude_centre":"48.1275","longitude_centre":"5.4402","distance_km":7.34},{"id":23959,"code_insee":"52128","nom_standard":"Cirey-lès-Mareilles","nom_a":null,"nom_de":null,"slug_ville":"cirey-les-mareilles","departement_id":0,"code_postal":"52700","population":155,"superficie_km2":"1464.27","latitude_centre":"48.1956","longitude_centre":"5.2993","distance_km":7.62},{"id":23982,"code_insee":"52159","nom_standard":"Cuves","nom_a":null,"nom_de":null,"slug_ville":"cuves","departement_id":0,"code_postal":"52240","population":24,"superficie_km2":"544.60","latitude_centre":"48.0952","longitude_centre":"5.4311","distance_km":7.87},{"id":0,"code_insee":"52459","nom_standard":"Sarcey","nom_a":null,"nom_de":null,"slug_ville":"sarcey","departement_id":0,"code_postal":"52800","population":97,"superficie_km2":"722.85","latitude_centre":"48.0576","longitude_centre":"5.2961","distance_km":9.06},{"id":24002,"code_insee":"52183","nom_standard":"Ecot-la-Combe","nom_a":null,"nom_de":null,"slug_ville":"ecot-la-combe","departement_id":0,"code_postal":"52700","population":36,"superficie_km2":"2088.94","latitude_centre":"48.2067","longitude_centre":"5.3967","distance_km":9.13},{"id":0,"code_insee":"52276","nom_standard":"Laville-aux-Bois","nom_a":null,"nom_de":null,"slug_ville":"laville-aux-bois","departement_id":0,"code_postal":"52000","population":238,"superficie_km2":"1312.38","latitude_centre":"48.0902","longitude_centre":"5.2366","distance_km":9.15},{"id":0,"code_insee":"52352","nom_standard":"Ninville","nom_a":null,"nom_de":null,"slug_ville":"ninville","departement_id":0,"code_postal":"52800","population":62,"superficie_km2":"906.59","latitude_centre":"48.0703","longitude_centre":"5.4396","distance_km":10.09},{"id":0,"code_insee":"52353","nom_standard":"Nogent","nom_a":null,"nom_de":null,"slug_ville":"nogent","departement_id":0,"code_postal":"52800","population":3550,"superficie_km2":"5511.18","latitude_centre":"48.0419","longitude_centre":"5.3635","distance_km":10.28},{"id":23876,"code_insee":"52008","nom_standard":"Andelot-Blancheville","nom_a":null,"nom_de":null,"slug_ville":"andelot-blancheville","departement_id":0,"code_postal":"52700","population":799,"superficie_km2":"3324.27","latitude_centre":"48.2365","longitude_centre":"5.281","distance_km":12.34},{"id":0,"code_insee":"52423","nom_standard":"Rimaucourt","nom_a":null,"nom_de":null,"slug_ville":"rimaucourt","departement_id":0,"code_postal":"52700","population":609,"superficie_km2":"2036.38","latitude_centre":"48.2457","longitude_centre":"5.348","distance_km":12.52}]}