{"ville":{"id":14194,"code_insee":"16131","nom_standard":"Esse","nom_a":null,"nom_de":null,"slug_ville":"esse","departement_id":0,"code_postal":"16500","population":518,"superficie_km2":"3018.17","latitude_centre":"46.0243","longitude_centre":"0.7221","dep_code":"16","dep_nom":"Charente","dep_slug":"charente","reg_code":"75","reg_nom":"Nouvelle-Aquitaine","reg_slug":"nouvelle-aquitaine"},"departement":{"code":"16","nom":"Charente","slug":"charente"},"region":{"code":"75","nom":"Nouvelle-Aquitaine","slug":"nouvelle-aquitaine"},"villes_proches":[{"id":0,"code_insee":"16106","nom_standard":"Confolens","nom_a":null,"nom_de":null,"slug_ville":"confolens","departement_id":0,"code_postal":"16500","population":2730,"superficie_km2":"2364.32","latitude_centre":"46.0245","longitude_centre":"0.6639","distance_km":4.49},{"id":0,"code_insee":"16182","nom_standard":"Lesterps","nom_a":null,"nom_de":null,"slug_ville":"lesterps","departement_id":0,"code_postal":"16420","population":439,"superficie_km2":"3598.60","latitude_centre":"46.0132","longitude_centre":"0.7915","distance_km":5.5},{"id":14149,"code_insee":"16065","nom_standard":"Brillac","nom_a":null,"nom_de":null,"slug_ville":"brillac","departement_id":0,"code_postal":"16500","population":591,"superficie_km2":"4246.42","latitude_centre":"46.0708","longitude_centre":"0.7651","distance_km":6.14},{"id":0,"code_insee":"16337","nom_standard":"Saint-Maurice-des-Lions","nom_a":null,"nom_de":null,"slug_ville":"saint-maurice-des-lions","departement_id":0,"code_postal":"16500","population":892,"superficie_km2":"5003.99","latitude_centre":"45.9634","longitude_centre":"0.7026","distance_km":6.94},{"id":0,"code_insee":"16181","nom_standard":"Lessac","nom_a":null,"nom_de":null,"slug_ville":"lessac","departement_id":0,"code_postal":"16500","population":549,"superficie_km2":"3437.61","latitude_centre":"46.0701","longitude_centre":"0.648","distance_km":7.66},{"id":14114,"code_insee":"16016","nom_standard":"Ansac-sur-Vienne","nom_a":null,"nom_de":null,"slug_ville":"ansac-sur-vienne","departement_id":0,"code_postal":"16500","population":815,"superficie_km2":"3094.64","latitude_centre":"45.9934","longitude_centre":"0.626","distance_km":8.18},{"id":14104,"code_insee":"16001","nom_standard":"Abzac","nom_a":null,"nom_de":null,"slug_ville":"abzac","departement_id":0,"code_postal":"16500","population":518,"superficie_km2":"3349.47","latitude_centre":"46.0999","longitude_centre":"0.7174","distance_km":8.41},{"id":0,"code_insee":"16363","nom_standard":"Saulgond","nom_a":null,"nom_de":null,"slug_ville":"saulgond","departement_id":0,"code_postal":"16420","population":530,"superficie_km2":"2739.72","latitude_centre":"45.9532","longitude_centre":"0.7839","distance_km":9.24},{"id":0,"code_insee":"16306","nom_standard":"Saint-Christophe","nom_a":null,"nom_de":null,"slug_ville":"saint-christophe","departement_id":0,"code_postal":"16420","population":334,"superficie_km2":"2335.28","latitude_centre":"46.0028","longitude_centre":"0.8565","distance_km":10.65},{"id":0,"code_insee":"16249","nom_standard":"Oradour-Fanais","nom_a":null,"nom_de":null,"slug_ville":"oradour-fanais","departement_id":0,"code_postal":"16500","population":342,"superficie_km2":"2642.09","latitude_centre":"46.1126","longitude_centre":"0.7818","distance_km":10.85},{"id":0,"code_insee":"16164","nom_standard":"Hiesse","nom_a":null,"nom_de":null,"slug_ville":"hiesse","departement_id":0,"code_postal":"16490","population":238,"superficie_km2":"2487.96","latitude_centre":"46.0494","longitude_centre":"0.5814","distance_km":11.21},{"id":14154,"code_insee":"16071","nom_standard":"Chabrac","nom_a":null,"nom_de":null,"slug_ville":"chabrac","departement_id":0,"code_postal":"16150","population":603,"superficie_km2":"2255.37","latitude_centre":"45.9236","longitude_centre":"0.7462","distance_km":11.35},{"id":14172,"code_insee":"16100","nom_standard":"Chirac","nom_a":null,"nom_de":null,"slug_ville":"chirac","departement_id":0,"code_postal":"16150","population":781,"superficie_km2":"3448.72","latitude_centre":"45.9154","longitude_centre":"0.6875","distance_km":12.4},{"id":0,"code_insee":"87069","nom_standard":"Gajoubert","nom_a":null,"nom_de":null,"slug_ville":"gajoubert","departement_id":0,"code_postal":"87330","population":148,"superficie_km2":"1420.91","latitude_centre":"46.106","longitude_centre":"0.8402","distance_km":12.87},{"id":0,"code_insee":"86015","nom_standard":"Availles-Limouzine","nom_a":null,"nom_de":null,"slug_ville":"availles-limouzine","departement_id":0,"code_postal":"86460","population":1312,"superficie_km2":"5815.60","latitude_centre":"46.1313","longitude_centre":"0.6515","distance_km":13.08},{"id":0,"code_insee":"16205","nom_standard":"Manot","nom_a":null,"nom_de":null,"slug_ville":"manot","departement_id":0,"code_postal":"16500","population":555,"superficie_km2":"2037.99","latitude_centre":"45.9278","longitude_centre":"0.6157","distance_km":13.52},{"id":0,"code_insee":"86011","nom_standard":"Asnières-sur-Blour","nom_a":null,"nom_de":null,"slug_ville":"asnieres-sur-blour","departement_id":0,"code_postal":"86430","population":193,"superficie_km2":"3270.84","latitude_centre":"46.1501","longitude_centre":"0.78","distance_km":14.68},{"id":0,"code_insee":"16132","nom_standard":"Étagnac","nom_a":null,"nom_de":null,"slug_ville":"etagnac","departement_id":0,"code_postal":"16150","population":982,"superficie_km2":"2945.17","latitude_centre":"45.8927","longitude_centre":"0.7833","distance_km":15.38},{"id":0,"code_insee":"16134","nom_standard":"Exideuil-sur-Vienne","nom_a":null,"nom_de":null,"slug_ville":"exideuil-sur-vienne","departement_id":0,"code_postal":"16150","population":1035,"superficie_km2":"2059.55","latitude_centre":"45.8786","longitude_centre":"0.6656","distance_km":16.78},{"id":0,"code_insee":"16070","nom_standard":"Chabanais","nom_a":null,"nom_de":null,"slug_ville":"chabanais","departement_id":0,"code_postal":"16150","population":1589,"superficie_km2":"1496.64","latitude_centre":"45.8656","longitude_centre":"0.7076","distance_km":17.68}]}