{"ville":{"id":28588,"code_insee":"64219","nom_standard":"Estialescq","nom_a":null,"nom_de":null,"slug_ville":"estialescq","departement_id":0,"code_postal":"64290","population":257,"superficie_km2":"507.97","latitude_centre":"43.2236","longitude_centre":"-0.5539","dep_code":"64","dep_nom":"Pyrénées-Atlantiques","dep_slug":"pyrenees-atlantiques","reg_code":"75","reg_nom":"Nouvelle-Aquitaine","reg_slug":"nouvelle-aquitaine"},"departement":{"code":"64","nom":"Pyrénées-Atlantiques","slug":"pyrenees-atlantiques"},"region":{"code":"75","nom":"Nouvelle-Aquitaine","slug":"nouvelle-aquitaine"},"villes_proches":[{"id":0,"code_insee":"64245","nom_standard":"Goès","nom_a":null,"nom_de":null,"slug_ville":"goes","departement_id":0,"code_postal":"64400","population":520,"superficie_km2":"478.06","latitude_centre":"43.216","longitude_centre":"-0.5782","distance_km":2.14},{"id":0,"code_insee":"64460","nom_standard":"Précilhon","nom_a":null,"nom_de":null,"slug_ville":"precilhon","departement_id":0,"code_postal":"64400","population":409,"superficie_km2":"637.58","latitude_centre":"43.1935","longitude_centre":"-0.572","distance_km":3.65},{"id":28580,"code_insee":"64209","nom_standard":"Escout","nom_a":null,"nom_de":null,"slug_ville":"escout","departement_id":0,"code_postal":"64870","population":423,"superficie_km2":"950.73","latitude_centre":"43.189","longitude_centre":"-0.5523","distance_km":3.85},{"id":0,"code_insee":"64220","nom_standard":"Estos","nom_a":null,"nom_de":null,"slug_ville":"estos","departement_id":0,"code_postal":"64400","population":481,"superficie_km2":"318.89","latitude_centre":"43.2143","longitude_centre":"-0.6071","distance_km":4.43},{"id":0,"code_insee":"64328","nom_standard":"Ledeuix","nom_a":null,"nom_de":null,"slug_ville":"ledeuix","departement_id":0,"code_postal":"64400","population":1029,"superficie_km2":"1353.23","latitude_centre":"43.2326","longitude_centre":"-0.6126","distance_km":4.86},{"id":28578,"code_insee":"64207","nom_standard":"Escou","nom_a":null,"nom_de":null,"slug_ville":"escou","departement_id":0,"code_postal":"64870","population":429,"superficie_km2":"625.22","latitude_centre":"43.1834","longitude_centre":"-0.5284","distance_km":4.92},{"id":28541,"code_insee":"64165","nom_standard":"Cardesse","nom_a":null,"nom_de":null,"slug_ville":"cardesse","departement_id":0,"code_postal":"64360","population":293,"superficie_km2":"768.57","latitude_centre":"43.2654","longitude_centre":"-0.5918","distance_km":5.57},{"id":0,"code_insee":"64324","nom_standard":"Lasseube","nom_a":null,"nom_de":null,"slug_ville":"lasseube","departement_id":0,"code_postal":"64290","population":1735,"superficie_km2":"4890.59","latitude_centre":"43.2118","longitude_centre":"-0.4855","distance_km":5.7},{"id":0,"code_insee":"64126","nom_standard":"Bidos","nom_a":null,"nom_de":null,"slug_ville":"bidos","departement_id":0,"code_postal":"64400","population":1102,"superficie_km2":"137.58","latitude_centre":"43.1759","longitude_centre":"-0.6054","distance_km":6.75},{"id":0,"code_insee":"64299","nom_standard":"Lacommande","nom_a":null,"nom_de":null,"slug_ville":"lacommande","departement_id":0,"code_postal":"64360","population":172,"superficie_km2":"329.80","latitude_centre":"43.276","longitude_centre":"-0.5096","distance_km":6.84},{"id":0,"code_insee":"64422","nom_standard":"Oloron-Sainte-Marie","nom_a":null,"nom_de":null,"slug_ville":"oloron-sainte-marie","departement_id":0,"code_postal":"64400","population":10684,"superficie_km2":"6858.53","latitude_centre":"43.1679","longitude_centre":"-0.5954","distance_km":7.05},{"id":0,"code_insee":"64551","nom_standard":"Verdets","nom_a":null,"nom_de":null,"slug_ville":"verdets","departement_id":0,"code_postal":"64400","population":300,"superficie_km2":"558.03","latitude_centre":"43.2318","longitude_centre":"-0.6431","distance_km":7.28},{"id":0,"code_insee":"64261","nom_standard":"Herrère","nom_a":null,"nom_de":null,"slug_ville":"herrere","departement_id":0,"code_postal":"64680","population":397,"superficie_km2":"890.53","latitude_centre":"43.1577","longitude_centre":"-0.5468","distance_km":7.35},{"id":0,"code_insee":"64393","nom_standard":"Monein","nom_a":null,"nom_de":null,"slug_ville":"monein","departement_id":0,"code_postal":"64360","population":4446,"superficie_km2":"8090.13","latitude_centre":"43.2905","longitude_centre":"-0.5628","distance_km":7.47},{"id":28470,"code_insee":"64072","nom_standard":"Aubertin","nom_a":null,"nom_de":null,"slug_ville":"aubertin","departement_id":0,"code_postal":"64290","population":671,"superficie_km2":"1729.73","latitude_centre":"43.2724","longitude_centre":"-0.4816","distance_km":7.98},{"id":0,"code_insee":"64252","nom_standard":"Gurmençon","nom_a":null,"nom_de":null,"slug_ville":"gurmencon","departement_id":0,"code_postal":"64400","population":867,"superficie_km2":"299.93","latitude_centre":"43.1598","longitude_centre":"-0.5992","distance_km":7.99},{"id":0,"code_insee":"64421","nom_standard":"Ogeu-les-Bains","nom_a":null,"nom_de":null,"slug_ville":"ogeu-les-bains","departement_id":0,"code_postal":"64680","population":1290,"superficie_km2":"2309.29","latitude_centre":"43.1547","longitude_centre":"-0.508","distance_km":8.52},{"id":28569,"code_insee":"64197","nom_standard":"Cuqueron","nom_a":null,"nom_de":null,"slug_ville":"cuqueron","departement_id":0,"code_postal":"64360","population":189,"superficie_km2":"353.95","latitude_centre":"43.3088","longitude_centre":"-0.5528","distance_km":9.47},{"id":0,"code_insee":"64224","nom_standard":"Eysus","nom_a":null,"nom_de":null,"slug_ville":"eysus","departement_id":0,"code_postal":"64400","population":625,"superficie_km2":"673.92","latitude_centre":"43.1409","longitude_centre":"-0.5817","distance_km":9.47},{"id":0,"code_insee":"64007","nom_standard":"Agnos","nom_a":null,"nom_de":null,"slug_ville":"agnos","departement_id":0,"code_postal":"64400","population":1044,"superficie_km2":"915.55","latitude_centre":"43.1556","longitude_centre":"-0.6359","distance_km":10.07}]}