{"ville":{"id":26363,"code_insee":"59216","nom_standard":"Eswars","nom_a":null,"nom_de":null,"slug_ville":"eswars","departement_id":0,"code_postal":"59161","population":363,"superficie_km2":"277.10","latitude_centre":"50.2154","longitude_centre":"3.2637","dep_code":"59","dep_nom":"Nord","dep_slug":"nord","reg_code":"32","reg_nom":"Hauts-de-France","reg_slug":"hauts-de-france"},"departement":{"code":"59","nom":"Nord","slug":"nord"},"region":{"code":"32","nom":"Hauts-de-France","slug":"hauts-de-france"},"villes_proches":[{"id":0,"code_insee":"59593","nom_standard":"Thun-l'Évêque","nom_a":null,"nom_de":null,"slug_ville":"thun-l-eveque","departement_id":0,"code_postal":"59141","population":788,"superficie_km2":"568.95","latitude_centre":"50.2221","longitude_centre":"3.2801","distance_km":1.38},{"id":0,"code_insee":"59492","nom_standard":"Ramillies","nom_a":null,"nom_de":null,"slug_ville":"ramillies","departement_id":0,"code_postal":"59161","population":579,"superficie_km2":"510.11","latitude_centre":"50.2066","longitude_centre":"3.2482","distance_km":1.47},{"id":26336,"code_insee":"59167","nom_standard":"Cuvillers","nom_a":null,"nom_de":null,"slug_ville":"cuvillers","departement_id":0,"code_postal":"59268","population":177,"superficie_km2":"290.09","latitude_centre":"50.2212","longitude_centre":"3.2384","distance_km":1.91},{"id":0,"code_insee":"59206","nom_standard":"Escaudœuvres","nom_a":null,"nom_de":null,"slug_ville":"escaudoeuvres","departement_id":0,"code_postal":"59161","population":3171,"superficie_km2":"665.58","latitude_centre":"50.1937","longitude_centre":"3.2712","distance_km":2.47},{"id":0,"code_insee":"59595","nom_standard":"Thun-Saint-Martin","nom_a":null,"nom_de":null,"slug_ville":"thun-saint-martin","departement_id":0,"code_postal":"59141","population":543,"superficie_km2":"600.46","latitude_centre":"50.2189","longitude_centre":"3.3026","distance_km":2.8},{"id":26281,"code_insee":"59048","nom_standard":"Bantigny","nom_a":null,"nom_de":null,"slug_ville":"bantigny","departement_id":0,"code_postal":"59554","population":494,"superficie_km2":"318.07","latitude_centre":"50.2337","longitude_centre":"3.2359","distance_km":2.84},{"id":26302,"code_insee":"59085","nom_standard":"Blécourt","nom_a":null,"nom_de":null,"slug_ville":"blecourt","departement_id":0,"code_postal":"59268","population":313,"superficie_km2":"359.37","latitude_centre":"50.2176","longitude_centre":"3.2134","distance_km":3.59},{"id":0,"code_insee":"59455","nom_standard":"Paillencourt","nom_a":null,"nom_de":null,"slug_ville":"paillencourt","departement_id":0,"code_postal":"59295","population":1030,"superficie_km2":"759.07","latitude_centre":"50.2488","longitude_centre":"3.265","distance_km":3.72},{"id":0,"code_insee":"59219","nom_standard":"Estrun","nom_a":null,"nom_de":null,"slug_ville":"estrun","departement_id":0,"code_postal":"59295","population":725,"superficie_km2":"281.62","latitude_centre":"50.2451","longitude_centre":"3.2924","distance_km":3.88},{"id":0,"code_insee":"59597","nom_standard":"Tilloy-lez-Cambrai","nom_a":null,"nom_de":null,"slug_ville":"tilloy-lez-cambrai","departement_id":0,"code_postal":"59554","population":695,"superficie_km2":"328.47","latitude_centre":"50.201","longitude_centre":"3.2138","distance_km":3.9},{"id":0,"code_insee":"59422","nom_standard":"Naves","nom_a":null,"nom_de":null,"slug_ville":"naves","departement_id":0,"code_postal":"59161","population":620,"superficie_km2":"521.47","latitude_centre":"50.2046","longitude_centre":"3.3163","distance_km":3.93},{"id":0,"code_insee":"59428","nom_standard":"Neuville-Saint-Rémy","nom_a":null,"nom_de":null,"slug_ville":"neuville-saint-remy","departement_id":0,"code_postal":"59554","population":4012,"superficie_km2":"237.35","latitude_centre":"50.187","longitude_centre":"3.2202","distance_km":4.42},{"id":26269,"code_insee":"59001","nom_standard":"Abancourt","nom_a":null,"nom_de":null,"slug_ville":"abancourt","departement_id":0,"code_postal":"59268","population":441,"superficie_km2":"567.63","latitude_centre":"50.2367","longitude_centre":"3.2087","distance_km":4.57},{"id":0,"code_insee":"59300","nom_standard":"Hem-Lenglet","nom_a":null,"nom_de":null,"slug_ville":"hem-lenglet","departement_id":0,"code_postal":"59247","population":565,"superficie_km2":"491.03","latitude_centre":"50.2526","longitude_centre":"3.226","distance_km":4.93},{"id":0,"code_insee":"59122","nom_standard":"Cambrai","nom_a":null,"nom_de":null,"slug_ville":"cambrai","departement_id":0,"code_postal":"59400","population":31134,"superficie_km2":"1819.31","latitude_centre":"50.1722","longitude_centre":"3.2413","distance_km":5.06},{"id":26318,"code_insee":"59121","nom_standard":"Cagnoncles","nom_a":null,"nom_de":null,"slug_ville":"cagnoncles","departement_id":0,"code_postal":"59161","population":663,"superficie_km2":"617.88","latitude_centre":"50.1837","longitude_centre":"3.3177","distance_km":5.22},{"id":26325,"code_insee":"59141","nom_standard":"Cauroir","nom_a":null,"nom_de":null,"slug_ville":"cauroir","departement_id":0,"code_postal":"59400","population":579,"superficie_km2":"561.05","latitude_centre":"50.1714","longitude_centre":"3.2983","distance_km":5.48},{"id":0,"code_insee":"59652","nom_standard":"Wavrechain-sous-Faulx","nom_a":null,"nom_de":null,"slug_ville":"wavrechain-sous-faulx","departement_id":0,"code_postal":"59111","population":440,"superficie_km2":"381.50","latitude_centre":"50.2684","longitude_centre":"3.2844","distance_km":6.07},{"id":0,"code_insee":"59645","nom_standard":"Wasnes-au-Bac","nom_a":null,"nom_de":null,"slug_ville":"wasnes-au-bac","departement_id":0,"code_postal":"59252","population":604,"superficie_km2":"521.51","latitude_centre":"50.2696","longitude_centre":"3.2528","distance_km":6.08},{"id":26277,"code_insee":"59039","nom_standard":"Awoingt","nom_a":null,"nom_de":null,"slug_ville":"awoingt","departement_id":0,"code_postal":"59400","population":757,"superficie_km2":"630.56","latitude_centre":"50.1537","longitude_centre":"3.2867","distance_km":7.05}]}