{"ville":{"id":11917,"code_insee":"08156","nom_standard":"Éteignières","nom_a":null,"nom_de":null,"slug_ville":"eteignieres","departement_id":0,"code_postal":"08260","population":465,"superficie_km2":"1179.31","latitude_centre":"49.8954","longitude_centre":"4.4127","dep_code":"08","dep_nom":"Ardennes","dep_slug":"ardennes","reg_code":"44","reg_nom":"Grand Est","reg_slug":"grand-est"},"departement":{"code":"08","nom":"Ardennes","slug":"ardennes"},"region":{"code":"44","nom":"Grand Est","slug":"grand-est"},"villes_proches":[{"id":0,"code_insee":"08282","nom_standard":"Maubert-Fontaine","nom_a":null,"nom_de":null,"slug_ville":"maubert-fontaine","departement_id":0,"code_postal":"08260","population":1023,"superficie_km2":"1020.36","latitude_centre":"49.8833","longitude_centre":"4.4347","distance_km":2.07},{"id":0,"code_insee":"08355","nom_standard":"Regniowez","nom_a":null,"nom_de":null,"slug_ville":"regniowez","departement_id":0,"code_postal":"08230","population":369,"superficie_km2":"1832.67","latitude_centre":"49.9252","longitude_centre":"4.4168","distance_km":3.33},{"id":0,"code_insee":"08319","nom_standard":"Neuville-lez-Beaulieu","nom_a":null,"nom_de":null,"slug_ville":"neuville-lez-beaulieu","departement_id":0,"code_postal":"08380","population":320,"superficie_km2":"3601.13","latitude_centre":"49.9048","longitude_centre":"4.3565","distance_km":4.16},{"id":0,"code_insee":"08417","nom_standard":"Sévigny-la-Forêt","nom_a":null,"nom_de":null,"slug_ville":"sevigny-la-foret","departement_id":0,"code_postal":"08230","population":270,"superficie_km2":"2620.91","latitude_centre":"49.8792","longitude_centre":"4.4724","distance_km":4.64},{"id":11826,"code_insee":"08037","nom_standard":"Auvillers-les-Forges","nom_a":null,"nom_de":null,"slug_ville":"auvillers-les-forges","departement_id":0,"code_postal":"08260","population":909,"superficie_km2":"813.45","latitude_centre":"49.8671","longitude_centre":"4.3607","distance_km":4.88},{"id":0,"code_insee":"08189","nom_standard":"Girondelle","nom_a":null,"nom_de":null,"slug_ville":"girondelle","departement_id":0,"code_postal":"08260","population":153,"superficie_km2":"1150.82","latitude_centre":"49.8531","longitude_centre":"4.3842","distance_km":5.13},{"id":11916,"code_insee":"08155","nom_standard":"Étalle","nom_a":null,"nom_de":null,"slug_ville":"etalle","departement_id":0,"code_postal":"08260","population":94,"superficie_km2":"439.45","latitude_centre":"49.8526","longitude_centre":"4.4449","distance_km":5.29},{"id":0,"code_insee":"08436","nom_standard":"Taillette","nom_a":null,"nom_de":null,"slug_ville":"taillette","departement_id":0,"code_postal":"08230","population":407,"superficie_km2":"1518.49","latitude_centre":"49.9259","longitude_centre":"4.4765","distance_km":5.69},{"id":0,"code_insee":"08273","nom_standard":"Marby","nom_a":null,"nom_de":null,"slug_ville":"marby","departement_id":0,"code_postal":"08260","population":72,"superficie_km2":"739.72","latitude_centre":"49.8355","longitude_centre":"4.4276","distance_km":6.75},{"id":11889,"code_insee":"08121","nom_standard":"Chilly","nom_a":null,"nom_de":null,"slug_ville":"chilly","departement_id":0,"code_postal":"08260","population":134,"superficie_km2":"588.36","latitude_centre":"49.8417","longitude_centre":"4.4713","distance_km":7.3},{"id":0,"code_insee":"08169","nom_standard":"Flaignes-Havys","nom_a":null,"nom_de":null,"slug_ville":"flaignes-havys","departement_id":0,"code_postal":"08260","population":89,"superficie_km2":"1376.66","latitude_centre":"49.825","longitude_centre":"4.3993","distance_km":7.89},{"id":0,"code_insee":"08460","nom_standard":"Tremblois-lès-Rocroi","nom_a":null,"nom_de":null,"slug_ville":"tremblois-les-rocroi","departement_id":0,"code_postal":"08150","population":158,"superficie_km2":"168.68","latitude_centre":"49.8438","longitude_centre":"4.4994","distance_km":8.46},{"id":0,"code_insee":"08440","nom_standard":"Tarzy","nom_a":null,"nom_de":null,"slug_ville":"tarzy","departement_id":0,"code_postal":"08380","population":126,"superficie_km2":"1025.27","latitude_centre":"49.8745","longitude_centre":"4.2978","distance_km":8.55},{"id":0,"code_insee":"08249","nom_standard":"Laval-Morency","nom_a":null,"nom_de":null,"slug_ville":"laval-morency","departement_id":0,"code_postal":"08150","population":231,"superficie_km2":"435.48","latitude_centre":"49.8332","longitude_centre":"4.4938","distance_km":9.03},{"id":11915,"code_insee":"08154","nom_standard":"Estrebay","nom_a":null,"nom_de":null,"slug_ville":"estrebay","departement_id":0,"code_postal":"08260","population":84,"superficie_km2":"935.73","latitude_centre":"49.8264","longitude_centre":"4.3459","distance_km":9.04},{"id":11875,"code_insee":"08100","nom_standard":"Champlin","nom_a":null,"nom_de":null,"slug_ville":"champlin","departement_id":0,"code_postal":"08260","population":73,"superficie_km2":"596.47","latitude_centre":"49.834","longitude_centre":"4.3262","distance_km":9.22},{"id":11852,"code_insee":"08071","nom_standard":"Blombay","nom_a":null,"nom_de":null,"slug_ville":"blombay","departement_id":0,"code_postal":"08260","population":128,"superficie_km2":"944.14","latitude_centre":"49.8166","longitude_centre":"4.4565","distance_km":9.31},{"id":11806,"code_insee":"08015","nom_standard":"Antheny","nom_a":null,"nom_de":null,"slug_ville":"antheny","departement_id":0,"code_postal":"08260","population":100,"superficie_km2":"1013.52","latitude_centre":"49.8423","longitude_centre":"4.3084","distance_km":9.53},{"id":11869,"code_insee":"08094","nom_standard":"Cernion","nom_a":null,"nom_de":null,"slug_ville":"cernion","departement_id":0,"code_postal":"08260","population":54,"superficie_km2":"665.82","latitude_centre":"49.8002","longitude_centre":"4.4265","distance_km":10.63},{"id":0,"code_insee":"08344","nom_standard":"Prez","nom_a":null,"nom_de":null,"slug_ville":"prez","departement_id":0,"code_postal":"08290","population":133,"superficie_km2":"1227.53","latitude_centre":"49.8016","longitude_centre":"4.3612","distance_km":11.06}]}