{"ville":{"id":24587,"code_insee":"54185","nom_standard":"Étreval","nom_a":null,"nom_de":null,"slug_ville":"etreval","departement_id":0,"code_postal":"54330","population":59,"superficie_km2":"238.97","latitude_centre":"48.4561","longitude_centre":"6.0529","dep_code":"54","dep_nom":"Meurthe-et-Moselle","dep_slug":"meurthe-et-moselle","reg_code":"44","reg_nom":"Grand Est","reg_slug":"grand-est"},"departement":{"code":"54","nom":"Meurthe-et-Moselle","slug":"meurthe-et-moselle"},"region":{"code":"44","nom":"Grand Est","slug":"grand-est"},"villes_proches":[{"id":0,"code_insee":"54407","nom_standard":"Ognéville","nom_a":null,"nom_de":null,"slug_ville":"ogneville","departement_id":0,"code_postal":"54330","population":87,"superficie_km2":"413.22","latitude_centre":"48.472","longitude_centre":"6.0577","distance_km":1.8},{"id":0,"code_insee":"54592","nom_standard":"Vroncourt","nom_a":null,"nom_de":null,"slug_ville":"vroncourt","departement_id":0,"code_postal":"54330","population":273,"superficie_km2":"417.08","latitude_centre":"48.4598","longitude_centre":"6.077","distance_km":1.82},{"id":24536,"code_insee":"54117","nom_standard":"Chaouilley","nom_a":null,"nom_de":null,"slug_ville":"chaouilley","departement_id":0,"code_postal":"54330","population":111,"superficie_km2":"512.78","latitude_centre":"48.4427","longitude_centre":"6.0675","distance_km":1.84},{"id":0,"code_insee":"54522","nom_standard":"Thorey-Lyautey","nom_a":null,"nom_de":null,"slug_ville":"thorey-lyautey","departement_id":0,"code_postal":"54115","population":119,"superficie_km2":"618.31","latitude_centre":"48.4484","longitude_centre":"6.029","distance_km":1.96},{"id":0,"code_insee":"54291","nom_standard":"Lalœuf","nom_a":null,"nom_de":null,"slug_ville":"laloeuf","departement_id":0,"code_postal":"54115","population":306,"superficie_km2":"1098.37","latitude_centre":"48.4662","longitude_centre":"6.0087","distance_km":3.45},{"id":0,"code_insee":"54203","nom_standard":"Forcelles-Saint-Gorgon","nom_a":null,"nom_de":null,"slug_ville":"forcelles-saint-gorgon","departement_id":0,"code_postal":"54330","population":168,"superficie_km2":"532.46","latitude_centre":"48.4574","longitude_centre":"6.1047","distance_km":3.82},{"id":0,"code_insee":"54552","nom_standard":"Vaudémont","nom_a":null,"nom_de":null,"slug_ville":"vaudemont","departement_id":0,"code_postal":"54330","population":70,"superficie_km2":"578.64","latitude_centre":"48.4214","longitude_centre":"6.0599","distance_km":3.89},{"id":0,"code_insee":"54587","nom_standard":"Vitrey","nom_a":null,"nom_de":null,"slug_ville":"vitrey","departement_id":0,"code_postal":"54330","population":193,"superficie_km2":"1169.06","latitude_centre":"48.4921","longitude_centre":"6.0423","distance_km":4.08},{"id":0,"code_insee":"54442","nom_standard":"Quevilloncourt","nom_a":null,"nom_de":null,"slug_ville":"quevilloncourt","departement_id":0,"code_postal":"54330","population":96,"superficie_km2":"289.34","latitude_centre":"48.4716","longitude_centre":"6.1038","distance_km":4.13},{"id":24571,"code_insee":"54164","nom_standard":"Dommarie-Eulmont","nom_a":null,"nom_de":null,"slug_ville":"dommarie-eulmont","departement_id":0,"code_postal":"54115","population":74,"superficie_km2":"548.14","latitude_centre":"48.4192","longitude_centre":"6.0335","distance_km":4.35},{"id":0,"code_insee":"54563","nom_standard":"Vézelise","nom_a":null,"nom_de":null,"slug_ville":"vezelise","departement_id":0,"code_postal":"54330","population":1346,"superficie_km2":"536.46","latitude_centre":"48.4838","longitude_centre":"6.0961","distance_km":4.43},{"id":0,"code_insee":"54218","nom_standard":"Gélaucourt","nom_a":null,"nom_de":null,"slug_ville":"gelaucourt","departement_id":0,"code_postal":"54115","population":49,"superficie_km2":"225.91","latitude_centre":"48.4606","longitude_centre":"5.9897","distance_km":4.69},{"id":0,"code_insee":"54497","nom_standard":"Saxon-Sion","nom_a":null,"nom_de":null,"slug_ville":"saxon-sion","departement_id":0,"code_postal":"54330","population":46,"superficie_km2":"626.25","latitude_centre":"48.4187","longitude_centre":"6.086","distance_km":4.82},{"id":0,"code_insee":"54434","nom_standard":"Praye","nom_a":null,"nom_de":null,"slug_ville":"praye","departement_id":0,"code_postal":"54116","population":267,"superficie_km2":"873.81","latitude_centre":"48.4356","longitude_centre":"6.1137","distance_km":5.03},{"id":0,"code_insee":"54247","nom_standard":"Hammeville","nom_a":null,"nom_de":null,"slug_ville":"hammeville","departement_id":0,"code_postal":"54330","population":195,"superficie_km2":"548.06","latitude_centre":"48.5003","longitude_centre":"6.075","distance_km":5.18},{"id":24485,"code_insee":"54052","nom_standard":"Battigny","nom_a":null,"nom_de":null,"slug_ville":"battigny","departement_id":0,"code_postal":"54115","population":139,"superficie_km2":"651.86","latitude_centre":"48.4428","longitude_centre":"5.984","distance_km":5.29},{"id":0,"code_insee":"54516","nom_standard":"They-sous-Vaudemont","nom_a":null,"nom_de":null,"slug_ville":"they-sous-vaudemont","departement_id":0,"code_postal":"54930","population":17,"superficie_km2":"166.63","latitude_centre":"48.4041","longitude_centre":"6.054","distance_km":5.78},{"id":0,"code_insee":"54235","nom_standard":"Goviller","nom_a":null,"nom_de":null,"slug_ville":"goviller","departement_id":0,"code_postal":"54330","population":418,"superficie_km2":"1226.62","latitude_centre":"48.5039","longitude_centre":"6.0164","distance_km":5.96},{"id":0,"code_insee":"54241","nom_standard":"Gugney","nom_a":null,"nom_de":null,"slug_ville":"gugney","departement_id":0,"code_postal":"54930","population":67,"superficie_km2":"292.93","latitude_centre":"48.3961","longitude_centre":"6.0571","distance_km":6.68},{"id":0,"code_insee":"54438","nom_standard":"Pulney","nom_a":null,"nom_de":null,"slug_ville":"pulney","departement_id":0,"code_postal":"54115","population":54,"superficie_km2":"443.18","latitude_centre":"48.3907","longitude_centre":"6.0332","distance_km":7.42}]}