{"ville":{"id":25400,"code_insee":"56056","nom_standard":"Évriguet","nom_a":null,"nom_de":null,"slug_ville":"evriguet","departement_id":0,"code_postal":"56490","population":210,"superficie_km2":"495.35","latitude_centre":"48.0824","longitude_centre":"-2.4039","dep_code":"56","dep_nom":"Morbihan","dep_slug":"morbihan","reg_code":"53","reg_nom":"Bretagne","reg_slug":"bretagne"},"departement":{"code":"56","nom":"Morbihan","slug":"morbihan"},"region":{"code":"53","nom":"Bretagne","slug":"bretagne"},"villes_proches":[{"id":25391,"code_insee":"56025","nom_standard":"Brignac","nom_a":null,"nom_de":null,"slug_ville":"brignac","departement_id":0,"code_postal":"56430","population":200,"superficie_km2":"1323.66","latitude_centre":"48.1129","longitude_centre":"-2.3932","distance_km":3.48},{"id":0,"code_insee":"56208","nom_standard":"Saint-Brieuc-de-Mauron","nom_a":null,"nom_de":null,"slug_ville":"saint-brieuc-de-mauron","departement_id":0,"code_postal":"56430","population":308,"superficie_km2":"1491.60","latitude_centre":"48.09","longitude_centre":"-2.3562","distance_km":3.64},{"id":0,"code_insee":"56080","nom_standard":"Guilliers","nom_a":null,"nom_de":null,"slug_ville":"guilliers","departement_id":0,"code_postal":"56490","population":1368,"superficie_km2":"3508.88","latitude_centre":"48.049","longitude_centre":"-2.4143","distance_km":3.79},{"id":0,"code_insee":"56129","nom_standard":"Ménéac","nom_a":null,"nom_de":null,"slug_ville":"meneac","departement_id":0,"code_postal":"56490","population":1476,"superficie_km2":"6867.65","latitude_centre":"48.1247","longitude_centre":"-2.4546","distance_km":6.02},{"id":0,"code_insee":"56127","nom_standard":"Mauron","nom_a":null,"nom_de":null,"slug_ville":"mauron","departement_id":0,"code_postal":"56430","population":3163,"superficie_km2":"6712.41","latitude_centre":"48.0839","longitude_centre":"-2.3094","distance_km":7.02},{"id":0,"code_insee":"56134","nom_standard":"Mohon","nom_a":null,"nom_de":null,"slug_ville":"mohon","departement_id":0,"code_postal":"56490","population":991,"superficie_km2":"3866.61","latitude_centre":"48.0643","longitude_centre":"-2.495","distance_km":7.06},{"id":15839,"code_insee":"22083","nom_standard":"Illifaut","nom_a":null,"nom_de":null,"slug_ville":"illifaut","departement_id":0,"code_postal":"22230","population":706,"superficie_km2":"2698.95","latitude_centre":"48.1418","longitude_centre":"-2.3297","distance_km":8.6},{"id":0,"code_insee":"56145","nom_standard":"Néant-sur-Yvel","nom_a":null,"nom_de":null,"slug_ville":"neant-sur-yvel","departement_id":0,"code_postal":"56430","population":1045,"superficie_km2":"3261.52","latitude_centre":"48.0208","longitude_centre":"-2.331","distance_km":8.73},{"id":0,"code_insee":"56257","nom_standard":"La Trinité-Porhoët","nom_a":null,"nom_de":null,"slug_ville":"la-trinite-porhoet","departement_id":0,"code_postal":"56490","population":663,"superficie_km2":"1268.32","latitude_centre":"48.0992","longitude_centre":"-2.524","distance_km":9.11},{"id":0,"code_insee":"56227","nom_standard":"Saint-Malo-des-Trois-Fontaines","nom_a":null,"nom_de":null,"slug_ville":"saint-malo-des-trois-fontaines","departement_id":0,"code_postal":"56490","population":545,"superficie_km2":"1615.90","latitude_centre":"48.0145","longitude_centre":"-2.4741","distance_km":9.18},{"id":0,"code_insee":"56122","nom_standard":"Loyat","nom_a":null,"nom_de":null,"slug_ville":"loyat","departement_id":0,"code_postal":"56800","population":1750,"superficie_km2":"4172.34","latitude_centre":"47.994","longitude_centre":"-2.3746","distance_km":10.07},{"id":0,"code_insee":"56225","nom_standard":"Saint-Léry","nom_a":null,"nom_de":null,"slug_ville":"saint-lery","departement_id":0,"code_postal":"56430","population":210,"superficie_km2":"162.61","latitude_centre":"48.0905","longitude_centre":"-2.2636","distance_km":10.46},{"id":0,"code_insee":"56068","nom_standard":"La Grée-Saint-Laurent","nom_a":null,"nom_de":null,"slug_ville":"la-gree-saint-laurent","departement_id":0,"code_postal":"56120","population":304,"superficie_km2":"793.12","latitude_centre":"48.0023","longitude_centre":"-2.5041","distance_km":11.61},{"id":0,"code_insee":"56256","nom_standard":"Tréhorenteuc","nom_a":null,"nom_de":null,"slug_ville":"trehorenteuc","departement_id":0,"code_postal":"56430","population":111,"superficie_km2":"543.10","latitude_centre":"48.0059","longitude_centre":"-2.2957","distance_km":11.71},{"id":0,"code_insee":"22147","nom_standard":"Merdrignac","nom_a":null,"nom_de":null,"slug_ville":"merdrignac","departement_id":0,"code_postal":"22230","population":3139,"superficie_km2":"6923.97","latitude_centre":"48.1961","longitude_centre":"-2.3946","distance_km":12.66},{"id":15828,"code_insee":"22062","nom_standard":"Gomené","nom_a":null,"nom_de":null,"slug_ville":"gomene","departement_id":0,"code_postal":"22230","population":560,"superficie_km2":"2561.23","latitude_centre":"48.1835","longitude_centre":"-2.4935","distance_km":13.06},{"id":0,"code_insee":"56249","nom_standard":"Taupont","nom_a":null,"nom_de":null,"slug_ville":"taupont","departement_id":0,"code_postal":"56800","population":2428,"superficie_km2":"3048.89","latitude_centre":"47.9605","longitude_centre":"-2.4416","distance_km":13.84},{"id":0,"code_insee":"56082","nom_standard":"Helléan","nom_a":null,"nom_de":null,"slug_ville":"hellean","departement_id":0,"code_postal":"56120","population":395,"superficie_km2":"793.60","latitude_centre":"47.9676","longitude_centre":"-2.4808","distance_km":13.99},{"id":0,"code_insee":"22371","nom_standard":"Trémorel","nom_a":null,"nom_de":null,"slug_ville":"tremorel","departement_id":0,"code_postal":"22230","population":1156,"superficie_km2":"3393.36","latitude_centre":"48.1891","longitude_centre":"-2.3007","distance_km":14.12},{"id":0,"code_insee":"56065","nom_standard":"Gourhel","nom_a":null,"nom_de":null,"slug_ville":"gourhel","departement_id":0,"code_postal":"56800","population":711,"superficie_km2":"282.69","latitude_centre":"47.9393","longitude_centre":"-2.3579","distance_km":16.28}]}