{"ville":{"id":5037,"code_insee":"53097","nom_standard":"Évron","nom_a":null,"nom_de":null,"slug_ville":"evron","departement_id":654,"code_postal":"53600","population":8508,"superficie_km2":"36.00","latitude_centre":"48.1520004","longitude_centre":"-0.3890000","dep_code":"53","dep_nom":"Mayenne","dep_slug":"mayenne","reg_code":"17","reg_nom":"Pays de la Loire","reg_slug":"pays-de-la-loire"},"departement":{"code":"53","nom":"Mayenne","slug":"mayenne"},"region":{"code":"17","nom":"Pays de la Loire","slug":"pays-de-la-loire"},"villes_proches":[{"id":5081,"code_insee":"53255","nom_standard":"Sainte-Suzanne-et-Chammes","nom_a":null,"nom_de":null,"slug_ville":"sainte-suzanne-et-chammes","departement_id":654,"code_postal":"53270","population":1224,"superficie_km2":"23.00","latitude_centre":"48.1030006","longitude_centre":"-0.3550000","distance_km":6},{"id":5021,"code_insee":"53016","nom_standard":"Bais","nom_a":null,"nom_de":null,"slug_ville":"bais","departement_id":654,"code_postal":"53160","population":1215,"superficie_km2":"26.00","latitude_centre":"48.2529984","longitude_centre":"-0.3570000","distance_km":11.48},{"id":5062,"code_insee":"53161","nom_standard":"Montsûrs","nom_a":null,"nom_de":null,"slug_ville":"montsurs","departement_id":654,"code_postal":"53150","population":3193,"superficie_km2":"11.00","latitude_centre":"48.1339989","longitude_centre":"-0.5520000","distance_km":12.26},{"id":5083,"code_insee":"53267","nom_standard":"Vaiges","nom_a":null,"nom_de":null,"slug_ville":"vaiges","departement_id":654,"code_postal":"53480","population":1166,"superficie_km2":"36.00","latitude_centre":"48.0509987","longitude_centre":"-0.4710000","distance_km":12.78},{"id":5082,"code_insee":"53262","nom_standard":"Soulgé-sur-Ouette","nom_a":null,"nom_de":null,"slug_ville":"soulge-sur-ouette","departement_id":654,"code_postal":"53210","population":1076,"superficie_km2":"23.00","latitude_centre":"48.0620003","longitude_centre":"-0.5580000","distance_km":16.05},{"id":5080,"code_insee":"53249","nom_standard":"Vimartin-sur-Orthe","nom_a":null,"nom_de":null,"slug_ville":"vimartin-sur-orthe","departement_id":654,"code_postal":"53160","population":1118,"superficie_km2":"32.00","latitude_centre":"48.2280006","longitude_centre":"-0.1930000","distance_km":16.81},{"id":5018,"code_insee":"53007","nom_standard":"Argentré","nom_a":null,"nom_de":null,"slug_ville":"argentre","departement_id":654,"code_postal":"53210","population":2873,"superficie_km2":"37.00","latitude_centre":"48.0909996","longitude_centre":"-0.6320000","distance_km":19.27},{"id":7620,"code_insee":"72334","nom_standard":"Sillé-le-Guillaume","nom_a":null,"nom_de":null,"slug_ville":"sille-le-guillaume","departement_id":673,"code_postal":"72140","population":2195,"superficie_km2":"13.00","latitude_centre":"48.1860008","longitude_centre":"-0.1330000","distance_km":19.36},{"id":5032,"code_insee":"53072","nom_standard":"Commer","nom_a":null,"nom_de":null,"slug_ville":"commer","departement_id":654,"code_postal":"53470","population":1287,"superficie_km2":"23.00","latitude_centre":"48.2350006","longitude_centre":"-0.6200000","distance_km":19.45},{"id":5023,"code_insee":"53025","nom_standard":"Bazougers","nom_a":null,"nom_de":null,"slug_ville":"bazougers","departement_id":654,"code_postal":"53170","population":1092,"superficie_km2":"32.00","latitude_centre":"48.0260010","longitude_centre":"-0.5930000","distance_km":20.64},{"id":5019,"code_insee":"53008","nom_standard":"Aron","nom_a":null,"nom_de":null,"slug_ville":"aron","departement_id":654,"code_postal":"53440","population":1832,"superficie_km2":"33.00","latitude_centre":"48.3040009","longitude_centre":"-0.5500000","distance_km":20.69},{"id":5055,"code_insee":"53146","nom_standard":"Martigné-sur-Mayenne","nom_a":null,"nom_de":null,"slug_ville":"martigne-sur-mayenne","departement_id":654,"code_postal":"53470","population":1893,"superficie_km2":"32.00","latitude_centre":"48.2029991","longitude_centre":"-0.6610000","distance_km":20.95},{"id":5054,"code_insee":"53141","nom_standard":"Louvigné","nom_a":null,"nom_de":null,"slug_ville":"louvigne","departement_id":654,"code_postal":"53210","population":1171,"superficie_km2":"13.00","latitude_centre":"48.0550003","longitude_centre":"-0.6350000","distance_km":21.21},{"id":5084,"code_insee":"53271","nom_standard":"Villaines-la-Juhel","nom_a":null,"nom_de":null,"slug_ville":"villaines-la-juhel","departement_id":654,"code_postal":"53700","population":2694,"superficie_km2":"29.00","latitude_centre":"48.3390007","longitude_centre":"-0.2920000","distance_km":22},{"id":7534,"code_insee":"72050","nom_standard":"Brûlon","nom_a":null,"nom_de":null,"slug_ville":"brulon","departement_id":673,"code_postal":"72350","population":1529,"superficie_km2":"16.00","latitude_centre":"47.9809990","longitude_centre":"-0.2300000","distance_km":22.39},{"id":7627,"code_insee":"72351","nom_standard":"Tennie","nom_a":null,"nom_de":null,"slug_ville":"tennie","departement_id":673,"code_postal":"72240","population":1034,"superficie_km2":"33.00","latitude_centre":"48.1100006","longitude_centre":"-0.0860000","distance_km":22.97},{"id":5056,"code_insee":"53147","nom_standard":"Mayenne","nom_a":null,"nom_de":null,"slug_ville":"mayenne","departement_id":654,"code_postal":"53100","population":12900,"superficie_km2":"20.00","latitude_centre":"48.3079987","longitude_centre":"-0.6150000","distance_km":24.11},{"id":5053,"code_insee":"53140","nom_standard":"Louverné","nom_a":null,"nom_de":null,"slug_ville":"louverne","departement_id":654,"code_postal":"53950","population":4355,"superficie_km2":"21.00","latitude_centre":"48.1259995","longitude_centre":"-0.7120000","distance_km":24.14},{"id":5070,"code_insee":"53200","nom_standard":"Saint-Baudelle","nom_a":null,"nom_de":null,"slug_ville":"saint-baudelle","departement_id":654,"code_postal":"53100","population":1170,"superficie_km2":"7.00","latitude_centre":"48.2869988","longitude_centre":"-0.6510000","distance_km":24.54},{"id":5025,"code_insee":"53034","nom_standard":"Bonchamp-lès-Laval","nom_a":null,"nom_de":null,"slug_ville":"bonchamp-les-laval","departement_id":654,"code_postal":"53960","population":6211,"superficie_km2":"28.00","latitude_centre":"48.0680008","longitude_centre":"-0.6980000","distance_km":24.77}]}