{"ville":{"id":11612,"code_insee":"07087","nom_standard":"Fabras","nom_a":null,"nom_de":null,"slug_ville":"fabras","departement_id":0,"code_postal":"07380","population":467,"superficie_km2":"758.46","latitude_centre":"44.6501","longitude_centre":"4.2807","dep_code":"07","dep_nom":"Ardèche","dep_slug":"ardeche","reg_code":"84","reg_nom":"Auvergne-Rhône-Alpes","reg_slug":"auvergne-rhone-alpes"},"departement":{"code":"07","nom":"Ardèche","slug":"ardeche"},"region":{"code":"84","nom":"Auvergne-Rhône-Alpes","slug":"auvergne-rhone-alpes"},"villes_proches":[{"id":0,"code_insee":"07178","nom_standard":"Pont-de-Labeaume","nom_a":null,"nom_de":null,"slug_ville":"pont-de-labeaume","departement_id":0,"code_postal":"07380","population":567,"superficie_km2":"481.39","latitude_centre":"44.6662","longitude_centre":"4.2961","distance_km":2.17},{"id":0,"code_insee":"07127","nom_standard":"Lalevade-d'Ardèche","nom_a":null,"nom_de":null,"slug_ville":"lalevade-d-ardeche","departement_id":0,"code_postal":"07380","population":1120,"superficie_km2":"227.93","latitude_centre":"44.6527","longitude_centre":"4.3161","distance_km":2.82},{"id":0,"code_insee":"07182","nom_standard":"Prades","nom_a":null,"nom_de":null,"slug_ville":"prades","departement_id":0,"code_postal":"07380","population":1195,"superficie_km2":"999.24","latitude_centre":"44.6334","longitude_centre":"4.3115","distance_km":3.06},{"id":0,"code_insee":"07223","nom_standard":"Saint-Cirgues-de-Prades","nom_a":null,"nom_de":null,"slug_ville":"saint-cirgues-de-prades","departement_id":0,"code_postal":"07380","population":142,"superficie_km2":"347.25","latitude_centre":"44.6214","longitude_centre":"4.2729","distance_km":3.25},{"id":0,"code_insee":"07156","nom_standard":"Meyras","nom_a":null,"nom_de":null,"slug_ville":"meyras","departement_id":0,"code_postal":"07380","population":889,"superficie_km2":"1243.88","latitude_centre":"44.6786","longitude_centre":"4.26","distance_km":3.57},{"id":0,"code_insee":"07107","nom_standard":"Jaujac","nom_a":null,"nom_de":null,"slug_ville":"jaujac","departement_id":0,"code_postal":"07380","population":1199,"superficie_km2":"2447.39","latitude_centre":"44.6278","longitude_centre":"4.2409","distance_km":4.01},{"id":11597,"code_insee":"07065","nom_standard":"Chirols","nom_a":null,"nom_de":null,"slug_ville":"chirols","departement_id":0,"code_postal":"07380","population":289,"superficie_km2":"692.11","latitude_centre":"44.6879","longitude_centre":"4.2917","distance_km":4.29},{"id":0,"code_insee":"07141","nom_standard":"Lentillères","nom_a":null,"nom_de":null,"slug_ville":"lentilleres","departement_id":0,"code_postal":"07200","population":236,"superficie_km2":"877.06","latitude_centre":"44.6071","longitude_centre":"4.2948","distance_km":4.91},{"id":0,"code_insee":"07331","nom_standard":"Vals-les-Bains","nom_a":null,"nom_de":null,"slug_ville":"vals-les-bains","departement_id":0,"code_postal":"07600","population":3474,"superficie_km2":"1948.15","latitude_centre":"44.666","longitude_centre":"4.3426","distance_km":5.21},{"id":0,"code_insee":"07322","nom_standard":"Thueyts","nom_a":null,"nom_de":null,"slug_ville":"thueyts","departement_id":0,"code_postal":"07330","population":1205,"superficie_km2":"2143.31","latitude_centre":"44.6727","longitude_centre":"4.2107","distance_km":6.08},{"id":0,"code_insee":"07116","nom_standard":"Labégude","nom_a":null,"nom_de":null,"slug_ville":"labegude","departement_id":0,"code_postal":"07200","population":1397,"superficie_km2":"319.10","latitude_centre":"44.6412","longitude_centre":"4.3571","distance_km":6.12},{"id":0,"code_insee":"07155","nom_standard":"Mercuer","nom_a":null,"nom_de":null,"slug_ville":"mercuer","departement_id":0,"code_postal":"07200","population":1325,"superficie_km2":"768.41","latitude_centre":"44.6242","longitude_centre":"4.3509","distance_km":6.26},{"id":11595,"code_insee":"07062","nom_standard":"Chazeaux","nom_a":null,"nom_de":null,"slug_ville":"chazeaux","departement_id":0,"code_postal":"07110","population":134,"superficie_km2":"467.99","latitude_centre":"44.5949","longitude_centre":"4.2974","distance_km":6.28},{"id":0,"code_insee":"07187","nom_standard":"Prunet","nom_a":null,"nom_de":null,"slug_ville":"prunet","departement_id":0,"code_postal":"07110","population":134,"superficie_km2":"890.30","latitude_centre":"44.5957","longitude_centre":"4.255","distance_km":6.38},{"id":0,"code_insee":"07111","nom_standard":"Juvinas","nom_a":null,"nom_de":null,"slug_ville":"juvinas","departement_id":0,"code_postal":"07600","population":187,"superficie_km2":"849.14","latitude_centre":"44.7048","longitude_centre":"4.307","distance_km":6.43},{"id":0,"code_insee":"07282","nom_standard":"Saint-Pierre-de-Colombier","nom_a":null,"nom_de":null,"slug_ville":"saint-pierre-de-colombier","departement_id":0,"code_postal":"07450","population":444,"superficie_km2":"947.10","latitude_centre":"44.7102","longitude_centre":"4.2651","distance_km":6.8},{"id":11553,"code_insee":"07002","nom_standard":"Ailhon","nom_a":null,"nom_de":null,"slug_ville":"ailhon","departement_id":0,"code_postal":"07200","population":553,"superficie_km2":"791.29","latitude_centre":"44.5992","longitude_centre":"4.3364","distance_km":7.17},{"id":0,"code_insee":"07193","nom_standard":"Rocher","nom_a":null,"nom_de":null,"slug_ville":"rocher","departement_id":0,"code_postal":"07110","population":306,"superficie_km2":"314.32","latitude_centre":"44.581","longitude_centre":"4.2779","distance_km":7.69},{"id":0,"code_insee":"07109","nom_standard":"Joannas","nom_a":null,"nom_de":null,"slug_ville":"joannas","departement_id":0,"code_postal":"07110","population":328,"superficie_km2":"1210.16","latitude_centre":"44.5737","longitude_centre":"4.2498","distance_km":8.84},{"id":0,"code_insee":"07058","nom_standard":"Chassiers","nom_a":null,"nom_de":null,"slug_ville":"chassiers","departement_id":0,"code_postal":"07110","population":989,"superficie_km2":"1241.22","latitude_centre":"44.5656","longitude_centre":"4.2936","distance_km":9.45}]}