{"ville":{"id":17492,"code_insee":"27231","nom_standard":"Fains","nom_a":null,"nom_de":null,"slug_ville":"fains","departement_id":0,"code_postal":"27120","population":409,"superficie_km2":"375.73","latitude_centre":"48.997","longitude_centre":"1.3862","dep_code":"27","dep_nom":"Eure","dep_slug":"eure","reg_code":"28","reg_nom":"Normandie","reg_slug":"normandie"},"departement":{"code":"27","nom":"Eure","slug":"eure"},"region":{"code":"28","nom":"Normandie","slug":"normandie"},"villes_proches":[{"id":0,"code_insee":"27273","nom_standard":"Gadencourt","nom_a":null,"nom_de":null,"slug_ville":"gadencourt","departement_id":0,"code_postal":"27120","population":364,"superficie_km2":"389.53","latitude_centre":"48.9855","longitude_centre":"1.4019","distance_km":1.72},{"id":0,"code_insee":"27465","nom_standard":"Le Plessis-Hébert","nom_a":null,"nom_de":null,"slug_ville":"le-plessis-hebert","departement_id":0,"code_postal":"27120","population":404,"superficie_km2":"1177.83","latitude_centre":"48.9817","longitude_centre":"1.3659","distance_km":2.26},{"id":0,"code_insee":"27448","nom_standard":"Pacy-sur-Eure","nom_a":null,"nom_de":null,"slug_ville":"pacy-sur-eure","departement_id":0,"code_postal":"27120","population":5027,"superficie_km2":"2198.19","latitude_centre":"49.019","longitude_centre":"1.3764","distance_km":2.55},{"id":17353,"code_insee":"27004","nom_standard":"Aigleville","nom_a":null,"nom_de":null,"slug_ville":"aigleville","departement_id":0,"code_postal":"27120","population":414,"superficie_km2":"326.93","latitude_centre":"49.0053","longitude_centre":"1.424","distance_km":2.91},{"id":0,"code_insee":"27326","nom_standard":"Hécourt","nom_a":null,"nom_de":null,"slug_ville":"hecourt","departement_id":0,"code_postal":"27120","population":325,"superficie_km2":"773.41","latitude_centre":"48.9877","longitude_centre":"1.4256","distance_km":3.06},{"id":0,"code_insee":"27400","nom_standard":"Merey","nom_a":null,"nom_de":null,"slug_ville":"merey","departement_id":0,"code_postal":"27640","population":347,"superficie_km2":"865.98","latitude_centre":"48.9588","longitude_centre":"1.3895","distance_km":4.25},{"id":17466,"code_insee":"27190","nom_standard":"Croisy-sur-Eure","nom_a":null,"nom_de":null,"slug_ville":"croisy-sur-eure","departement_id":0,"code_postal":"27120","population":222,"superficie_km2":"393.39","latitude_centre":"49.0265","longitude_centre":"1.3423","distance_km":4.58},{"id":0,"code_insee":"27397","nom_standard":"Ménilles","nom_a":null,"nom_de":null,"slug_ville":"menilles","departement_id":0,"code_postal":"27120","population":1708,"superficie_km2":"582.32","latitude_centre":"49.0383","longitude_centre":"1.371","distance_km":4.72},{"id":17432,"code_insee":"27136","nom_standard":"Chaignes","nom_a":null,"nom_de":null,"slug_ville":"chaignes","departement_id":0,"code_postal":"27120","population":270,"superficie_km2":"641.45","latitude_centre":"49.0114","longitude_centre":"1.4518","distance_km":5.05},{"id":17399,"code_insee":"27076","nom_standard":"Boisset-les-Prévanches","nom_a":null,"nom_de":null,"slug_ville":"boisset-les-prevanches","departement_id":0,"code_postal":"27120","population":476,"superficie_km2":"743.42","latitude_centre":"48.9672","longitude_centre":"1.3334","distance_km":5.08},{"id":17401,"code_insee":"27078","nom_standard":"La Boissière","nom_a":null,"nom_de":null,"slug_ville":"la-boissiere","departement_id":0,"code_postal":"27220","population":259,"superficie_km2":"343.83","latitude_centre":"48.9513","longitude_centre":"1.3686","distance_km":5.24},{"id":0,"code_insee":"27114","nom_standard":"Breuilpont","nom_a":null,"nom_de":null,"slug_ville":"breuilpont","departement_id":0,"code_postal":"27640","population":1201,"superficie_km2":"1229.60","latitude_centre":"48.9657","longitude_centre":"1.4398","distance_km":5.24},{"id":17423,"code_insee":"27123","nom_standard":"Caillouet-Orgeville","nom_a":null,"nom_de":null,"slug_ville":"caillouet-orgeville","departement_id":0,"code_postal":"27120","population":490,"superficie_km2":"787.88","latitude_centre":"49.0052","longitude_centre":"1.3152","distance_km":5.26},{"id":0,"code_insee":"27674","nom_standard":"Vaux-sur-Eure","nom_a":null,"nom_de":null,"slug_ville":"vaux-sur-eure","departement_id":0,"code_postal":"27120","population":272,"superficie_km2":"287.76","latitude_centre":"49.0357","longitude_centre":"1.335","distance_km":5.7},{"id":17473,"code_insee":"27203","nom_standard":"Douains","nom_a":null,"nom_de":null,"slug_ville":"douains","departement_id":0,"code_postal":"27120","population":450,"superficie_km2":"1132.30","latitude_centre":"49.0452","longitude_centre":"1.4289","distance_km":6.2},{"id":17417,"code_insee":"27111","nom_standard":"Bretagnolles","nom_a":null,"nom_de":null,"slug_ville":"bretagnolles","departement_id":0,"code_postal":"27220","population":203,"superficie_km2":"378.65","latitude_centre":"48.9467","longitude_centre":"1.3427","distance_km":6.43},{"id":17487,"code_insee":"27220","nom_standard":"Épieds","nom_a":null,"nom_de":null,"slug_ville":"epieds","departement_id":0,"code_postal":"27730","population":358,"superficie_km2":"483.04","latitude_centre":"48.9346","longitude_centre":"1.3967","distance_km":6.98},{"id":0,"code_insee":"27621","nom_standard":"Serez","nom_a":null,"nom_de":null,"slug_ville":"serez","departement_id":0,"code_postal":"27220","population":166,"superficie_km2":"631.04","latitude_centre":"48.9365","longitude_centre":"1.3575","distance_km":7.05},{"id":0,"code_insee":"27612","nom_standard":"Saint-Vincent-des-Bois","nom_a":null,"nom_de":null,"slug_ville":"saint-vincent-des-bois","departement_id":0,"code_postal":"27950","population":344,"superficie_km2":"533.16","latitude_centre":"49.0605","longitude_centre":"1.3955","distance_km":7.09},{"id":0,"code_insee":"27429","nom_standard":"Neuilly","nom_a":null,"nom_de":null,"slug_ville":"neuilly","departement_id":0,"code_postal":"27730","population":168,"superficie_km2":"468.52","latitude_centre":"48.9313","longitude_centre":"1.4153","distance_km":7.61}]}