{"ville":{"id":32949,"code_insee":"80301","nom_standard":"Famechon","nom_a":null,"nom_de":null,"slug_ville":"famechon","departement_id":0,"code_postal":"80290","population":270,"superficie_km2":"487.49","latitude_centre":"49.77","longitude_centre":"2.0312","dep_code":"80","dep_nom":"Somme","dep_slug":"somme","reg_code":"32","reg_nom":"Hauts-de-France","reg_slug":"hauts-de-france"},"departement":{"code":"80","nom":"Somme","slug":"somme"},"region":{"code":"32","nom":"Hauts-de-France","slug":"hauts-de-france"},"villes_proches":[{"id":32785,"code_insee":"80106","nom_standard":"Blangy-sous-Poix","nom_a":null,"nom_de":null,"slug_ville":"blangy-sous-poix","departement_id":0,"code_postal":"80290","population":161,"superficie_km2":"800.94","latitude_centre":"49.7676","longitude_centre":"2.0044","distance_km":1.94},{"id":0,"code_insee":"80577","nom_standard":"Moyencourt-lès-Poix","nom_a":null,"nom_de":null,"slug_ville":"moyencourt-les-poix","departement_id":0,"code_postal":"80290","population":165,"superficie_km2":"1046.92","latitude_centre":"49.7925","longitude_centre":"2.0427","distance_km":2.63},{"id":32765,"code_insee":"80083","nom_standard":"Bergicourt","nom_a":null,"nom_de":null,"slug_ville":"bergicourt","departement_id":0,"code_postal":"80290","population":145,"superficie_km2":"684.34","latitude_centre":"49.7433","longitude_centre":"2.0264","distance_km":2.99},{"id":0,"code_insee":"80352","nom_standard":"Frémontiers","nom_a":null,"nom_de":null,"slug_ville":"fremontiers","departement_id":0,"code_postal":"80160","population":166,"superficie_km2":"1276.15","latitude_centre":"49.7688","longitude_centre":"2.0815","distance_km":3.61},{"id":32883,"code_insee":"80218","nom_standard":"Courcelles-sous-Moyencourt","nom_a":null,"nom_de":null,"slug_ville":"courcelles-sous-moyencourt","departement_id":0,"code_postal":"80290","population":164,"superficie_km2":"681.49","latitude_centre":"49.808","longitude_centre":"2.0392","distance_km":4.26},{"id":32811,"code_insee":"80134","nom_standard":"Brassy","nom_a":null,"nom_de":null,"slug_ville":"brassy","departement_id":0,"code_postal":"80160","population":82,"superficie_km2":"241.76","latitude_centre":"49.7329","longitude_centre":"2.051","distance_km":4.36},{"id":32891,"code_insee":"80227","nom_standard":"Croixrault","nom_a":null,"nom_de":null,"slug_ville":"croixrault","departement_id":0,"code_postal":"80290","population":460,"superficie_km2":"891.94","latitude_centre":"49.7957","longitude_centre":"1.9846","distance_km":4.4},{"id":0,"code_insee":"80630","nom_standard":"Poix-de-Picardie","nom_a":null,"nom_de":null,"slug_ville":"poix-de-picardie","departement_id":0,"code_postal":"80290","population":2282,"superficie_km2":"1166.76","latitude_centre":"49.7474","longitude_centre":"1.9781","distance_km":4.57},{"id":32877,"code_insee":"80210","nom_standard":"Contre","nom_a":null,"nom_de":null,"slug_ville":"contre","departement_id":0,"code_postal":"80160","population":149,"superficie_km2":"977.01","latitude_centre":"49.7486","longitude_centre":"2.087","distance_km":4.66},{"id":0,"code_insee":"80402","nom_standard":"Guizancourt","nom_a":null,"nom_de":null,"slug_ville":"guizancourt","departement_id":0,"code_postal":"80290","population":113,"superficie_km2":"593.62","latitude_centre":"49.7337","longitude_centre":"1.9964","distance_km":4.75},{"id":0,"code_insee":"80786","nom_standard":"Velennes","nom_a":null,"nom_de":null,"slug_ville":"velennes","departement_id":0,"code_postal":"80160","population":141,"superficie_km2":"396.72","latitude_centre":"49.7671","longitude_centre":"2.0973","distance_km":4.76},{"id":32833,"code_insee":"80157","nom_standard":"Bussy-lès-Poix","nom_a":null,"nom_de":null,"slug_ville":"bussy-les-poix","departement_id":0,"code_postal":"80290","population":90,"superficie_km2":"440.58","latitude_centre":"49.8158","longitude_centre":"2.012","distance_km":5.28},{"id":0,"code_insee":"80734","nom_standard":"Sentelie","nom_a":null,"nom_de":null,"slug_ville":"sentelie","departement_id":0,"code_postal":"80160","population":217,"superficie_km2":"553.15","latitude_centre":"49.7219","longitude_centre":"2.0247","distance_km":5.37},{"id":0,"code_insee":"80455","nom_standard":"Lachapelle","nom_a":null,"nom_de":null,"slug_ville":"lachapelle","departement_id":0,"code_postal":"80290","population":87,"superficie_km2":"252.62","latitude_centre":"49.7603","longitude_centre":"1.9577","distance_km":5.39},{"id":0,"code_insee":"80656","nom_standard":"Quevauvillers","nom_a":null,"nom_de":null,"slug_ville":"quevauvillers","departement_id":0,"code_postal":"80710","population":1102,"superficie_km2":"885.42","latitude_centre":"49.8131","longitude_centre":"2.0762","distance_km":5.78},{"id":0,"code_insee":"80365","nom_standard":"Fricamps","nom_a":null,"nom_de":null,"slug_ville":"fricamps","departement_id":0,"code_postal":"80290","population":177,"superficie_km2":"562.80","latitude_centre":"49.8187","longitude_centre":"1.9912","distance_km":6.13},{"id":32884,"code_insee":"80219","nom_standard":"Courcelles-sous-Thoix","nom_a":null,"nom_de":null,"slug_ville":"courcelles-sous-thoix","departement_id":0,"code_postal":"80160","population":65,"superficie_km2":"437.14","latitude_centre":"49.7201","longitude_centre":"2.0721","distance_km":6.28},{"id":0,"code_insee":"80357","nom_standard":"Fresnoy-au-Val","nom_a":null,"nom_de":null,"slug_ville":"fresnoy-au-val","departement_id":0,"code_postal":"80290","population":223,"superficie_km2":"812.29","latitude_centre":"49.8389","longitude_centre":"2.0519","distance_km":7.8},{"id":0,"code_insee":"80757","nom_standard":"Thoix","nom_a":null,"nom_de":null,"slug_ville":"thoix","departement_id":0,"code_postal":"80160","population":147,"superficie_km2":"1115.81","latitude_centre":"49.7017","longitude_centre":"2.0598","distance_km":7.87},{"id":26927,"code_insee":"60472","nom_standard":"Offoy","nom_a":null,"nom_de":null,"slug_ville":"offoy","departement_id":0,"code_postal":"60210","population":109,"superficie_km2":"421.34","latitude_centre":"49.6985","longitude_centre":"2.0433","distance_km":8.0}]}