{"ville":{"id":17494,"code_insee":"27233","nom_standard":"Fatouville-Grestain","nom_a":null,"nom_de":null,"slug_ville":"fatouville-grestain","departement_id":0,"code_postal":"27210","population":701,"superficie_km2":"1031.47","latitude_centre":"49.4108","longitude_centre":"0.3317","dep_code":"27","dep_nom":"Eure","dep_slug":"eure","reg_code":"28","reg_nom":"Normandie","reg_slug":"normandie"},"departement":{"code":"27","nom":"Eure","slug":"eure"},"region":{"code":"28","nom":"Normandie","slug":"normandie"},"villes_proches":[{"id":0,"code_insee":"27243","nom_standard":"Fiquefleur-Équainville","nom_a":null,"nom_de":null,"slug_ville":"fiquefleur-equainville","departement_id":0,"code_postal":"27210","population":736,"superficie_km2":"971.45","latitude_centre":"49.4027","longitude_centre":"0.3216","distance_km":1.16},{"id":17391,"code_insee":"27064","nom_standard":"Berville-sur-Mer","nom_a":null,"nom_de":null,"slug_ville":"berville-sur-mer","departement_id":0,"code_postal":"27210","population":664,"superficie_km2":"698.41","latitude_centre":"49.4294","longitude_centre":"0.3577","distance_km":2.8},{"id":0,"code_insee":"27597","nom_standard":"Saint-Pierre-du-Val","nom_a":null,"nom_de":null,"slug_ville":"saint-pierre-du-val","departement_id":0,"code_postal":"27210","population":600,"superficie_km2":"1221.55","latitude_centre":"49.3941","longitude_centre":"0.3657","distance_km":3.08},{"id":0,"code_insee":"14001","nom_standard":"Ablon","nom_a":null,"nom_de":null,"slug_ville":"ablon","departement_id":0,"code_postal":"14600","population":1166,"superficie_km2":"1212.31","latitude_centre":"49.4007","longitude_centre":"0.2806","distance_km":3.86},{"id":0,"code_insee":"27384","nom_standard":"Manneville-la-Raoult","nom_a":null,"nom_de":null,"slug_ville":"manneville-la-raoult","departement_id":0,"code_postal":"27210","population":474,"superficie_km2":"737.53","latitude_centre":"49.3728","longitude_centre":"0.3308","distance_km":4.23},{"id":0,"code_insee":"27169","nom_standard":"Conteville","nom_a":null,"nom_de":null,"slug_ville":"conteville","departement_id":0,"code_postal":"27210","population":1038,"superficie_km2":"1073.99","latitude_centre":"49.4151","longitude_centre":"0.3921","distance_km":4.4},{"id":0,"code_insee":"14536","nom_standard":"La Rivière-Saint-Sauveur","nom_a":null,"nom_de":null,"slug_ville":"la-riviere-saint-sauveur","departement_id":0,"code_postal":"14600","population":2527,"superficie_km2":"539.36","latitude_centre":"49.4086","longitude_centre":"0.2641","distance_km":4.9},{"id":0,"code_insee":"27100","nom_standard":"Boulleville","nom_a":null,"nom_de":null,"slug_ville":"boulleville","departement_id":0,"code_postal":"27210","population":1236,"superficie_km2":"716.36","latitude_centre":"49.3707","longitude_centre":"0.3935","distance_km":6.32},{"id":0,"code_insee":"27601","nom_standard":"Saint-Samson-de-la-Roque","nom_a":null,"nom_de":null,"slug_ville":"saint-samson-de-la-roque","departement_id":0,"code_postal":"27680","population":436,"superficie_km2":"1769.65","latitude_centre":"49.4227","longitude_centre":"0.4239","distance_km":6.8},{"id":0,"code_insee":"27260","nom_standard":"Foulbec","nom_a":null,"nom_de":null,"slug_ville":"foulbec","departement_id":0,"code_postal":"27210","population":642,"superficie_km2":"1189.17","latitude_centre":"49.3968","longitude_centre":"0.4272","distance_km":7.08},{"id":13640,"code_insee":"14299","nom_standard":"Genneville","nom_a":null,"nom_de":null,"slug_ville":"genneville","departement_id":0,"code_postal":"14600","population":806,"superficie_km2":"949.06","latitude_centre":"49.3568","longitude_centre":"0.2762","distance_km":7.22},{"id":0,"code_insee":"76657","nom_standard":"Saint-Vigor-d'Ymonville","nom_a":null,"nom_de":null,"slug_ville":"saint-vigor-d-ymonville","departement_id":0,"code_postal":"76430","population":1153,"superficie_km2":"3151.04","latitude_centre":"49.4761","longitude_centre":"0.3469","distance_km":7.34},{"id":13643,"code_insee":"14304","nom_standard":"Gonneville-sur-Honfleur","nom_a":null,"nom_de":null,"slug_ville":"gonneville-sur-honfleur","departement_id":0,"code_postal":"14600","population":859,"superficie_km2":"825.64","latitude_centre":"49.3829","longitude_centre":"0.2392","distance_km":7.38},{"id":0,"code_insee":"76660","nom_standard":"Sandouville","nom_a":null,"nom_de":null,"slug_ville":"sandouville","departement_id":0,"code_postal":"76430","population":799,"superficie_km2":"1531.19","latitude_centre":"49.4756","longitude_centre":"0.3039","distance_km":7.48},{"id":13757,"code_insee":"14528","nom_standard":"Quetteville","nom_a":null,"nom_de":null,"slug_ville":"quetteville","departement_id":0,"code_postal":"14130","population":397,"superficie_km2":"1032.11","latitude_centre":"49.3449","longitude_centre":"0.3006","distance_km":7.67},{"id":0,"code_insee":"27561","nom_standard":"Saint-Maclou","nom_a":null,"nom_de":null,"slug_ville":"saint-maclou","departement_id":0,"code_postal":"27210","population":680,"superficie_km2":"557.00","latitude_centre":"49.3648","longitude_centre":"0.4115","distance_km":7.72},{"id":0,"code_insee":"27065","nom_standard":"Beuzeville","nom_a":null,"nom_de":null,"slug_ville":"beuzeville","departement_id":0,"code_postal":"27210","population":4704,"superficie_km2":"2330.41","latitude_centre":"49.3407","longitude_centre":"0.3387","distance_km":7.81},{"id":0,"code_insee":"76489","nom_standard":"Oudalle","nom_a":null,"nom_de":null,"slug_ville":"oudalle","departement_id":0,"code_postal":"76430","population":520,"superficie_km2":"985.83","latitude_centre":"49.4864","longitude_centre":"0.2832","distance_km":9.11},{"id":0,"code_insee":"76533","nom_standard":"Rogerville","nom_a":null,"nom_de":null,"slug_ville":"rogerville","departement_id":0,"code_postal":"76700","population":1734,"superficie_km2":"971.15","latitude_centre":"49.4836","longitude_centre":"0.2642","distance_km":9.45},{"id":0,"code_insee":"27646","nom_standard":"Le Torpt","nom_a":null,"nom_de":null,"slug_ville":"le-torpt","departement_id":0,"code_postal":"27210","population":469,"superficie_km2":"661.79","latitude_centre":"49.3328","longitude_centre":"0.3846","distance_km":9.48}]}