{"ville":{"id":18328,"code_insee":"2B110","nom_standard":"Favalello","nom_a":null,"nom_de":null,"slug_ville":"favalello","departement_id":0,"code_postal":"20212","population":71,"superficie_km2":"553.71","latitude_centre":"42.2886","longitude_centre":"9.2519","dep_code":"2B","dep_nom":"Haute-Corse","dep_slug":"haute-corse","reg_code":"94","reg_nom":"Corse","reg_slug":"corse"},"departement":{"code":"2B","nom":"Haute-Corse","slug":"haute-corse"},"region":{"code":"94","nom":"Corse","slug":"corse"},"villes_proches":[{"id":0,"code_insee":"2B292","nom_standard":"Sant'Andréa-di-Bozio","nom_a":null,"nom_de":null,"slug_ville":"sant-andrea-di-bozio","departement_id":0,"code_postal":"20212","population":55,"superficie_km2":"2404.50","latitude_centre":"42.2767","longitude_centre":"9.2792","distance_km":2.61},{"id":18310,"code_insee":"2B078","nom_standard":"Castellare-di-Mercurio","nom_a":null,"nom_de":null,"slug_ville":"castellare-di-mercurio","departement_id":0,"code_postal":"20212","population":31,"superficie_km2":"612.17","latitude_centre":"42.3121","longitude_centre":"9.2439","distance_km":2.69},{"id":0,"code_insee":"2B275","nom_standard":"Sermano","nom_a":null,"nom_de":null,"slug_ville":"sermano","departement_id":0,"code_postal":"20212","population":72,"superficie_km2":"763.75","latitude_centre":"42.3155","longitude_centre":"9.2637","distance_km":3.14},{"id":18275,"code_insee":"2B005","nom_standard":"Alando","nom_a":null,"nom_de":null,"slug_ville":"alando","departement_id":0,"code_postal":"20212","population":30,"superficie_km2":"306.14","latitude_centre":"42.3083","longitude_centre":"9.2899","distance_km":3.82},{"id":0,"code_insee":"2B306","nom_standard":"Santa-Lucia-di-Mercurio","nom_a":null,"nom_de":null,"slug_ville":"santa-lucia-di-mercurio","departement_id":0,"code_postal":"20250","population":115,"superficie_km2":"2380.16","latitude_centre":"42.3186","longitude_centre":"9.2217","distance_km":4.16},{"id":18324,"code_insee":"2B105","nom_standard":"Erbajolo","nom_a":null,"nom_de":null,"slug_ville":"erbajolo","departement_id":0,"code_postal":"20212","population":90,"superficie_km2":"1559.90","latitude_centre":"42.252","longitude_centre":"9.2642","distance_km":4.19},{"id":0,"code_insee":"2B238","nom_standard":"Poggio-di-Venaco","nom_a":null,"nom_de":null,"slug_ville":"poggio-di-venaco","departement_id":0,"code_postal":"20250","population":211,"superficie_km2":"1331.20","latitude_centre":"42.269","longitude_centre":"9.2048","distance_km":4.45},{"id":0,"code_insee":"2B116","nom_standard":"Focicchia","nom_a":null,"nom_de":null,"slug_ville":"focicchia","departement_id":0,"code_postal":"20212","population":36,"superficie_km2":"723.34","latitude_centre":"42.2472","longitude_centre":"9.2856","distance_km":5.37},{"id":0,"code_insee":"2B260","nom_standard":"Riventosa","nom_a":null,"nom_de":null,"slug_ville":"riventosa","departement_id":0,"code_postal":"20250","population":145,"superficie_km2":"590.02","latitude_centre":"42.2484","longitude_centre":"9.2061","distance_km":5.85},{"id":18279,"code_insee":"2B013","nom_standard":"Alzi","nom_a":null,"nom_de":null,"slug_ville":"alzi","departement_id":0,"code_postal":"20212","population":27,"superficie_km2":"269.70","latitude_centre":"42.3133","longitude_centre":"9.3175","distance_km":6.05},{"id":0,"code_insee":"2B157","nom_standard":"Mazzola","nom_a":null,"nom_de":null,"slug_ville":"mazzola","departement_id":0,"code_postal":"20212","population":22,"superficie_km2":"656.73","latitude_centre":"42.306","longitude_centre":"9.3251","distance_km":6.32},{"id":18290,"code_insee":"2B045","nom_standard":"Bustanico","nom_a":null,"nom_de":null,"slug_ville":"bustanico","departement_id":0,"code_postal":"20212","population":65,"superficie_km2":"1156.27","latitude_centre":"42.326","longitude_centre":"9.3112","distance_km":6.41},{"id":0,"code_insee":"2B264","nom_standard":"Rusio","nom_a":null,"nom_de":null,"slug_ville":"rusio","departement_id":0,"code_postal":"20244","population":65,"superficie_km2":"861.58","latitude_centre":"42.3501","longitude_centre":"9.2572","distance_km":6.85},{"id":0,"code_insee":"2B329","nom_standard":"Tralonca","nom_a":null,"nom_de":null,"slug_ville":"tralonca","departement_id":0,"code_postal":"20250","population":118,"superficie_km2":"1566.48","latitude_centre":"42.3389","longitude_centre":"9.1956","distance_km":7.26},{"id":0,"code_insee":"2B315","nom_standard":"Santo-Pietro-di-Venaco","nom_a":null,"nom_de":null,"slug_ville":"santo-pietro-di-venaco","departement_id":0,"code_postal":"20250","population":305,"superficie_km2":"788.61","latitude_centre":"42.2472","longitude_centre":"9.1764","distance_km":7.73},{"id":0,"code_insee":"2B364","nom_standard":"Zuani","nom_a":null,"nom_de":null,"slug_ville":"zuani","departement_id":0,"code_postal":"20272","population":37,"superficie_km2":"517.92","latitude_centre":"42.2651","longitude_centre":"9.342","distance_km":7.86},{"id":18278,"code_insee":"2B012","nom_standard":"Altiani","nom_a":null,"nom_de":null,"slug_ville":"altiani","departement_id":0,"code_postal":"20251","population":53,"superficie_km2":"1848.11","latitude_centre":"42.2198","longitude_centre":"9.2766","distance_km":7.92},{"id":18303,"code_insee":"2B068","nom_standard":"Carticasi","nom_a":null,"nom_de":null,"slug_ville":"carticasi","departement_id":0,"code_postal":"20244","population":25,"superficie_km2":"1312.70","latitude_centre":"42.3485","longitude_centre":"9.3052","distance_km":7.97},{"id":18325,"code_insee":"2B106","nom_standard":"Érone","nom_a":null,"nom_de":null,"slug_ville":"erone","departement_id":0,"code_postal":"20244","population":9,"superficie_km2":"396.67","latitude_centre":"42.3755","longitude_centre":"9.2665","distance_km":9.74},{"id":0,"code_insee":"2B137","nom_standard":"Lano","nom_a":null,"nom_de":null,"slug_ville":"lano","departement_id":0,"code_postal":"20244","population":21,"superficie_km2":"824.66","latitude_centre":"42.3753","longitude_centre":"9.2298","distance_km":9.81}]}