{"ville":{"id":5277,"code_insee":"56058","nom_standard":"Férel","nom_a":null,"nom_de":null,"slug_ville":"ferel","departement_id":657,"code_postal":"56130","population":3404,"superficie_km2":"30.00","latitude_centre":"47.4869995","longitude_centre":"-2.3399999","dep_code":"56","dep_nom":"Morbihan","dep_slug":"morbihan","reg_code":"03","reg_nom":"Bretagne","reg_slug":"bretagne"},"departement":{"code":"56","nom":"Morbihan","slug":"morbihan"},"region":{"code":"03","nom":"Bretagne","slug":"bretagne"},"villes_proches":[{"id":5260,"code_insee":"56030","nom_standard":"Camoël","nom_a":null,"nom_de":null,"slug_ville":"camoel","departement_id":657,"code_postal":"56130","population":1122,"superficie_km2":"15.00","latitude_centre":"47.4790001","longitude_centre":"-2.3989999","distance_km":4.52},{"id":4325,"code_insee":"44072","nom_standard":"Herbignac","nom_a":null,"nom_de":null,"slug_ville":"herbignac","departement_id":645,"code_postal":"44410","population":7133,"superficie_km2":"71.00","latitude_centre":"47.4469986","longitude_centre":"-2.3130000","distance_km":4.89},{"id":5239,"code_insee":"56004","nom_standard":"Arzal","nom_a":null,"nom_de":null,"slug_ville":"arzal","departement_id":657,"code_postal":"56190","population":1742,"superficie_km2":"25.00","latitude_centre":"47.5200005","longitude_centre":"-2.4050000","distance_km":6.11},{"id":5319,"code_insee":"56126","nom_standard":"Marzan","nom_a":null,"nom_de":null,"slug_ville":"marzan","departement_id":657,"code_postal":"56130","population":2539,"superficie_km2":"34.00","latitude_centre":"47.5419998","longitude_centre":"-2.3540001","distance_km":6.21},{"id":4270,"code_insee":"44006","nom_standard":"Assérac","nom_a":null,"nom_de":null,"slug_ville":"asserac","departement_id":645,"code_postal":"44410","population":1880,"superficie_km2":"34.00","latitude_centre":"47.4379997","longitude_centre":"-2.4130001","distance_km":7.73},{"id":4291,"code_insee":"44030","nom_standard":"La Chapelle-des-Marais","nom_a":null,"nom_de":null,"slug_ville":"la-chapelle-des-marais","departement_id":645,"code_postal":"44410","population":4386,"superficie_km2":"18.00","latitude_centre":"47.4370003","longitude_centre":"-2.2460001","distance_km":8.99},{"id":5335,"code_insee":"56147","nom_standard":"Nivillac","nom_a":null,"nom_de":null,"slug_ville":"nivillac","departement_id":657,"code_postal":"56130","population":4810,"superficie_km2":"56.00","latitude_centre":"47.5410004","longitude_centre":"-2.2490001","distance_km":9.1},{"id":5342,"code_insee":"56155","nom_standard":"Pénestin","nom_a":null,"nom_de":null,"slug_ville":"penestin","departement_id":657,"code_postal":"56760","population":2028,"superficie_km2":"21.00","latitude_centre":"47.4729996","longitude_centre":"-2.4649999","distance_km":9.52},{"id":5340,"code_insee":"56153","nom_standard":"Péaule","nom_a":null,"nom_de":null,"slug_ville":"peaule","departement_id":657,"code_postal":"56130","population":2782,"superficie_km2":"39.00","latitude_centre":"47.5830002","longitude_centre":"-2.3360000","distance_km":10.68},{"id":5252,"code_insee":"56018","nom_standard":"Billiers","nom_a":null,"nom_de":null,"slug_ville":"billiers","departement_id":657,"code_postal":"56190","population":1047,"superficie_km2":"6.00","latitude_centre":"47.5239983","longitude_centre":"-2.4800000","distance_km":11.29},{"id":4413,"code_insee":"44175","nom_standard":"Saint-Lyphard","nom_a":null,"nom_de":null,"slug_ville":"saint-lyphard","departement_id":645,"code_postal":"44410","population":5104,"superficie_km2":"24.00","latitude_centre":"47.3779984","longitude_centre":"-2.3350000","distance_km":12.13},{"id":4346,"code_insee":"44098","nom_standard":"Missillac","nom_a":null,"nom_de":null,"slug_ville":"missillac","departement_id":645,"code_postal":"44780","population":5529,"superficie_km2":"60.00","latitude_centre":"47.4879990","longitude_centre":"-2.1780000","distance_km":12.17},{"id":4419,"code_insee":"44183","nom_standard":"Saint-Molf","nom_a":null,"nom_de":null,"slug_ville":"saint-molf","departement_id":645,"code_postal":"44350","population":2848,"superficie_km2":"23.00","latitude_centre":"47.3880005","longitude_centre":"-2.4150000","distance_km":12.37},{"id":5331,"code_insee":"56143","nom_standard":"Muzillac","nom_a":null,"nom_de":null,"slug_ville":"muzillac","departement_id":657,"code_postal":"56190","population":5041,"superficie_km2":"38.00","latitude_centre":"47.5550003","longitude_centre":"-2.4730001","distance_km":12.53},{"id":4425,"code_insee":"44189","nom_standard":"Sainte-Reine-de-Bretagne","nom_a":null,"nom_de":null,"slug_ville":"sainte-reine-de-bretagne","departement_id":645,"code_postal":"44160","population":2414,"superficie_km2":"20.00","latitude_centre":"47.4440002","longitude_centre":"-2.1810000","distance_km":12.87},{"id":4345,"code_insee":"44097","nom_standard":"Mesquer","nom_a":null,"nom_de":null,"slug_ville":"mesquer","departement_id":645,"code_postal":"44420","population":2112,"superficie_km2":"17.00","latitude_centre":"47.3959999","longitude_centre":"-2.4710000","distance_km":14.12},{"id":5381,"code_insee":"56212","nom_standard":"Saint-Dolay","nom_a":null,"nom_de":null,"slug_ville":"saint-dolay","departement_id":657,"code_postal":"56130","population":2603,"superficie_km2":"49.00","latitude_centre":"47.5480003","longitude_centre":"-2.1719999","distance_km":14.32},{"id":4407,"code_insee":"44168","nom_standard":"Saint-Joachim","nom_a":null,"nom_de":null,"slug_ville":"saint-joachim","departement_id":645,"code_postal":"44720","population":4139,"superficie_km2":"86.00","latitude_centre":"47.3720017","longitude_centre":"-2.2430000","distance_km":14.72},{"id":5246,"code_insee":"56011","nom_standard":"Béganne","nom_a":null,"nom_de":null,"slug_ville":"beganne","departement_id":657,"code_postal":"56350","population":1423,"superficie_km2":"35.00","latitude_centre":"47.6030006","longitude_centre":"-2.2440000","distance_km":14.77},{"id":5337,"code_insee":"56149","nom_standard":"Noyal-Muzillac","nom_a":null,"nom_de":null,"slug_ville":"noyal-muzillac","departement_id":657,"code_postal":"56190","population":2516,"superficie_km2":"49.00","latitude_centre":"47.5999985","longitude_centre":"-2.4600000","distance_km":15.46}]}