{"ville":{"id":17500,"code_insee":"27241","nom_standard":"Feuguerolles","nom_a":null,"nom_de":null,"slug_ville":"feuguerolles","departement_id":0,"code_postal":"27110","population":167,"superficie_km2":"819.30","latitude_centre":"49.1322","longitude_centre":"1.0323","dep_code":"27","dep_nom":"Eure","dep_slug":"eure","reg_code":"28","reg_nom":"Normandie","reg_slug":"normandie"},"departement":{"code":"27","nom":"Eure","slug":"eure"},"region":{"code":"28","nom":"Normandie","slug":"normandie"},"villes_proches":[{"id":17386,"code_insee":"27055","nom_standard":"Bérengeville-la-Campagne","nom_a":null,"nom_de":null,"slug_ville":"berengeville-la-campagne","departement_id":0,"code_postal":"27110","population":331,"superficie_km2":"937.41","latitude_centre":"49.1159","longitude_centre":"1.0587","distance_km":2.64},{"id":17481,"code_insee":"27212","nom_standard":"Écauville","nom_a":null,"nom_de":null,"slug_ville":"ecauville","departement_id":0,"code_postal":"27110","population":116,"superficie_km2":"332.41","latitude_centre":"49.1286","longitude_centre":"0.9949","distance_km":2.75},{"id":0,"code_insee":"27692","nom_standard":"Villettes","nom_a":null,"nom_de":null,"slug_ville":"villettes","departement_id":0,"code_postal":"27110","population":169,"superficie_km2":"684.56","latitude_centre":"49.1557","longitude_centre":"1.0464","distance_km":2.81},{"id":0,"code_insee":"27486","nom_standard":"Quittebeuf","nom_a":null,"nom_de":null,"slug_ville":"quittebeuf","departement_id":0,"code_postal":"27110","population":656,"superficie_km2":"1352.00","latitude_centre":"49.1062","longitude_centre":"1.0027","distance_km":3.61},{"id":0,"code_insee":"27511","nom_standard":"Saint-Aubin-d'Écrosville","nom_a":null,"nom_de":null,"slug_ville":"saint-aubin-d-ecrosville","departement_id":0,"code_postal":"27110","population":759,"superficie_km2":"1471.21","latitude_centre":"49.1443","longitude_centre":"0.9853","distance_km":3.67},{"id":17483,"code_insee":"27215","nom_standard":"Ecquetot","nom_a":null,"nom_de":null,"slug_ville":"ecquetot","departement_id":0,"code_postal":"27110","population":388,"superficie_km2":"558.54","latitude_centre":"49.1706","longitude_centre":"1.0143","distance_km":4.47},{"id":0,"code_insee":"27342","nom_standard":"Houetteville","nom_a":null,"nom_de":null,"slug_ville":"houetteville","departement_id":0,"code_postal":"27400","population":193,"superficie_km2":"682.95","latitude_centre":"49.1286","longitude_centre":"1.0948","distance_km":4.57},{"id":17368,"code_insee":"27033","nom_standard":"Bacquepuis","nom_a":null,"nom_de":null,"slug_ville":"bacquepuis","departement_id":0,"code_postal":"27930","population":307,"superficie_km2":"510.99","latitude_centre":"49.0906","longitude_centre":"1.0457","distance_km":4.73},{"id":0,"code_insee":"27677","nom_standard":"Venon","nom_a":null,"nom_de":null,"slug_ville":"venon","departement_id":0,"code_postal":"27110","population":389,"superficie_km2":"517.83","latitude_centre":"49.1738","longitude_centre":"1.0514","distance_km":4.83},{"id":17426,"code_insee":"27127","nom_standard":"Canappeville","nom_a":null,"nom_de":null,"slug_ville":"canappeville","departement_id":0,"code_postal":"27400","population":697,"superficie_km2":"1044.25","latitude_centre":"49.1546","longitude_centre":"1.0959","distance_km":5.25},{"id":0,"code_insee":"27389","nom_standard":"Marbeuf","nom_a":null,"nom_de":null,"slug_ville":"marbeuf","departement_id":0,"code_postal":"27110","population":491,"superficie_km2":"852.40","latitude_centre":"49.1538","longitude_centre":"0.9623","distance_km":5.63},{"id":0,"code_insee":"27298","nom_standard":"Graveron-Sémerville","nom_a":null,"nom_de":null,"slug_ville":"graveron-semerville","departement_id":0,"code_postal":"27110","population":322,"superficie_km2":"805.86","latitude_centre":"49.0975","longitude_centre":"0.9692","distance_km":6.0},{"id":17471,"code_insee":"27201","nom_standard":"Daubeuf-la-Campagne","nom_a":null,"nom_de":null,"slug_ville":"daubeuf-la-campagne","departement_id":0,"code_postal":"27110","population":245,"superficie_km2":"645.47","latitude_centre":"49.1881","longitude_centre":"1.0304","distance_km":6.22},{"id":0,"code_insee":"27504","nom_standard":"Sacquenville","nom_a":null,"nom_de":null,"slug_ville":"sacquenville","departement_id":0,"code_postal":"27930","population":1205,"superficie_km2":"993.25","latitude_centre":"49.0817","longitude_centre":"1.0727","distance_km":6.34},{"id":17387,"code_insee":"27057","nom_standard":"Bernienville","nom_a":null,"nom_de":null,"slug_ville":"bernienville","departement_id":0,"code_postal":"27180","population":298,"superficie_km2":"782.13","latitude_centre":"49.0732","longitude_centre":"1.034","distance_km":6.56},{"id":0,"code_insee":"27483","nom_standard":"Quatremare","nom_a":null,"nom_de":null,"slug_ville":"quatremare","departement_id":0,"code_postal":"27400","population":450,"superficie_km2":"595.66","latitude_centre":"49.184","longitude_centre":"1.0805","distance_km":6.74},{"id":17431,"code_insee":"27135","nom_standard":"Cesseville","nom_a":null,"nom_de":null,"slug_ville":"cesseville","departement_id":0,"code_postal":"27110","population":440,"superficie_km2":"656.19","latitude_centre":"49.1822","longitude_centre":"0.9766","distance_km":6.88},{"id":0,"code_insee":"27650","nom_standard":"Tournedos-Bois-Hubert","nom_a":null,"nom_de":null,"slug_ville":"tournedos-bois-hubert","departement_id":0,"code_postal":"27180","population":451,"superficie_km2":"804.50","latitude_centre":"49.0719","longitude_centre":"0.9873","distance_km":7.46},{"id":0,"code_insee":"27623","nom_standard":"Surtauville","nom_a":null,"nom_de":null,"slug_ville":"surtauville","departement_id":0,"code_postal":"27400","population":489,"superficie_km2":"442.46","latitude_centre":"49.1982","longitude_centre":"1.0511","distance_km":7.47},{"id":17464,"code_insee":"27187","nom_standard":"Criquebeuf-la-Campagne","nom_a":null,"nom_de":null,"slug_ville":"criquebeuf-la-campagne","departement_id":0,"code_postal":"27110","population":350,"superficie_km2":"778.32","latitude_centre":"49.1999","longitude_centre":"0.9972","distance_km":7.95}]}