{"ville":{"id":33168,"code_insee":"80566","nom_standard":"Fieffes-Montrelet","nom_a":null,"nom_de":null,"slug_ville":"fieffes-montrelet","departement_id":0,"code_postal":"80670","population":339,"superficie_km2":"968.48","latitude_centre":"50.0914","longitude_centre":"2.2188","dep_code":"80","dep_nom":"Somme","dep_slug":"somme","reg_code":"32","reg_nom":"Hauts-de-France","reg_slug":"hauts-de-france"},"departement":{"code":"80","nom":"Somme","slug":"somme"},"region":{"code":"32","nom":"Hauts-de-France","slug":"hauts-de-france"},"villes_proches":[{"id":33017,"code_insee":"80381","nom_standard":"Gorges","nom_a":null,"nom_de":null,"slug_ville":"gorges","departement_id":0,"code_postal":"80370","population":40,"superficie_km2":"486.95","latitude_centre":"50.1056","longitude_centre":"2.1821","distance_km":3.06},{"id":32770,"code_insee":"80089","nom_standard":"Berneuil","nom_a":null,"nom_de":null,"slug_ville":"berneuil","departement_id":0,"code_postal":"80620","population":279,"superficie_km2":"553.30","latitude_centre":"50.0889","longitude_centre":"2.1718","distance_km":3.36},{"id":32840,"code_insee":"80166","nom_standard":"Canaples","nom_a":null,"nom_de":null,"slug_ville":"canaples","departement_id":0,"code_postal":"80670","population":705,"superficie_km2":"1021.49","latitude_centre":"50.0622","longitude_centre":"2.2332","distance_km":3.41},{"id":32956,"code_insee":"80310","nom_standard":"Fienvillers","nom_a":null,"nom_de":null,"slug_ville":"fienvillers","departement_id":0,"code_postal":"80750","population":663,"superficie_km2":"1169.64","latitude_centre":"50.1202","longitude_centre":"2.2364","distance_km":3.44},{"id":32791,"code_insee":"80113","nom_standard":"Bonneville","nom_a":null,"nom_de":null,"slug_ville":"bonneville","departement_id":0,"code_postal":"80670","population":325,"superficie_km2":"1018.93","latitude_centre":"50.0776","longitude_centre":"2.2627","distance_km":3.49},{"id":0,"code_insee":"80619","nom_standard":"Pernois","nom_a":null,"nom_de":null,"slug_ville":"pernois","departement_id":0,"code_postal":"80670","population":686,"superficie_km2":"884.70","latitude_centre":"50.0591","longitude_centre":"2.1873","distance_km":4.24},{"id":0,"code_insee":"80168","nom_standard":"Candas","nom_a":null,"nom_de":null,"slug_ville":"candas","departement_id":0,"code_postal":"80750","population":1035,"superficie_km2":"1726.02","latitude_centre":"50.0992","longitude_centre":"2.282","distance_km":4.59},{"id":32924,"code_insee":"80270","nom_standard":"Épécamps","nom_a":null,"nom_de":null,"slug_ville":"epecamps","departement_id":0,"code_postal":"80370","population":7,"superficie_km2":"160.59","latitude_centre":"50.1107","longitude_centre":"2.1537","distance_km":5.12},{"id":33086,"code_insee":"80466","nom_standard":"Lanches-Saint-Hilaire","nom_a":null,"nom_de":null,"slug_ville":"lanches-saint-hilaire","departement_id":0,"code_postal":"80620","population":133,"superficie_km2":"546.36","latitude_centre":"50.1006","longitude_centre":"2.148","distance_km":5.15},{"id":33039,"code_insee":"80408","nom_standard":"Halloy-lès-Pernois","nom_a":null,"nom_de":null,"slug_ville":"halloy-les-pernois","departement_id":0,"code_postal":"80670","population":322,"superficie_km2":"617.58","latitude_centre":"50.0441","longitude_centre":"2.2054","distance_km":5.35},{"id":32729,"code_insee":"80042","nom_standard":"Autheux","nom_a":null,"nom_de":null,"slug_ville":"autheux","departement_id":0,"code_postal":"80600","population":120,"superficie_km2":"827.06","latitude_centre":"50.1384","longitude_centre":"2.2353","distance_km":5.36},{"id":0,"code_insee":"80086","nom_standard":"Bernaville","nom_a":null,"nom_de":null,"slug_ville":"bernaville","departement_id":0,"code_postal":"80370","population":1042,"superficie_km2":"1743.82","latitude_centre":"50.1347","longitude_centre":"2.171","distance_km":5.9},{"id":33106,"code_insee":"80491","nom_standard":"Longuevillette","nom_a":null,"nom_de":null,"slug_ville":"longuevillette","departement_id":0,"code_postal":"80600","population":67,"superficie_km2":"206.76","latitude_centre":"50.1307","longitude_centre":"2.2769","distance_km":6.02},{"id":32903,"code_insee":"80243","nom_standard":"Domesmont","nom_a":null,"nom_de":null,"slug_ville":"domesmont","departement_id":0,"code_postal":"80370","population":44,"superficie_km2":"194.78","latitude_centre":"50.1201","longitude_centre":"2.1434","distance_km":6.25},{"id":33050,"code_insee":"80423","nom_standard":"Havernas","nom_a":null,"nom_de":null,"slug_ville":"havernas","departement_id":0,"code_postal":"80670","population":378,"superficie_km2":"448.32","latitude_centre":"50.0352","longitude_centre":"2.2279","distance_km":6.28},{"id":0,"code_insee":"80819","nom_standard":"Wargnies","nom_a":null,"nom_de":null,"slug_ville":"wargnies","departement_id":0,"code_postal":"80670","population":78,"superficie_km2":"281.60","latitude_centre":"50.0376","longitude_centre":"2.2502","distance_km":6.39},{"id":0,"code_insee":"80584","nom_standard":"Naours","nom_a":null,"nom_de":null,"slug_ville":"naours","departement_id":0,"code_postal":"80260","population":1047,"superficie_km2":"1653.36","latitude_centre":"50.047","longitude_centre":"2.2838","distance_km":6.77},{"id":0,"code_insee":"80093","nom_standard":"Berteaucourt-les-Dames","nom_a":null,"nom_de":null,"slug_ville":"berteaucourt-les-dames","departement_id":0,"code_postal":"80850","population":1092,"superficie_km2":"463.39","latitude_centre":"50.0433","longitude_centre":"2.1566","distance_km":6.95},{"id":32787,"code_insee":"80108","nom_standard":"Boisbergues","nom_a":null,"nom_de":null,"slug_ville":"boisbergues","departement_id":0,"code_postal":"80600","population":64,"superficie_km2":"433.51","latitude_centre":"50.1544","longitude_centre":"2.2228","distance_km":7.01},{"id":33136,"code_insee":"80526","nom_standard":"Le Meillard","nom_a":null,"nom_de":null,"slug_ville":"le-meillard","departement_id":0,"code_postal":"80370","population":154,"superficie_km2":"699.03","latitude_centre":"50.1716","longitude_centre":"2.2","distance_km":9.02}]}