{"ville":{"id":18547,"code_insee":"30110","nom_standard":"Flaux","nom_a":null,"nom_de":null,"slug_ville":"flaux","departement_id":0,"code_postal":"30700","population":336,"superficie_km2":"1102.89","latitude_centre":"44.0126","longitude_centre":"4.5114","dep_code":"30","dep_nom":"Gard","dep_slug":"gard","reg_code":"76","reg_nom":"Occitanie","reg_slug":"occitanie"},"departement":{"code":"30","nom":"Gard","slug":"gard"},"region":{"code":"76","nom":"Occitanie","slug":"occitanie"},"villes_proches":[{"id":0,"code_insee":"30262","nom_standard":"Saint-Hippolyte-de-Montaigu","nom_a":null,"nom_de":null,"slug_ville":"saint-hippolyte-de-montaigu","departement_id":0,"code_postal":"30700","population":246,"superficie_km2":"411.87","latitude_centre":"44.0334","longitude_centre":"4.494","distance_km":2.7},{"id":0,"code_insee":"30299","nom_standard":"Saint-Siffret","nom_a":null,"nom_de":null,"slug_ville":"saint-siffret","departement_id":0,"code_postal":"30700","population":1126,"superficie_km2":"1134.33","latitude_centre":"44.0148","longitude_centre":"4.4677","distance_km":3.5},{"id":18515,"code_insee":"30067","nom_standard":"La Capelle-et-Masmolène","nom_a":null,"nom_de":null,"slug_ville":"la-capelle-et-masmolene","departement_id":0,"code_postal":"30700","population":441,"superficie_km2":"2492.95","latitude_centre":"44.0437","longitude_centre":"4.5309","distance_km":3.79},{"id":18484,"code_insee":"30013","nom_standard":"Argilliers","nom_a":null,"nom_de":null,"slug_ville":"argilliers","departement_id":0,"code_postal":"30210","population":436,"superficie_km2":"673.91","latitude_centre":"43.9819","longitude_centre":"4.49","distance_km":3.82},{"id":0,"code_insee":"30301","nom_standard":"Saint-Victor-des-Oules","nom_a":null,"nom_de":null,"slug_ville":"saint-victor-des-oules","departement_id":0,"code_postal":"30700","population":301,"superficie_km2":"478.11","latitude_centre":"44.0433","longitude_centre":"4.4832","distance_km":4.09},{"id":0,"code_insee":"30346","nom_standard":"Vers-Pont-du-Gard","nom_a":null,"nom_de":null,"slug_ville":"vers-pont-du-gard","departement_id":0,"code_postal":"30210","population":1786,"superficie_km2":"1915.63","latitude_centre":"43.9697","longitude_centre":"4.5175","distance_km":4.8},{"id":0,"code_insee":"30286","nom_standard":"Saint-Maximin","nom_a":null,"nom_de":null,"slug_ville":"saint-maximin","departement_id":0,"code_postal":"30700","population":798,"superficie_km2":"1004.36","latitude_centre":"43.9874","longitude_centre":"4.4565","distance_km":5.21},{"id":0,"code_insee":"30073","nom_standard":"Castillon-du-Gard","nom_a":null,"nom_de":null,"slug_ville":"castillon-du-gard","departement_id":0,"code_postal":"30210","population":1695,"superficie_km2":"1775.20","latitude_centre":"43.98","longitude_centre":"4.5599","distance_km":5.31},{"id":0,"code_insee":"30337","nom_standard":"Vallabrix","nom_a":null,"nom_de":null,"slug_ville":"vallabrix","departement_id":0,"code_postal":"30700","population":414,"superficie_km2":"795.11","latitude_centre":"44.0647","longitude_centre":"4.4851","distance_km":6.16},{"id":0,"code_insee":"30340","nom_standard":"Valliguières","nom_a":null,"nom_de":null,"slug_ville":"valliguieres","departement_id":0,"code_postal":"30210","population":653,"superficie_km2":"1936.93","latitude_centre":"44.0088","longitude_centre":"4.5884","distance_km":6.17},{"id":0,"code_insee":"30207","nom_standard":"Pouzilhac","nom_a":null,"nom_de":null,"slug_ville":"pouzilhac","departement_id":0,"code_postal":"30210","population":756,"superficie_km2":"1606.81","latitude_centre":"44.042","longitude_centre":"4.5831","distance_km":6.6},{"id":0,"code_insee":"30295","nom_standard":"Saint-Quentin-la-Poterie","nom_a":null,"nom_de":null,"slug_ville":"saint-quentin-la-poterie","departement_id":0,"code_postal":"30700","population":3173,"superficie_km2":"2406.63","latitude_centre":"44.0582","longitude_centre":"4.441","distance_km":7.58},{"id":0,"code_insee":"30085","nom_standard":"Collias","nom_a":null,"nom_de":null,"slug_ville":"collias","departement_id":0,"code_postal":"30210","population":1095,"superficie_km2":"2112.95","latitude_centre":"43.9493","longitude_centre":"4.4719","distance_km":7.72},{"id":0,"code_insee":"30127","nom_standard":"Gaujac","nom_a":null,"nom_de":null,"slug_ville":"gaujac","departement_id":0,"code_postal":"30330","population":1129,"superficie_km2":"1027.05","latitude_centre":"44.0755","longitude_centre":"4.5744","distance_km":8.62},{"id":0,"code_insee":"30205","nom_standard":"Pougnadoresse","nom_a":null,"nom_de":null,"slug_ville":"pougnadoresse","departement_id":0,"code_postal":"30330","population":271,"superficie_km2":"772.04","latitude_centre":"44.0912","longitude_centre":"4.5098","distance_km":8.74},{"id":0,"code_insee":"30196","nom_standard":"Le Pin","nom_a":null,"nom_de":null,"slug_ville":"le-pin","departement_id":0,"code_postal":"30330","population":474,"superficie_km2":"600.74","latitude_centre":"44.0901","longitude_centre":"4.5353","distance_km":8.83},{"id":0,"code_insee":"30212","nom_standard":"Remoulins","nom_a":null,"nom_de":null,"slug_ville":"remoulins","departement_id":0,"code_postal":"30210","population":2278,"superficie_km2":"827.17","latitude_centre":"43.9384","longitude_centre":"4.5629","distance_km":9.22},{"id":18495,"code_insee":"30031","nom_standard":"La Bastide-d'Engras","nom_a":null,"nom_de":null,"slug_ville":"la-bastide-d-engras","departement_id":0,"code_postal":"30330","population":205,"superficie_km2":"987.03","latitude_centre":"44.0965","longitude_centre":"4.4732","distance_km":9.82},{"id":0,"code_insee":"30235","nom_standard":"Saint-Bonnet-du-Gard","nom_a":null,"nom_de":null,"slug_ville":"saint-bonnet-du-gard","departement_id":0,"code_postal":"30210","population":798,"superficie_km2":"676.09","latitude_centre":"43.9267","longitude_centre":"4.5403","distance_km":9.83},{"id":0,"code_insee":"30292","nom_standard":"Saint-Pons-la-Calm","nom_a":null,"nom_de":null,"slug_ville":"saint-pons-la-calm","departement_id":0,"code_postal":"30330","population":501,"superficie_km2":"632.94","latitude_centre":"44.0952","longitude_centre":"4.5564","distance_km":9.86}]}