{"ville":{"id":723,"code_insee":"11145","nom_standard":"Fleury","nom_a":null,"nom_de":null,"slug_ville":"fleury","departement_id":611,"code_postal":"11560","population":3896,"superficie_km2":"52.00","latitude_centre":"43.2140007","longitude_centre":"3.1770000","dep_code":"11","dep_nom":"Aude","dep_slug":"aude","reg_code":"16","reg_nom":"Occitanie","reg_slug":"occitanie"},"departement":{"code":"11","nom":"Aude","slug":"aude"},"region":{"code":"16","nom":"Occitanie","slug":"occitanie"},"villes_proches":[{"id":760,"code_insee":"11370","nom_standard":"Salles-d'Aude","nom_a":null,"nom_de":null,"slug_ville":"salles-d-aude","departement_id":611,"code_postal":"11110","population":3250,"superficie_km2":"18.00","latitude_centre":"43.2360001","longitude_centre":"3.1070001","distance_km":6.18},{"id":3186,"code_insee":"34329","nom_standard":"Vendres","nom_a":null,"nom_de":null,"slug_ville":"vendres","departement_id":635,"code_postal":"34350","population":2736,"superficie_km2":"38.00","latitude_centre":"43.2579994","longitude_centre":"3.2270000","distance_km":6.35},{"id":3091,"code_insee":"34135","nom_standard":"Lespignan","nom_a":null,"nom_de":null,"slug_ville":"lespignan","departement_id":635,"code_postal":"34710","population":3325,"superficie_km2":"23.00","latitude_centre":"43.2739983","longitude_centre":"3.1700001","distance_km":6.7},{"id":769,"code_insee":"11441","nom_standard":"Vinassan","nom_a":null,"nom_de":null,"slug_ville":"vinassan","departement_id":611,"code_postal":"11110","population":2671,"superficie_km2":"9.00","latitude_centre":"43.2050018","longitude_centre":"3.0950000","distance_km":6.72},{"id":700,"code_insee":"11014","nom_standard":"Armissan","nom_a":null,"nom_de":null,"slug_ville":"armissan","departement_id":611,"code_postal":"11110","population":1488,"superficie_km2":"12.00","latitude_centre":"43.1879997","longitude_centre":"3.0890000","distance_km":7.7},{"id":3123,"code_insee":"34183","nom_standard":"Nissan-lez-Enserune","nom_a":null,"nom_de":null,"slug_ville":"nissan-lez-enserune","departement_id":635,"code_postal":"34440","population":4049,"superficie_km2":"30.00","latitude_centre":"43.2809982","longitude_centre":"3.1120000","distance_km":9.12},{"id":3182,"code_insee":"34324","nom_standard":"Valras-Plage","nom_a":null,"nom_de":null,"slug_ville":"valras-plage","departement_id":635,"code_postal":"34350","population":4167,"superficie_km2":"3.00","latitude_centre":"43.2480011","longitude_centre":"3.2890000","distance_km":9.83},{"id":717,"code_insee":"11106","nom_standard":"Coursan","nom_a":null,"nom_de":null,"slug_ville":"coursan","departement_id":611,"code_postal":"11110","population":5751,"superficie_km2":"25.00","latitude_centre":"43.2470017","longitude_centre":"3.0590000","distance_km":10.24},{"id":3171,"code_insee":"34298","nom_standard":"Sauvian","nom_a":null,"nom_de":null,"slug_ville":"sauvian","departement_id":635,"code_postal":"34410","population":5459,"superficie_km2":"13.00","latitude_centre":"43.2910004","longitude_centre":"3.2539999","distance_km":10.59},{"id":3066,"code_insee":"34081","nom_standard":"Colombiers","nom_a":null,"nom_de":null,"slug_ville":"colombiers","departement_id":635,"code_postal":"34440","population":2668,"superficie_km2":"10.00","latitude_centre":"43.3149986","longitude_centre":"3.1440001","distance_km":11.54},{"id":3172,"code_insee":"34299","nom_standard":"Sérignan","nom_a":null,"nom_de":null,"slug_ville":"serignan","departement_id":635,"code_postal":"34410","population":8123,"superficie_km2":"27.00","latitude_centre":"43.2729988","longitude_centre":"3.2969999","distance_km":11.73},{"id":3108,"code_insee":"34161","nom_standard":"Montady","nom_a":null,"nom_de":null,"slug_ville":"montady","departement_id":635,"code_postal":"34310","population":4005,"superficie_km2":"10.00","latitude_centre":"43.3279991","longitude_centre":"3.1140001","distance_km":13.66},{"id":738,"code_insee":"11262","nom_standard":"Narbonne","nom_a":null,"nom_de":null,"slug_ville":"narbonne","departement_id":611,"code_postal":"11100","population":56395,"superficie_km2":"175.00","latitude_centre":"43.1650009","longitude_centre":"3.0200000","distance_km":13.85},{"id":725,"code_insee":"11170","nom_standard":"Gruissan","nom_a":null,"nom_de":null,"slug_ville":"gruissan","departement_id":611,"code_postal":"11430","population":5096,"superficie_km2":"63.00","latitude_centre":"43.1040001","longitude_centre":"3.0820000","distance_km":14.46},{"id":3189,"code_insee":"34336","nom_standard":"Villeneuve-lès-Béziers","nom_a":null,"nom_de":null,"slug_ville":"villeneuve-les-beziers","departement_id":635,"code_postal":"34500","population":4098,"superficie_km2":"17.00","latitude_centre":"43.3170013","longitude_centre":"3.2900000","distance_km":14.66},{"id":718,"code_insee":"11116","nom_standard":"Cuxac-d'Aude","nom_a":null,"nom_de":null,"slug_ville":"cuxac-d-aude","departement_id":611,"code_postal":"11590","population":4061,"superficie_km2":"22.00","latitude_centre":"43.2579994","longitude_centre":"3.0060000","distance_km":14.69},{"id":3044,"code_insee":"34032","nom_standard":"Béziers","nom_a":null,"nom_de":null,"slug_ville":"beziers","departement_id":635,"code_postal":"34500","population":80341,"superficie_km2":"96.00","latitude_centre":"43.3479996","longitude_centre":"3.2309999","distance_km":15.53},{"id":3053,"code_insee":"34052","nom_standard":"Capestang","nom_a":null,"nom_de":null,"slug_ville":"capestang","departement_id":635,"code_postal":"34310","population":3318,"superficie_km2":"41.00","latitude_centre":"43.3219986","longitude_centre":"3.0480001","distance_km":15.92},{"id":3105,"code_insee":"34155","nom_standard":"Maureilhan","nom_a":null,"nom_de":null,"slug_ville":"maureilhan","departement_id":635,"code_postal":"34370","population":2376,"superficie_km2":"10.00","latitude_centre":"43.3520012","longitude_centre":"3.1020000","distance_km":16.5},{"id":3134,"code_insee":"34209","nom_standard":"Portiragnes","nom_a":null,"nom_de":null,"slug_ville":"portiragnes","departement_id":635,"code_postal":"34420","population":3247,"superficie_km2":"20.00","latitude_centre":"43.3019981","longitude_centre":"3.3480001","distance_km":16.96}]}