{"ville":{"id":12628,"code_insee":"10153","nom_standard":"Fontaine-Mâcon","nom_a":null,"nom_de":null,"slug_ville":"fontaine-macon","departement_id":0,"code_postal":"10400","population":635,"superficie_km2":"1598.72","latitude_centre":"48.4564","longitude_centre":"3.509","dep_code":"10","dep_nom":"Aube","dep_slug":"aube","reg_code":"44","reg_nom":"Grand Est","reg_slug":"grand-est"},"departement":{"code":"10","nom":"Aube","slug":"aube"},"region":{"code":"44","nom":"Grand Est","slug":"grand-est"},"villes_proches":[{"id":0,"code_insee":"10154","nom_standard":"Fontenay-de-Bossery","nom_a":null,"nom_de":null,"slug_ville":"fontenay-de-bossery","departement_id":0,"code_postal":"10400","population":70,"superficie_km2":"832.76","latitude_centre":"48.4519","longitude_centre":"3.467","distance_km":3.14},{"id":12544,"code_insee":"10057","nom_standard":"Bouy-sur-Orvin","nom_a":null,"nom_de":null,"slug_ville":"bouy-sur-orvin","departement_id":0,"code_postal":"10400","population":57,"superficie_km2":"661.77","latitude_centre":"48.4241","longitude_centre":"3.4956","distance_km":3.73},{"id":0,"code_insee":"10334","nom_standard":"Saint-Aubin","nom_a":null,"nom_de":null,"slug_ville":"saint-aubin","departement_id":0,"code_postal":"10400","population":580,"superficie_km2":"1783.05","latitude_centre":"48.4822","longitude_centre":"3.5526","distance_km":4.31},{"id":12512,"code_insee":"10020","nom_standard":"Avant-lès-Marcilly","nom_a":null,"nom_de":null,"slug_ville":"avant-les-marcilly","departement_id":0,"code_postal":"10400","population":509,"superficie_km2":"2776.24","latitude_centre":"48.4303","longitude_centre":"3.558","distance_km":4.64},{"id":0,"code_insee":"10268","nom_standard":"Nogent-sur-Seine","nom_a":null,"nom_de":null,"slug_ville":"nogent-sur-seine","departement_id":0,"code_postal":"10400","population":5537,"superficie_km2":"1989.58","latitude_centre":"48.4978","longitude_centre":"3.4943","distance_km":4.73},{"id":0,"code_insee":"10259","nom_standard":"La Motte-Tilly","nom_a":null,"nom_de":null,"slug_ville":"la-motte-tilly","departement_id":0,"code_postal":"10400","population":373,"superficie_km2":"1165.48","latitude_centre":"48.4758","longitude_centre":"3.4392","distance_km":5.58},{"id":0,"code_insee":"10370","nom_standard":"Soligny-les-Étangs","nom_a":null,"nom_de":null,"slug_ville":"soligny-les-etangs","departement_id":0,"code_postal":"10400","population":262,"superficie_km2":"1595.60","latitude_centre":"48.4044","longitude_centre":"3.5157","distance_km":5.8},{"id":12624,"code_insee":"10148","nom_standard":"Ferreux-Quincey","nom_a":null,"nom_de":null,"slug_ville":"ferreux-quincey","departement_id":0,"code_postal":"10400","population":404,"superficie_km2":"1533.72","latitude_centre":"48.4611","longitude_centre":"3.6003","distance_km":6.75},{"id":0,"code_insee":"10169","nom_standard":"Gumery","nom_a":null,"nom_de":null,"slug_ville":"gumery","departement_id":0,"code_postal":"10400","population":225,"superficie_km2":"1092.48","latitude_centre":"48.4395","longitude_centre":"3.4196","distance_km":6.86},{"id":0,"code_insee":"10225","nom_standard":"Marnay-sur-Seine","nom_a":null,"nom_de":null,"slug_ville":"marnay-sur-seine","departement_id":0,"code_postal":"10400","population":234,"superficie_km2":"999.22","latitude_centre":"48.5143","longitude_centre":"3.5528","distance_km":7.2},{"id":0,"code_insee":"10382","nom_standard":"Traînel","nom_a":null,"nom_de":null,"slug_ville":"trainel","departement_id":0,"code_postal":"10400","population":1094,"superficie_km2":"1996.18","latitude_centre":"48.4059","longitude_centre":"3.446","distance_km":7.29},{"id":0,"code_insee":"10355","nom_standard":"Saint-Nicolas-la-Chapelle","nom_a":null,"nom_de":null,"slug_ville":"saint-nicolas-la-chapelle","departement_id":0,"code_postal":"10400","population":81,"superficie_km2":"1161.58","latitude_centre":"48.5208","longitude_centre":"3.4805","distance_km":7.46},{"id":0,"code_insee":"10231","nom_standard":"Le Mériot","nom_a":null,"nom_de":null,"slug_ville":"le-meriot","departement_id":0,"code_postal":"10400","population":611,"superficie_km2":"1262.55","latitude_centre":"48.5073","longitude_centre":"3.4407","distance_km":7.57},{"id":12585,"code_insee":"10106","nom_standard":"Courceroy","nom_a":null,"nom_de":null,"slug_ville":"courceroy","departement_id":0,"code_postal":"10400","population":150,"superficie_km2":"667.96","latitude_centre":"48.4702","longitude_centre":"3.4073","distance_km":7.65},{"id":0,"code_insee":"10298","nom_standard":"Pont-sur-Seine","nom_a":null,"nom_de":null,"slug_ville":"pont-sur-seine","departement_id":0,"code_postal":"10400","population":1089,"superficie_km2":"1607.26","latitude_centre":"48.5056","longitude_centre":"3.5965","distance_km":8.46},{"id":12566,"code_insee":"10085","nom_standard":"Charmoy","nom_a":null,"nom_de":null,"slug_ville":"charmoy","departement_id":0,"code_postal":"10290","population":60,"superficie_km2":"690.96","latitude_centre":"48.3924","longitude_centre":"3.582","distance_km":8.93},{"id":0,"code_insee":"10208","nom_standard":"La Louptière-Thénard","nom_a":null,"nom_de":null,"slug_ville":"la-louptiere-thenard","departement_id":0,"code_postal":"10400","population":302,"superficie_km2":"1371.60","latitude_centre":"48.3836","longitude_centre":"3.4417","distance_km":9.5},{"id":0,"code_insee":"10383","nom_standard":"Trancault","nom_a":null,"nom_de":null,"slug_ville":"trancault","departement_id":0,"code_postal":"10290","population":182,"superficie_km2":"2693.97","latitude_centre":"48.3686","longitude_centre":"3.526","distance_km":9.84},{"id":0,"code_insee":"10367","nom_standard":"La Saulsotte","nom_a":null,"nom_de":null,"slug_ville":"la-saulsotte","departement_id":0,"code_postal":"10400","population":677,"superficie_km2":"1890.76","latitude_centre":"48.551","longitude_centre":"3.508","distance_km":10.52},{"id":12522,"code_insee":"10031","nom_standard":"Barbuise","nom_a":null,"nom_de":null,"slug_ville":"barbuise","departement_id":0,"code_postal":"10400","population":433,"superficie_km2":"1863.25","latitude_centre":"48.5507","longitude_centre":"3.5609","distance_km":11.16}]}