{"ville":{"id":15422,"code_insee":"21279","nom_standard":"Fontaines-les-Sèches","nom_a":null,"nom_de":null,"slug_ville":"fontaines-les-seches","departement_id":0,"code_postal":"21330","population":26,"superficie_km2":"1365.04","latitude_centre":"47.7855","longitude_centre":"4.359","dep_code":"21","dep_nom":"Côte-d'Or","dep_slug":"cote-d-or","reg_code":"27","reg_nom":"Bourgogne-Franche-Comté","reg_slug":"bourgogne-franche-comte"},"departement":{"code":"21","nom":"Côte-d'Or","slug":"cote-d-or"},"region":{"code":"27","nom":"Bourgogne-Franche-Comté","slug":"bourgogne-franche-comte"},"villes_proches":[{"id":0,"code_insee":"89385","nom_standard":"Sennevoy-le-Bas","nom_a":null,"nom_de":null,"slug_ville":"sennevoy-le-bas","departement_id":0,"code_postal":"89160","population":75,"superficie_km2":"873.92","latitude_centre":"47.8012","longitude_centre":"4.3095","distance_km":4.09},{"id":0,"code_insee":"89210","nom_standard":"Jully","nom_a":null,"nom_de":null,"slug_ville":"jully","departement_id":0,"code_postal":"89160","population":127,"superficie_km2":"1994.04","latitude_centre":"47.7731","longitude_centre":"4.2983","distance_km":4.74},{"id":0,"code_insee":"21336","nom_standard":"Laignes","nom_a":null,"nom_de":null,"slug_ville":"laignes","departement_id":0,"code_postal":"21330","population":668,"superficie_km2":"4034.91","latitude_centre":"47.8278","longitude_centre":"4.3688","distance_km":4.76},{"id":0,"code_insee":"21451","nom_standard":"Nesle-et-Massoult","nom_a":null,"nom_de":null,"slug_ville":"nesle-et-massoult","departement_id":0,"code_postal":"21330","population":78,"superficie_km2":"2361.92","latitude_centre":"47.7787","longitude_centre":"4.428","distance_km":5.21},{"id":0,"code_insee":"21664","nom_standard":"Verdonnet","nom_a":null,"nom_de":null,"slug_ville":"verdonnet","departement_id":0,"code_postal":"21330","population":62,"superficie_km2":"1810.60","latitude_centre":"47.7419","longitude_centre":"4.33","distance_km":5.31},{"id":0,"code_insee":"21484","nom_standard":"Planay","nom_a":null,"nom_de":null,"slug_ville":"planay","departement_id":0,"code_postal":"21500","population":61,"superficie_km2":"881.70","latitude_centre":"47.7337","longitude_centre":"4.3799","distance_km":5.97},{"id":0,"code_insee":"21594","nom_standard":"Savoisy","nom_a":null,"nom_de":null,"slug_ville":"savoisy","departement_id":0,"code_postal":"21500","population":194,"superficie_km2":"2508.23","latitude_centre":"47.737","longitude_centre":"4.3942","distance_km":6.0},{"id":0,"code_insee":"89187","nom_standard":"Gigny","nom_a":null,"nom_de":null,"slug_ville":"gigny","departement_id":0,"code_postal":"89160","population":83,"superficie_km2":"1085.10","latitude_centre":"47.8297","longitude_centre":"4.303","distance_km":6.45},{"id":15208,"code_insee":"21044","nom_standard":"Balot","nom_a":null,"nom_de":null,"slug_ville":"balot","departement_id":0,"code_postal":"21330","population":86,"superficie_km2":"1550.35","latitude_centre":"47.8203","longitude_centre":"4.4422","distance_km":7.32},{"id":0,"code_insee":"89386","nom_standard":"Sennevoy-le-Haut","nom_a":null,"nom_de":null,"slug_ville":"sennevoy-le-haut","departement_id":0,"code_postal":"89160","population":121,"superficie_km2":"889.15","latitude_centre":"47.814","longitude_centre":"4.2639","distance_km":7.78},{"id":15239,"code_insee":"21078","nom_standard":"Bissey-la-Pierre","nom_a":null,"nom_de":null,"slug_ville":"bissey-la-pierre","departement_id":0,"code_postal":"21330","population":67,"superficie_km2":"841.80","latitude_centre":"47.8444","longitude_centre":"4.4244","distance_km":8.17},{"id":0,"code_insee":"21378","nom_standard":"Marcenay","nom_a":null,"nom_de":null,"slug_ville":"marcenay","departement_id":0,"code_postal":"21330","population":108,"superficie_km2":"948.44","latitude_centre":"47.8596","longitude_centre":"4.4047","distance_km":8.92},{"id":0,"code_insee":"89403","nom_standard":"Stigny","nom_a":null,"nom_de":null,"slug_ville":"stigny","departement_id":0,"code_postal":"89160","population":89,"superficie_km2":"1804.70","latitude_centre":"47.7804","longitude_centre":"4.2383","distance_km":9.04},{"id":0,"code_insee":"89321","nom_standard":"Ravières","nom_a":null,"nom_de":null,"slug_ville":"ravieres","departement_id":0,"code_postal":"89390","population":735,"superficie_km2":"2211.25","latitude_centre":"47.7384","longitude_centre":"4.2592","distance_km":9.11},{"id":15192,"code_insee":"21026","nom_standard":"Asnières-en-Montagne","nom_a":null,"nom_de":null,"slug_ville":"asnieres-en-montagne","departement_id":0,"code_postal":"21500","population":160,"superficie_km2":"2848.88","latitude_centre":"47.7125","longitude_centre":"4.2974","distance_km":9.33},{"id":0,"code_insee":"21309","nom_standard":"Griselles","nom_a":null,"nom_de":null,"slug_ville":"griselles","departement_id":0,"code_postal":"21330","population":91,"superficie_km2":"1245.94","latitude_centre":"47.8759","longitude_centre":"4.3649","distance_km":10.06},{"id":0,"code_insee":"21454","nom_standard":"Nicey","nom_a":null,"nom_de":null,"slug_ville":"nicey","departement_id":0,"code_postal":"21330","population":112,"superficie_km2":"2385.00","latitude_centre":"47.8676","longitude_centre":"4.2933","distance_km":10.36},{"id":15191,"code_insee":"21025","nom_standard":"Arrans","nom_a":null,"nom_de":null,"slug_ville":"arrans","departement_id":0,"code_postal":"21500","population":65,"superficie_km2":"1052.75","latitude_centre":"47.6897","longitude_centre":"4.3282","distance_km":10.9},{"id":15398,"code_insee":"21252","nom_standard":"Étais","nom_a":null,"nom_de":null,"slug_ville":"etais","departement_id":0,"code_postal":"21500","population":75,"superficie_km2":"1416.53","latitude_centre":"47.7046","longitude_centre":"4.4434","distance_km":10.99},{"id":15301,"code_insee":"21143","nom_standard":"Channay","nom_a":null,"nom_de":null,"slug_ville":"channay","departement_id":0,"code_postal":"21330","population":58,"superficie_km2":"1347.17","latitude_centre":"47.8904","longitude_centre":"4.3161","distance_km":12.1}]}