{"ville":{"id":13624,"code_insee":"14275","nom_standard":"Fontaine-Henry","nom_a":null,"nom_de":null,"slug_ville":"fontaine-henry","departement_id":0,"code_postal":"14610","population":528,"superficie_km2":"580.65","latitude_centre":"49.2797","longitude_centre":"-0.4679","dep_code":"14","dep_nom":"Calvados","dep_slug":"calvados","reg_code":"28","reg_nom":"Normandie","reg_slug":"normandie"},"departement":{"code":"14","nom":"Calvados","slug":"calvados"},"region":{"code":"28","nom":"Normandie","slug":"normandie"},"villes_proches":[{"id":0,"code_insee":"14535","nom_standard":"Reviers","nom_a":null,"nom_de":null,"slug_ville":"reviers","departement_id":0,"code_postal":"14470","population":627,"superficie_km2":"435.37","latitude_centre":"49.2977","longitude_centre":"-0.4647","distance_km":2.01},{"id":13518,"code_insee":"14062","nom_standard":"Bény-sur-Mer","nom_a":null,"nom_de":null,"slug_ville":"beny-sur-mer","departement_id":0,"code_postal":"14440","population":467,"superficie_km2":"673.03","latitude_centre":"49.2879","longitude_centre":"-0.4348","distance_km":2.57},{"id":0,"code_insee":"14044","nom_standard":"Basly","nom_a":null,"nom_de":null,"slug_ville":"basly","departement_id":0,"code_postal":"14610","population":1029,"superficie_km2":"406.29","latitude_centre":"49.2782","longitude_centre":"-0.4295","distance_km":2.79},{"id":0,"code_insee":"14288","nom_standard":"Le Fresne-Camilly","nom_a":null,"nom_de":null,"slug_ville":"le-fresne-camilly","departement_id":0,"code_postal":"14480","population":951,"superficie_km2":"706.04","latitude_centre":"49.2562","longitude_centre":"-0.4925","distance_km":3.16},{"id":0,"code_insee":"14685","nom_standard":"Thaon","nom_a":null,"nom_de":null,"slug_ville":"thaon","departement_id":0,"code_postal":"14610","population":1894,"superficie_km2":"842.76","latitude_centre":"49.2553","longitude_centre":"-0.4454","distance_km":3.17},{"id":0,"code_insee":"14355","nom_standard":"Ponts sur Seulles","nom_a":null,"nom_de":null,"slug_ville":"ponts-sur-seulles","departement_id":0,"code_postal":"14480","population":1212,"superficie_km2":"1297.15","latitude_centre":"49.2847","longitude_centre":"-0.5113","distance_km":3.2},{"id":13569,"code_insee":"14169","nom_standard":"Colombiers-sur-Seulles","nom_a":null,"nom_de":null,"slug_ville":"colombiers-sur-seulles","departement_id":0,"code_postal":"14480","population":152,"superficie_km2":"339.96","latitude_centre":"49.2996","longitude_centre":"-0.5021","distance_km":3.32},{"id":13506,"code_insee":"14038","nom_standard":"Banville","nom_a":null,"nom_de":null,"slug_ville":"banville","departement_id":0,"code_postal":"14480","population":797,"superficie_km2":"466.84","latitude_centre":"49.3087","longitude_centre":"-0.489","distance_km":3.57},{"id":0,"code_insee":"14014","nom_standard":"Colomby-Anguerny","nom_a":null,"nom_de":null,"slug_ville":"colomby-anguerny","departement_id":0,"code_postal":"14610","population":1353,"superficie_km2":"565.90","latitude_centre":"49.264","longitude_centre":"-0.4101","distance_km":4.54},{"id":0,"code_insee":"14191","nom_standard":"Courseulles-sur-Mer","nom_a":null,"nom_de":null,"slug_ville":"courseulles-sur-mer","departement_id":0,"code_postal":"14470","population":4268,"superficie_km2":"807.90","latitude_centre":"49.3201","longitude_centre":"-0.4515","distance_km":4.65},{"id":0,"code_insee":"14569","nom_standard":"Sainte-Croix-sur-Mer","nom_a":null,"nom_de":null,"slug_ville":"sainte-croix-sur-mer","departement_id":0,"code_postal":"14480","population":243,"superficie_km2":"210.69","latitude_centre":"49.3164","longitude_centre":"-0.5095","distance_km":5.07},{"id":0,"code_insee":"14066","nom_standard":"Bernières-sur-Mer","nom_a":null,"nom_de":null,"slug_ville":"bernieres-sur-mer","departement_id":0,"code_postal":"14990","population":2437,"superficie_km2":"773.22","latitude_centre":"49.3162","longitude_centre":"-0.4173","distance_km":5.47},{"id":0,"code_insee":"14123","nom_standard":"Cairon","nom_a":null,"nom_de":null,"slug_ville":"cairon","departement_id":0,"code_postal":"14610","population":2066,"superficie_km2":"596.03","latitude_centre":"49.2317","longitude_centre":"-0.4394","distance_km":5.72},{"id":13493,"code_insee":"14015","nom_standard":"Anisy","nom_a":null,"nom_de":null,"slug_ville":"anisy","departement_id":0,"code_postal":"14610","population":819,"superficie_km2":"416.22","latitude_centre":"49.2531","longitude_centre":"-0.3999","distance_km":5.75},{"id":0,"code_insee":"14318","nom_standard":"Graye-sur-Mer","nom_a":null,"nom_de":null,"slug_ville":"graye-sur-mer","departement_id":0,"code_postal":"14470","population":773,"superficie_km2":"663.86","latitude_centre":"49.3301","longitude_centre":"-0.4878","distance_km":5.79},{"id":0,"code_insee":"14228","nom_standard":"Douvres-la-Délivrande","nom_a":null,"nom_de":null,"slug_ville":"douvres-la-delivrande","departement_id":0,"code_postal":"14440","population":5143,"superficie_km2":"1082.62","latitude_centre":"49.2924","longitude_centre":"-0.3875","distance_km":6.0},{"id":0,"code_insee":"14758","nom_standard":"Villons-les-Buissons","nom_a":null,"nom_de":null,"slug_ville":"villons-les-buissons","departement_id":0,"code_postal":"14610","population":848,"superficie_km2":"377.20","latitude_centre":"49.236","longitude_centre":"-0.4108","distance_km":6.39},{"id":0,"code_insee":"14542","nom_standard":"Rosel","nom_a":null,"nom_de":null,"slug_ville":"rosel","departement_id":0,"code_postal":"14740","population":696,"superficie_km2":"390.18","latitude_centre":"49.2231","longitude_centre":"-0.4495","distance_km":6.43},{"id":0,"code_insee":"14739","nom_standard":"Ver-sur-Mer","nom_a":null,"nom_de":null,"slug_ville":"ver-sur-mer","departement_id":0,"code_postal":"14114","population":1581,"superficie_km2":"899.49","latitude_centre":"49.333","longitude_centre":"-0.5265","distance_km":7.29},{"id":0,"code_insee":"14543","nom_standard":"Rots","nom_a":null,"nom_de":null,"slug_ville":"rots","departement_id":0,"code_postal":"14740","population":2544,"superficie_km2":"2344.15","latitude_centre":"49.2153","longitude_centre":"-0.4913","distance_km":7.36}]}