{"ville":{"id":18551,"code_insee":"30115","nom_standard":"Fontarèches","nom_a":null,"nom_de":null,"slug_ville":"fontareches","departement_id":0,"code_postal":"30580","population":256,"superficie_km2":"1336.26","latitude_centre":"44.1118","longitude_centre":"4.4278","dep_code":"30","dep_nom":"Gard","dep_slug":"gard","reg_code":"76","reg_nom":"Occitanie","reg_slug":"occitanie"},"departement":{"code":"30","nom":"Gard","slug":"gard"},"region":{"code":"76","nom":"Occitanie","slug":"occitanie"},"villes_proches":[{"id":18510,"code_insee":"30056","nom_standard":"La Bruguière","nom_a":null,"nom_de":null,"slug_ville":"la-bruguiere","departement_id":0,"code_postal":"30580","population":332,"superficie_km2":"1654.02","latitude_centre":"44.1018","longitude_centre":"4.4018","distance_km":2.35},{"id":0,"code_insee":"30279","nom_standard":"Saint-Laurent-la-Vernède","nom_a":null,"nom_de":null,"slug_ville":"saint-laurent-la-vernede","departement_id":0,"code_postal":"30330","population":709,"superficie_km2":"1184.03","latitude_centre":"44.106","longitude_centre":"4.4643","distance_km":2.98},{"id":18495,"code_insee":"30031","nom_standard":"La Bastide-d'Engras","nom_a":null,"nom_de":null,"slug_ville":"la-bastide-d-engras","departement_id":0,"code_postal":"30330","population":205,"superficie_km2":"987.03","latitude_centre":"44.0965","longitude_centre":"4.4732","distance_km":4.0},{"id":0,"code_insee":"30338","nom_standard":"Vallérargues","nom_a":null,"nom_de":null,"slug_ville":"vallerargues","departement_id":0,"code_postal":"30580","population":132,"superficie_km2":"1283.42","latitude_centre":"44.1257","longitude_centre":"4.3608","distance_km":5.57},{"id":0,"code_insee":"30282","nom_standard":"Saint-Marcel-de-Careiret","nom_a":null,"nom_de":null,"slug_ville":"saint-marcel-de-careiret","departement_id":0,"code_postal":"30330","population":870,"superficie_km2":"1022.73","latitude_centre":"44.1434","longitude_centre":"4.4871","distance_km":5.89},{"id":0,"code_insee":"30295","nom_standard":"Saint-Quentin-la-Poterie","nom_a":null,"nom_de":null,"slug_ville":"saint-quentin-la-poterie","departement_id":0,"code_postal":"30700","population":3173,"superficie_km2":"2406.63","latitude_centre":"44.0582","longitude_centre":"4.441","distance_km":6.05},{"id":0,"code_insee":"30343","nom_standard":"Verfeuil","nom_a":null,"nom_de":null,"slug_ville":"verfeuil","departement_id":0,"code_postal":"30630","population":591,"superficie_km2":"2612.19","latitude_centre":"44.1635","longitude_centre":"4.4568","distance_km":6.2},{"id":18496,"code_insee":"30035","nom_standard":"Belvézet","nom_a":null,"nom_de":null,"slug_ville":"belvezet","departement_id":0,"code_postal":"30580","population":250,"superficie_km2":"2245.26","latitude_centre":"44.0904","longitude_centre":"4.3545","distance_km":6.32},{"id":0,"code_insee":"30205","nom_standard":"Pougnadoresse","nom_a":null,"nom_de":null,"slug_ville":"pougnadoresse","departement_id":0,"code_postal":"30330","population":271,"superficie_km2":"772.04","latitude_centre":"44.0912","longitude_centre":"4.5098","distance_km":6.94},{"id":0,"code_insee":"30337","nom_standard":"Vallabrix","nom_a":null,"nom_de":null,"slug_ville":"vallabrix","departement_id":0,"code_postal":"30700","population":414,"superficie_km2":"795.11","latitude_centre":"44.0647","longitude_centre":"4.4851","distance_km":6.96},{"id":18522,"code_insee":"30076","nom_standard":"Cavillargues","nom_a":null,"nom_de":null,"slug_ville":"cavillargues","departement_id":0,"code_postal":"30330","population":849,"superficie_km2":"1117.35","latitude_centre":"44.1194","longitude_centre":"4.5178","distance_km":7.23},{"id":0,"code_insee":"30151","nom_standard":"Lussan","nom_a":null,"nom_de":null,"slug_ville":"lussan","departement_id":0,"code_postal":"30580","population":545,"superficie_km2":"4681.19","latitude_centre":"44.1663","longitude_centre":"4.3712","distance_km":7.56},{"id":0,"code_insee":"30232","nom_standard":"Saint-André-d'Olérargues","nom_a":null,"nom_de":null,"slug_ville":"saint-andre-d-olerargues","departement_id":0,"code_postal":"30330","population":443,"superficie_km2":"979.55","latitude_centre":"44.1644","longitude_centre":"4.4988","distance_km":8.14},{"id":0,"code_insee":"30174","nom_standard":"Montaren-et-Saint-Médiers","nom_a":null,"nom_de":null,"slug_ville":"montaren-et-saint-mediers","departement_id":0,"code_postal":"30700","population":1397,"superficie_km2":"1937.16","latitude_centre":"44.0449","longitude_centre":"4.383","distance_km":8.25},{"id":0,"code_insee":"30301","nom_standard":"Saint-Victor-des-Oules","nom_a":null,"nom_de":null,"slug_ville":"saint-victor-des-oules","departement_id":0,"code_postal":"30700","population":301,"superficie_km2":"478.11","latitude_centre":"44.0433","longitude_centre":"4.4832","distance_km":8.81},{"id":0,"code_insee":"30196","nom_standard":"Le Pin","nom_a":null,"nom_de":null,"slug_ville":"le-pin","departement_id":0,"code_postal":"30330","population":474,"superficie_km2":"600.74","latitude_centre":"44.0901","longitude_centre":"4.5353","distance_km":8.92},{"id":0,"code_insee":"30334","nom_standard":"Uzès","nom_a":null,"nom_de":null,"slug_ville":"uzes","departement_id":0,"code_postal":"30700","population":8519,"superficie_km2":"2541.55","latitude_centre":"44.0289","longitude_centre":"4.416","distance_km":9.27},{"id":0,"code_insee":"30262","nom_standard":"Saint-Hippolyte-de-Montaigu","nom_a":null,"nom_de":null,"slug_ville":"saint-hippolyte-de-montaigu","departement_id":0,"code_postal":"30700","population":246,"superficie_km2":"411.87","latitude_centre":"44.0334","longitude_centre":"4.494","distance_km":10.2},{"id":0,"code_insee":"30131","nom_standard":"Goudargues","nom_a":null,"nom_de":null,"slug_ville":"goudargues","departement_id":0,"code_postal":"30630","population":1125,"superficie_km2":"3037.24","latitude_centre":"44.2099","longitude_centre":"4.4366","distance_km":10.93},{"id":0,"code_insee":"30299","nom_standard":"Saint-Siffret","nom_a":null,"nom_de":null,"slug_ville":"saint-siffret","departement_id":0,"code_postal":"30700","population":1126,"superficie_km2":"1134.33","latitude_centre":"44.0148","longitude_centre":"4.4677","distance_km":11.25}]}