{"ville":{"id":24017,"code_insee":"52205","nom_standard":"Foulain","nom_a":null,"nom_de":null,"slug_ville":"foulain","departement_id":0,"code_postal":"52000","population":673,"superficie_km2":"2673.14","latitude_centre":"48.0234","longitude_centre":"5.1632","dep_code":"52","dep_nom":"Haute-Marne","dep_slug":"haute-marne","reg_code":"44","reg_nom":"Grand Est","reg_slug":"grand-est"},"departement":{"code":"52","nom":"Haute-Marne","slug":"haute-marne"},"region":{"code":"44","nom":"Grand Est","slug":"grand-est"},"villes_proches":[{"id":0,"code_insee":"52349","nom_standard":"Neuilly-sur-Suize","nom_a":null,"nom_de":null,"slug_ville":"neuilly-sur-suize","departement_id":0,"code_postal":"52000","population":291,"superficie_km2":"1477.57","latitude_centre":"48.0402","longitude_centre":"5.1284","distance_km":3.19},{"id":0,"code_insee":"52297","nom_standard":"Luzy-sur-Marne","nom_a":null,"nom_de":null,"slug_ville":"luzy-sur-marne","departement_id":0,"code_postal":"52000","population":279,"superficie_km2":"1598.70","latitude_centre":"48.0561","longitude_centre":"5.2005","distance_km":4.57},{"id":0,"code_insee":"52282","nom_standard":"Leffonds","nom_a":null,"nom_de":null,"slug_ville":"leffonds","departement_id":0,"code_postal":"52210","population":344,"superficie_km2":"3676.01","latitude_centre":"47.9791","longitude_centre":"5.1464","distance_km":5.08},{"id":0,"code_insee":"52315","nom_standard":"Marnay-sur-Marne","nom_a":null,"nom_de":null,"slug_ville":"marnay-sur-marne","departement_id":0,"code_postal":"52800","population":320,"superficie_km2":"1080.93","latitude_centre":"48.0109","longitude_centre":"5.2315","distance_km":5.27},{"id":0,"code_insee":"52538","nom_standard":"Villiers-sur-Suize","nom_a":null,"nom_de":null,"slug_ville":"villiers-sur-suize","departement_id":0,"code_postal":"52210","population":255,"superficie_km2":"1768.42","latitude_centre":"47.9799","longitude_centre":"5.1916","distance_km":5.28},{"id":0,"code_insee":"52514","nom_standard":"Verbiesles","nom_a":null,"nom_de":null,"slug_ville":"verbiesles","departement_id":0,"code_postal":"52000","population":306,"superficie_km2":"1138.43","latitude_centre":"48.0759","longitude_centre":"5.1949","distance_km":6.3},{"id":0,"code_insee":"52401","nom_standard":"Poulangy","nom_a":null,"nom_de":null,"slug_ville":"poulangy","departement_id":0,"code_postal":"52800","population":361,"superficie_km2":"1740.17","latitude_centre":"48.0455","longitude_centre":"5.256","distance_km":7.32},{"id":0,"code_insee":"52422","nom_standard":"Richebourg","nom_a":null,"nom_de":null,"slug_ville":"richebourg","departement_id":0,"code_postal":"52120","population":241,"superficie_km2":"2124.19","latitude_centre":"48.0129","longitude_centre":"5.0564","distance_km":8.03},{"id":0,"code_insee":"52121","nom_standard":"Chaumont","nom_a":null,"nom_de":null,"slug_ville":"chaumont","departement_id":0,"code_postal":"52000","population":20827,"superficie_km2":"5514.07","latitude_centre":"48.0965","longitude_centre":"5.1566","distance_km":8.14},{"id":0,"code_insee":"52518","nom_standard":"Vesaignes-sur-Marne","nom_a":null,"nom_de":null,"slug_ville":"vesaignes-sur-marne","departement_id":0,"code_postal":"52800","population":103,"superficie_km2":"858.96","latitude_centre":"47.9974","longitude_centre":"5.2668","distance_km":8.23},{"id":23926,"code_insee":"52082","nom_standard":"Bugnières","nom_a":null,"nom_de":null,"slug_ville":"bugnieres","departement_id":0,"code_postal":"52210","population":153,"superficie_km2":"1849.20","latitude_centre":"47.9642","longitude_centre":"5.09","distance_km":8.54},{"id":0,"code_insee":"52125","nom_standard":"Chamarandes-Choignes","nom_a":null,"nom_de":null,"slug_ville":"chamarandes-choignes","departement_id":0,"code_postal":"52000","population":1039,"superficie_km2":"1900.60","latitude_centre":"48.097","longitude_centre":"5.1983","distance_km":8.59},{"id":24010,"code_insee":"52196","nom_standard":"Faverolles","nom_a":null,"nom_de":null,"slug_ville":"faverolles","departement_id":0,"code_postal":"52260","population":102,"superficie_km2":"1757.04","latitude_centre":"47.9559","longitude_centre":"5.2227","distance_km":8.71},{"id":0,"code_insee":"52295","nom_standard":"Louvières","nom_a":null,"nom_de":null,"slug_ville":"louvieres","departement_id":0,"code_postal":"52800","population":87,"superficie_km2":"870.60","latitude_centre":"48.0274","longitude_centre":"5.2819","distance_km":8.84},{"id":0,"code_insee":"52276","nom_standard":"Laville-aux-Bois","nom_a":null,"nom_de":null,"slug_ville":"laville-aux-bois","departement_id":0,"code_postal":"52000","population":238,"superficie_km2":"1312.38","latitude_centre":"48.0902","longitude_centre":"5.2366","distance_km":9.22},{"id":0,"code_insee":"52307","nom_standard":"Marac","nom_a":null,"nom_de":null,"slug_ville":"marac","departement_id":0,"code_postal":"52260","population":210,"superficie_km2":"2200.49","latitude_centre":"47.9329","longitude_centre":"5.1652","distance_km":10.06},{"id":0,"code_insee":"52535","nom_standard":"Villiers-le-Sec","nom_a":null,"nom_de":null,"slug_ville":"villiers-le-sec","departement_id":0,"code_postal":"52000","population":710,"superficie_km2":"1577.47","latitude_centre":"48.1009","longitude_centre":"5.0693","distance_km":11.09},{"id":0,"code_insee":"52486","nom_standard":"Ternat","nom_a":null,"nom_de":null,"slug_ville":"ternat","departement_id":0,"code_postal":"52210","population":62,"superficie_km2":"798.81","latitude_centre":"47.9149","longitude_centre":"5.1276","distance_km":12.35},{"id":0,"code_insee":"52366","nom_standard":"Ormancey","nom_a":null,"nom_de":null,"slug_ville":"ormancey","departement_id":0,"code_postal":"52200","population":73,"superficie_km2":"1727.88","latitude_centre":"47.9081","longitude_centre":"5.1832","distance_km":12.91},{"id":23971,"code_insee":"52141","nom_standard":"Condes","nom_a":null,"nom_de":null,"slug_ville":"condes","departement_id":0,"code_postal":"52000","population":292,"superficie_km2":"516.27","latitude_centre":"48.1419","longitude_centre":"5.1417","distance_km":13.27}]}