{"ville":{"id":25619,"code_insee":"57234","nom_standard":"Frauenberg","nom_a":null,"nom_de":null,"slug_ville":"frauenberg","departement_id":0,"code_postal":"57200","population":603,"superficie_km2":"272.92","latitude_centre":"49.1343","longitude_centre":"7.1145","dep_code":"57","dep_nom":"Moselle","dep_slug":"moselle","reg_code":"44","reg_nom":"Grand Est","reg_slug":"grand-est"},"departement":{"code":"57","nom":"Moselle","slug":"moselle"},"region":{"code":"44","nom":"Grand Est","slug":"grand-est"},"villes_proches":[{"id":25525,"code_insee":"57093","nom_standard":"Blies-Guersviller","nom_a":null,"nom_de":null,"slug_ville":"blies-guersviller","departement_id":0,"code_postal":"57200","population":651,"superficie_km2":"368.22","latitude_centre":"49.1438","longitude_centre":"7.0969","distance_km":1.66},{"id":25524,"code_insee":"57092","nom_standard":"Blies-Ébersing","nom_a":null,"nom_de":null,"slug_ville":"blies-ebersing","departement_id":0,"code_postal":"57200","population":617,"superficie_km2":"522.08","latitude_centre":"49.1136","longitude_centre":"7.1442","distance_km":3.16},{"id":0,"code_insee":"57631","nom_standard":"Sarreguemines","nom_a":null,"nom_de":null,"slug_ville":"sarreguemines","departement_id":0,"code_postal":"57200","population":20143,"superficie_km2":"2968.81","latitude_centre":"49.106","longitude_centre":"7.0709","distance_km":4.47},{"id":0,"code_insee":"57633","nom_standard":"Sarreinsming","nom_a":null,"nom_de":null,"slug_ville":"sarreinsming","departement_id":0,"code_postal":"57905","population":1178,"superficie_km2":"717.65","latitude_centre":"49.0911","longitude_centre":"7.1193","distance_km":4.82},{"id":25523,"code_insee":"57091","nom_standard":"Bliesbruck","nom_a":null,"nom_de":null,"slug_ville":"bliesbruck","departement_id":0,"code_postal":"57200","population":961,"superficie_km2":"1085.18","latitude_centre":"49.113","longitude_centre":"7.1794","distance_km":5.28},{"id":0,"code_insee":"57568","nom_standard":"Rémelfing","nom_a":null,"nom_de":null,"slug_ville":"remelfing","departement_id":0,"code_postal":"57200","population":1305,"superficie_km2":"260.63","latitude_centre":"49.0903","longitude_centre":"7.087","distance_km":5.29},{"id":0,"code_insee":"57760","nom_standard":"Zetting","nom_a":null,"nom_de":null,"slug_ville":"zetting","departement_id":0,"code_postal":"57905","population":875,"superficie_km2":"692.95","latitude_centre":"49.0733","longitude_centre":"7.1237","distance_km":6.82},{"id":0,"code_insee":"57745","nom_standard":"Wiesviller","nom_a":null,"nom_de":null,"slug_ville":"wiesviller","departement_id":0,"code_postal":"57200","population":914,"superficie_km2":"885.32","latitude_centre":"49.0786","longitude_centre":"7.165","distance_km":7.2},{"id":0,"code_insee":"57260","nom_standard":"Grosbliederstroff","nom_a":null,"nom_de":null,"slug_ville":"grosbliederstroff","departement_id":0,"code_postal":"57520","population":3346,"superficie_km2":"1307.47","latitude_centre":"49.1584","longitude_centre":"7.0214","distance_km":7.28},{"id":0,"code_insee":"57750","nom_standard":"Wœlfling-lès-Sarreguemines","nom_a":null,"nom_de":null,"slug_ville":"woelfling-les-sarreguemines","departement_id":0,"code_postal":"57200","population":700,"superficie_km2":"624.43","latitude_centre":"49.0834","longitude_centre":"7.1801","distance_km":7.41},{"id":0,"code_insee":"57499","nom_standard":"Neufgrange","nom_a":null,"nom_de":null,"slug_ville":"neufgrange","departement_id":0,"code_postal":"57910","population":1364,"superficie_km2":"733.11","latitude_centre":"49.0719","longitude_centre":"7.0633","distance_km":7.88},{"id":0,"code_insee":"57598","nom_standard":"Rouhling","nom_a":null,"nom_de":null,"slug_ville":"rouhling","departement_id":0,"code_postal":"57520","population":1981,"superficie_km2":"599.29","latitude_centre":"49.1319","longitude_centre":"7.0045","distance_km":8.01},{"id":0,"code_insee":"67468","nom_standard":"Siltzheim","nom_a":null,"nom_de":null,"slug_ville":"siltzheim","departement_id":0,"code_postal":"67260","population":614,"superficie_km2":"718.88","latitude_centre":"49.0614","longitude_centre":"7.0934","distance_km":8.25},{"id":0,"code_insee":"57517","nom_standard":"Obergailbach","nom_a":null,"nom_de":null,"slug_ville":"obergailbach","departement_id":0,"code_postal":"57720","population":268,"superficie_km2":"897.98","latitude_centre":"49.1128","longitude_centre":"7.2243","distance_km":8.34},{"id":0,"code_insee":"57348","nom_standard":"Ippling","nom_a":null,"nom_de":null,"slug_ville":"ippling","departement_id":0,"code_postal":"57990","population":787,"superficie_km2":"340.86","latitude_centre":"49.1053","longitude_centre":"7.0037","distance_km":8.68},{"id":0,"code_insee":"57748","nom_standard":"Wittring","nom_a":null,"nom_de":null,"slug_ville":"wittring","departement_id":0,"code_postal":"57905","population":736,"superficie_km2":"820.50","latitude_centre":"49.0515","longitude_centre":"7.1336","distance_km":9.31},{"id":0,"code_insee":"57289","nom_standard":"Hambach","nom_a":null,"nom_de":null,"slug_ville":"hambach","departement_id":0,"code_postal":"57910","population":2766,"superficie_km2":"1753.46","latitude_centre":"49.0618","longitude_centre":"7.0404","distance_km":9.7},{"id":25461,"code_insee":"57006","nom_standard":"Achen","nom_a":null,"nom_de":null,"slug_ville":"achen","departement_id":0,"code_postal":"57412","population":963,"superficie_km2":"1203.19","latitude_centre":"49.0483","longitude_centre":"7.1833","distance_km":10.8},{"id":0,"code_insee":"57355","nom_standard":"Kalhausen","nom_a":null,"nom_de":null,"slug_ville":"kalhausen","departement_id":0,"code_postal":"57412","population":774,"superficie_km2":"1349.27","latitude_centre":"49.026","longitude_centre":"7.1457","distance_km":12.25},{"id":0,"code_insee":"67191","nom_standard":"Herbitzheim","nom_a":null,"nom_de":null,"slug_ville":"herbitzheim","departement_id":0,"code_postal":"67260","population":1829,"superficie_km2":"2199.19","latitude_centre":"49.0209","longitude_centre":"7.0846","distance_km":12.8}]}