{"ville":{"id":30320,"code_insee":"70254","nom_standard":"Frédéric-Fontaine","nom_a":null,"nom_de":null,"slug_ville":"frederic-fontaine","departement_id":0,"code_postal":"70200","population":278,"superficie_km2":"343.68","latitude_centre":"47.65","longitude_centre":"6.6326","dep_code":"70","dep_nom":"Haute-Saône","dep_slug":"haute-saone","reg_code":"27","reg_nom":"Bourgogne-Franche-Comté","reg_slug":"bourgogne-franche-comte"},"departement":{"code":"70","nom":"Haute-Saône","slug":"haute-saone"},"region":{"code":"27","nom":"Bourgogne-Franche-Comté","slug":"bourgogne-franche-comte"},"villes_proches":[{"id":30237,"code_insee":"70157","nom_standard":"Clairegoutte","nom_a":null,"nom_de":null,"slug_ville":"clairegoutte","departement_id":0,"code_postal":"70200","population":347,"superficie_km2":"1045.67","latitude_centre":"47.658","longitude_centre":"6.6388","distance_km":1.0},{"id":0,"code_insee":"70319","nom_standard":"Magny-Jobert","nom_a":null,"nom_de":null,"slug_ville":"magny-jobert","departement_id":0,"code_postal":"70200","population":137,"superficie_km2":"373.03","latitude_centre":"47.6463","longitude_centre":"6.6113","distance_km":1.65},{"id":30114,"code_insee":"70021","nom_standard":"Andornay","nom_a":null,"nom_de":null,"slug_ville":"andornay","departement_id":0,"code_postal":"70200","population":175,"superficie_km2":"146.93","latitude_centre":"47.6594","longitude_centre":"6.5991","distance_km":2.72},{"id":30154,"code_insee":"70064","nom_standard":"Belverne","nom_a":null,"nom_de":null,"slug_ville":"belverne","departement_id":0,"code_postal":"70400","population":134,"superficie_km2":"623.26","latitude_centre":"47.6293","longitude_centre":"6.6541","distance_km":2.81},{"id":0,"code_insee":"70313","nom_standard":"Lyoffans","nom_a":null,"nom_de":null,"slug_ville":"lyoffans","departement_id":0,"code_postal":"70200","population":452,"superficie_km2":"450.03","latitude_centre":"47.6454","longitude_centre":"6.5922","distance_km":3.07},{"id":30293,"code_insee":"70221","nom_standard":"Étobon","nom_a":null,"nom_de":null,"slug_ville":"etobon","departement_id":0,"code_postal":"70400","population":273,"superficie_km2":"1225.41","latitude_centre":"47.6426","longitude_centre":"6.675","distance_km":3.28},{"id":0,"code_insee":"70318","nom_standard":"Magny-Danigon","nom_a":null,"nom_de":null,"slug_ville":"magny-danigon","departement_id":0,"code_postal":"70200","population":450,"superficie_km2":"769.51","latitude_centre":"47.6806","longitude_centre":"6.6147","distance_km":3.66},{"id":0,"code_insee":"70306","nom_standard":"Lomont","nom_a":null,"nom_de":null,"slug_ville":"lomont","departement_id":0,"code_postal":"70200","population":482,"superficie_km2":"1138.51","latitude_centre":"47.6228","longitude_centre":"6.6009","distance_km":3.85},{"id":0,"code_insee":"70403","nom_standard":"Palante","nom_a":null,"nom_de":null,"slug_ville":"palante","departement_id":0,"code_postal":"70200","population":242,"superficie_km2":"353.35","latitude_centre":"47.6644","longitude_centre":"6.5818","distance_km":4.13},{"id":30259,"code_insee":"70182","nom_standard":"Courmont","nom_a":null,"nom_de":null,"slug_ville":"courmont","departement_id":0,"code_postal":"70400","population":119,"superficie_km2":"641.70","latitude_centre":"47.6117","longitude_centre":"6.6451","distance_km":4.36},{"id":30229,"code_insee":"70149","nom_standard":"Chenebier","nom_a":null,"nom_de":null,"slug_ville":"chenebier","departement_id":0,"code_postal":"70400","population":701,"superficie_km2":"911.70","latitude_centre":"47.6465","longitude_centre":"6.7048","distance_km":5.42},{"id":30300,"code_insee":"70229","nom_standard":"Faymont","nom_a":null,"nom_de":null,"slug_ville":"faymont","departement_id":0,"code_postal":"70200","population":253,"superficie_km2":"797.72","latitude_centre":"47.6058","longitude_centre":"6.5983","distance_km":5.55},{"id":30255,"code_insee":"70178","nom_standard":"La Côte","nom_a":null,"nom_de":null,"slug_ville":"la-cote","departement_id":0,"code_postal":"70200","population":549,"superficie_km2":"688.70","latitude_centre":"47.6882","longitude_centre":"6.5727","distance_km":6.18},{"id":0,"code_insee":"70260","nom_standard":"Frotey-lès-Lure","nom_a":null,"nom_de":null,"slug_ville":"frotey-les-lure","departement_id":0,"code_postal":"70200","population":689,"superficie_km2":"730.59","latitude_centre":"47.6581","longitude_centre":"6.546","distance_km":6.55},{"id":0,"code_insee":"70120","nom_standard":"Champagney","nom_a":null,"nom_de":null,"slug_ville":"champagney","departement_id":0,"code_postal":"70290","population":3647,"superficie_km2":"3715.41","latitude_centre":"47.6991","longitude_centre":"6.6856","distance_km":6.75},{"id":30205,"code_insee":"70121","nom_standard":"Champey","nom_a":null,"nom_de":null,"slug_ville":"champey","departement_id":0,"code_postal":"70400","population":790,"superficie_km2":"1119.58","latitude_centre":"47.5923","longitude_centre":"6.6805","distance_km":7.35},{"id":0,"code_insee":"70451","nom_standard":"Ronchamp","nom_a":null,"nom_de":null,"slug_ville":"ronchamp","departement_id":0,"code_postal":"70250","population":2737,"superficie_km2":"2342.56","latitude_centre":"47.7161","longitude_centre":"6.6375","distance_km":7.36},{"id":0,"code_insee":"70328","nom_standard":"Malbouhans","nom_a":null,"nom_de":null,"slug_ville":"malbouhans","departement_id":0,"code_postal":"70200","population":337,"superficie_km2":"768.24","latitude_centre":"47.7111","longitude_centre":"6.5786","distance_km":7.91},{"id":0,"code_insee":"70277","nom_standard":"Granges-le-Bourg","nom_a":null,"nom_de":null,"slug_ville":"granges-le-bourg","departement_id":0,"code_postal":"70400","population":379,"superficie_km2":"1035.00","latitude_centre":"47.5775","longitude_centre":"6.5896","distance_km":8.68},{"id":0,"code_insee":"70477","nom_standard":"Saulnot","nom_a":null,"nom_de":null,"slug_ville":"saulnot","departement_id":0,"code_postal":"70400","population":758,"superficie_km2":"2667.77","latitude_centre":"47.5673","longitude_centre":"6.6339","distance_km":9.2}]}