{"ville":{"id":13943,"code_insee":"15072","nom_standard":"Freix-Anglards","nom_a":null,"nom_de":null,"slug_ville":"freix-anglards","departement_id":0,"code_postal":"15310","population":215,"superficie_km2":"1768.43","latitude_centre":"45.018","longitude_centre":"2.3791","dep_code":"15","dep_nom":"Cantal","dep_slug":"cantal","reg_code":"84","reg_nom":"Auvergne-Rhône-Alpes","reg_slug":"auvergne-rhone-alpes"},"departement":{"code":"15","nom":"Cantal","slug":"cantal"},"region":{"code":"84","nom":"Auvergne-Rhône-Alpes","slug":"auvergne-rhone-alpes"},"villes_proches":[{"id":0,"code_insee":"15083","nom_standard":"Jussac","nom_a":null,"nom_de":null,"slug_ville":"jussac","departement_id":0,"code_postal":"15250","population":2040,"superficie_km2":"1862.86","latitude_centre":"44.997","longitude_centre":"2.4189","distance_km":3.9},{"id":0,"code_insee":"15175","nom_standard":"Saint-Cernin","nom_a":null,"nom_de":null,"slug_ville":"saint-cernin","departement_id":0,"code_postal":"15310","population":1039,"superficie_km2":"4668.29","latitude_centre":"45.0495","longitude_centre":"2.4223","distance_km":4.88},{"id":0,"code_insee":"15233","nom_standard":"Teissières-de-Cornet","nom_a":null,"nom_de":null,"slug_ville":"teissieres-de-cornet","departement_id":0,"code_postal":"15250","population":319,"superficie_km2":"931.12","latitude_centre":"44.9753","longitude_centre":"2.3607","distance_km":4.96},{"id":13895,"code_insee":"15016","nom_standard":"Ayrens","nom_a":null,"nom_de":null,"slug_ville":"ayrens","departement_id":0,"code_postal":"15250","population":614,"superficie_km2":"2582.43","latitude_centre":"44.9907","longitude_centre":"2.3266","distance_km":5.12},{"id":0,"code_insee":"15191","nom_standard":"Saint-Illide","nom_a":null,"nom_de":null,"slug_ville":"saint-illide","departement_id":0,"code_postal":"15310","population":656,"superficie_km2":"3972.77","latitude_centre":"45.0463","longitude_centre":"2.3152","distance_km":5.93},{"id":0,"code_insee":"15160","nom_standard":"Reilhac","nom_a":null,"nom_de":null,"slug_ville":"reilhac","departement_id":0,"code_postal":"15250","population":1090,"superficie_km2":"897.99","latitude_centre":"44.9674","longitude_centre":"2.4251","distance_km":6.69},{"id":13930,"code_insee":"15056","nom_standard":"Crandelles","nom_a":null,"nom_de":null,"slug_ville":"crandelles","departement_id":0,"code_postal":"15250","population":872,"superficie_km2":"1247.46","latitude_centre":"44.9591","longitude_centre":"2.3589","distance_km":6.74},{"id":0,"code_insee":"15217","nom_standard":"Saint-Victor","nom_a":null,"nom_de":null,"slug_ville":"saint-victor","departement_id":0,"code_postal":"15150","population":91,"superficie_km2":"1368.48","latitude_centre":"45.0085","longitude_centre":"2.2905","distance_km":7.04},{"id":0,"code_insee":"15179","nom_standard":"Saint-Cirgues-de-Malbert","nom_a":null,"nom_de":null,"slug_ville":"saint-cirgues-de-malbert","departement_id":0,"code_postal":"15140","population":248,"superficie_km2":"1637.11","latitude_centre":"45.0858","longitude_centre":"2.3761","distance_km":7.54},{"id":0,"code_insee":"15118","nom_standard":"Marmanhac","nom_a":null,"nom_de":null,"slug_ville":"marmanhac","departement_id":0,"code_postal":"15250","population":667,"superficie_km2":"2419.09","latitude_centre":"45.0075","longitude_centre":"2.4789","distance_km":7.93},{"id":0,"code_insee":"15140","nom_standard":"Naucelles","nom_a":null,"nom_de":null,"slug_ville":"naucelles","departement_id":0,"code_postal":"15250","population":2181,"superficie_km2":"1173.01","latitude_centre":"44.952","longitude_centre":"2.4203","distance_km":8.02},{"id":0,"code_insee":"15269","nom_standard":"Besse","nom_a":null,"nom_de":null,"slug_ville":"besse","departement_id":0,"code_postal":"15140","population":136,"superficie_km2":"377.63","latitude_centre":"45.1021","longitude_centre":"2.3541","distance_km":9.56},{"id":0,"code_insee":"15204","nom_standard":"Saint-Paul-des-Landes","nom_a":null,"nom_de":null,"slug_ville":"saint-paul-des-landes","departement_id":0,"code_postal":"15250","population":1542,"superficie_km2":"1918.64","latitude_centre":"44.9475","longitude_centre":"2.3043","distance_km":9.8},{"id":0,"code_insee":"15238","nom_standard":"Tournemire","nom_a":null,"nom_de":null,"slug_ville":"tournemire","departement_id":0,"code_postal":"15310","population":116,"superficie_km2":"976.34","latitude_centre":"45.0571","longitude_centre":"2.4921","distance_km":9.89},{"id":0,"code_insee":"15176","nom_standard":"Saint-Chamant","nom_a":null,"nom_de":null,"slug_ville":"saint-chamant","departement_id":0,"code_postal":"15140","population":237,"superficie_km2":"1391.88","latitude_centre":"45.0947","longitude_centre":"2.4493","distance_km":10.16},{"id":0,"code_insee":"15200","nom_standard":"Saint-Martin-Cantalès","nom_a":null,"nom_de":null,"slug_ville":"saint-martin-cantales","departement_id":0,"code_postal":"15140","population":157,"superficie_km2":"1970.88","latitude_centre":"45.0909","longitude_centre":"2.2995","distance_km":10.24},{"id":0,"code_insee":"15014","nom_standard":"Aurillac","nom_a":null,"nom_de":null,"slug_ville":"aurillac","departement_id":0,"code_postal":"15000","population":26214,"superficie_km2":"2923.77","latitude_centre":"44.9281","longitude_centre":"2.4416","distance_km":11.14},{"id":0,"code_insee":"15186","nom_standard":"Sainte-Eulalie","nom_a":null,"nom_de":null,"slug_ville":"sainte-eulalie","departement_id":0,"code_postal":"15140","population":230,"superficie_km2":"1453.93","latitude_centre":"45.1243","longitude_centre":"2.3819","distance_km":11.82},{"id":0,"code_insee":"15267","nom_standard":"Ytrac","nom_a":null,"nom_de":null,"slug_ville":"ytrac","departement_id":0,"code_postal":"15000","population":4339,"superficie_km2":"3836.41","latitude_centre":"44.9125","longitude_centre":"2.3575","distance_km":11.85},{"id":0,"code_insee":"15202","nom_standard":"Saint-Martin-Valmeroux","nom_a":null,"nom_de":null,"slug_ville":"saint-martin-valmeroux","departement_id":0,"code_postal":"15140","population":716,"superficie_km2":"2607.56","latitude_centre":"45.1216","longitude_centre":"2.4452","distance_km":12.64}]}