{"ville":{"id":33002,"code_insee":"80362","nom_standard":"Frettemeule","nom_a":null,"nom_de":null,"slug_ville":"frettemeule","departement_id":0,"code_postal":"80220","population":296,"superficie_km2":"745.89","latitude_centre":"49.9996","longitude_centre":"1.6383","dep_code":"80","dep_nom":"Somme","dep_slug":"somme","reg_code":"32","reg_nom":"Hauts-de-France","reg_slug":"hauts-de-france"},"departement":{"code":"80","nom":"Somme","slug":"somme"},"region":{"code":"32","nom":"Hauts-de-France","slug":"hauts-de-france"},"villes_proches":[{"id":0,"code_insee":"80500","nom_standard":"Maisnières","nom_a":null,"nom_de":null,"slug_ville":"maisnieres","departement_id":0,"code_postal":"80220","population":472,"superficie_km2":"1272.40","latitude_centre":"50.0139","longitude_centre":"1.6132","distance_km":2.4},{"id":0,"code_insee":"80809","nom_standard":"Vismes","nom_a":null,"nom_de":null,"slug_ville":"vismes","departement_id":0,"code_postal":"80140","population":474,"superficie_km2":"1360.39","latitude_centre":"50.0004","longitude_centre":"1.6749","distance_km":2.62},{"id":0,"code_insee":"80760","nom_standard":"Tilloy-Floriville","nom_a":null,"nom_de":null,"slug_ville":"tilloy-floriville","departement_id":0,"code_postal":"80220","population":353,"superficie_km2":"807.82","latitude_centre":"49.9915","longitude_centre":"1.5977","distance_km":3.04},{"id":0,"code_insee":"80767","nom_standard":"Le Translay","nom_a":null,"nom_de":null,"slug_ville":"le-translay","departement_id":0,"code_postal":"80140","population":234,"superficie_km2":"561.81","latitude_centre":"49.9735","longitude_centre":"1.6631","distance_km":3.4},{"id":32703,"code_insee":"80008","nom_standard":"Aigneville","nom_a":null,"nom_de":null,"slug_ville":"aigneville","departement_id":0,"code_postal":"80210","population":904,"superficie_km2":"1077.60","latitude_centre":"50.0356","longitude_centre":"1.6109","distance_km":4.46},{"id":32798,"code_insee":"80120","nom_standard":"Bouillancourt-en-Séry","nom_a":null,"nom_de":null,"slug_ville":"bouillancourt-en-sery","departement_id":0,"code_postal":"80220","population":540,"superficie_km2":"1612.89","latitude_centre":"49.959","longitude_centre":"1.6302","distance_km":4.55},{"id":32783,"code_insee":"80104","nom_standard":"Biencourt","nom_a":null,"nom_de":null,"slug_ville":"biencourt","departement_id":0,"code_postal":"80140","population":137,"superficie_km2":"222.61","latitude_centre":"49.9758","longitude_centre":"1.6944","distance_km":4.81},{"id":0,"code_insee":"80518","nom_standard":"Martainneville","nom_a":null,"nom_de":null,"slug_ville":"martainneville","departement_id":0,"code_postal":"80140","population":410,"superficie_km2":"748.01","latitude_centre":"49.9987","longitude_centre":"1.7075","distance_km":4.95},{"id":0,"code_insee":"80765","nom_standard":"Tours-en-Vimeu","nom_a":null,"nom_de":null,"slug_ville":"tours-en-vimeu","departement_id":0,"code_postal":"80210","population":805,"superficie_km2":"1338.84","latitude_centre":"50.0352","longitude_centre":"1.6818","distance_km":5.03},{"id":0,"code_insee":"80373","nom_standard":"Gamaches","nom_a":null,"nom_de":null,"slug_ville":"gamaches","departement_id":0,"code_postal":"80220","population":2397,"superficie_km2":"987.75","latitude_centre":"49.9977","longitude_centre":"1.5629","distance_km":5.39},{"id":32804,"code_insee":"80126","nom_standard":"Bouttencourt","nom_a":null,"nom_de":null,"slug_ville":"bouttencourt","departement_id":0,"code_postal":"80220","population":927,"superficie_km2":"774.55","latitude_centre":"49.9537","longitude_centre":"1.6131","distance_km":5.41},{"id":32824,"code_insee":"80148","nom_standard":"Buigny-lès-Gamaches","nom_a":null,"nom_de":null,"slug_ville":"buigny-les-gamaches","departement_id":0,"code_postal":"80220","population":397,"superficie_km2":"481.30","latitude_centre":"50.0182","longitude_centre":"1.5679","distance_km":5.44},{"id":32984,"code_insee":"80343","nom_standard":"Framicourt","nom_a":null,"nom_de":null,"slug_ville":"framicourt","departement_id":0,"code_postal":"80140","population":151,"superficie_km2":"501.62","latitude_centre":"49.9543","longitude_centre":"1.676","distance_km":5.71},{"id":0,"code_insee":"80662","nom_standard":"Ramburelles","nom_a":null,"nom_de":null,"slug_ville":"ramburelles","departement_id":0,"code_postal":"80140","population":262,"superficie_km2":"460.98","latitude_centre":"49.9682","longitude_centre":"1.7095","distance_km":6.17},{"id":0,"code_insee":"80308","nom_standard":"Feuquières-en-Vimeu","nom_a":null,"nom_de":null,"slug_ville":"feuquieres-en-vimeu","departement_id":0,"code_postal":"80210","population":2414,"superficie_km2":"798.51","latitude_centre":"50.0597","longitude_centre":"1.6027","distance_km":7.15},{"id":31900,"code_insee":"76441","nom_standard":"Monchaux-Soreng","nom_a":null,"nom_de":null,"slug_ville":"monchaux-soreng","departement_id":0,"code_postal":"76340","population":607,"superficie_km2":"1013.20","latitude_centre":"49.9454","longitude_centre":"1.5789","distance_km":7.37},{"id":0,"code_insee":"80190","nom_standard":"Chépy","nom_a":null,"nom_de":null,"slug_ville":"chepy","departement_id":0,"code_postal":"80210","population":1190,"superficie_km2":"731.94","latitude_centre":"50.0673","longitude_centre":"1.6443","distance_km":7.54},{"id":0,"code_insee":"80663","nom_standard":"Rambures","nom_a":null,"nom_de":null,"slug_ville":"rambures","departement_id":0,"code_postal":"80140","population":379,"superficie_km2":"992.01","latitude_centre":"49.9406","longitude_centre":"1.6904","distance_km":7.54},{"id":32700,"code_insee":"80004","nom_standard":"Acheux-en-Vimeu","nom_a":null,"nom_de":null,"slug_ville":"acheux-en-vimeu","departement_id":0,"code_postal":"80210","population":501,"superficie_km2":"1232.25","latitude_centre":"50.0668","longitude_centre":"1.6688","distance_km":7.78},{"id":0,"code_insee":"80587","nom_standard":"Neslette","nom_a":null,"nom_de":null,"slug_ville":"neslette","departement_id":0,"code_postal":"80140","population":89,"superficie_km2":"204.33","latitude_centre":"49.9261","longitude_centre":"1.6639","distance_km":8.38}]}