{"ville":{"id":11615,"code_insee":"07092","nom_standard":"Freyssenet","nom_a":null,"nom_de":null,"slug_ville":"freyssenet","departement_id":0,"code_postal":"07000","population":48,"superficie_km2":"970.61","latitude_centre":"44.6881","longitude_centre":"4.5466","dep_code":"07","dep_nom":"Ardèche","dep_slug":"ardeche","reg_code":"84","reg_nom":"Auvergne-Rhône-Alpes","reg_slug":"auvergne-rhone-alpes"},"departement":{"code":"07","nom":"Ardèche","slug":"ardeche"},"region":{"code":"84","nom":"Auvergne-Rhône-Alpes","slug":"auvergne-rhone-alpes"},"villes_proches":[{"id":0,"code_insee":"07288","nom_standard":"Saint-Priest","nom_a":null,"nom_de":null,"slug_ville":"saint-priest","departement_id":0,"code_postal":"07000","population":1345,"superficie_km2":"1980.34","latitude_centre":"44.7148","longitude_centre":"4.5389","distance_km":3.03},{"id":11605,"code_insee":"07077","nom_standard":"Darbres","nom_a":null,"nom_de":null,"slug_ville":"darbres","departement_id":0,"code_postal":"07170","population":272,"superficie_km2":"1634.90","latitude_centre":"44.6597","longitude_centre":"4.5216","distance_km":3.73},{"id":11572,"code_insee":"07032","nom_standard":"Berzème","nom_a":null,"nom_de":null,"slug_ville":"berzeme","departement_id":0,"code_postal":"07580","population":159,"superficie_km2":"1823.98","latitude_centre":"44.6514","longitude_centre":"4.5717","distance_km":4.54},{"id":0,"code_insee":"07194","nom_standard":"Rochessauve","nom_a":null,"nom_de":null,"slug_ville":"rochessauve","departement_id":0,"code_postal":"07210","population":495,"superficie_km2":"1744.13","latitude_centre":"44.6779","longitude_centre":"4.6063","distance_km":4.85},{"id":0,"code_insee":"07340","nom_standard":"Veyras","nom_a":null,"nom_de":null,"slug_ville":"veyras","departement_id":0,"code_postal":"07000","population":1505,"superficie_km2":"779.61","latitude_centre":"44.7346","longitude_centre":"4.5541","distance_km":5.2},{"id":0,"code_insee":"07263","nom_standard":"Saint-Laurent-sous-Coiron","nom_a":null,"nom_de":null,"slug_ville":"saint-laurent-sous-coiron","departement_id":0,"code_postal":"07170","population":122,"superficie_km2":"1559.22","latitude_centre":"44.6726","longitude_centre":"4.4838","distance_km":5.26},{"id":0,"code_insee":"07186","nom_standard":"Privas","nom_a":null,"nom_de":null,"slug_ville":"privas","departement_id":0,"code_postal":"07000","population":8538,"superficie_km2":"1201.34","latitude_centre":"44.7214","longitude_centre":"4.5949","distance_km":5.32},{"id":0,"code_insee":"07008","nom_standard":"Alissas","nom_a":null,"nom_de":null,"slug_ville":"alissas","departement_id":0,"code_postal":"07210","population":1519,"superficie_km2":"1246.25","latitude_centre":"44.7089","longitude_centre":"4.6139","distance_km":5.8},{"id":0,"code_insee":"07242","nom_standard":"Saint-Gineys-en-Coiron","nom_a":null,"nom_de":null,"slug_ville":"saint-gineys-en-coiron","departement_id":0,"code_postal":"07580","population":125,"superficie_km2":"1356.70","latitude_centre":"44.6346","longitude_centre":"4.5402","distance_km":5.97},{"id":0,"code_insee":"07230","nom_standard":"Saint-Étienne-de-Boulogne","nom_a":null,"nom_de":null,"slug_ville":"saint-etienne-de-boulogne","departement_id":0,"code_postal":"07200","population":399,"superficie_km2":"1513.93","latitude_centre":"44.7015","longitude_centre":"4.4709","distance_km":6.17},{"id":0,"code_insee":"07283","nom_standard":"Saint-Pierre-la-Roche","nom_a":null,"nom_de":null,"slug_ville":"saint-pierre-la-roche","departement_id":0,"code_postal":"07400","population":67,"superficie_km2":"998.43","latitude_centre":"44.6553","longitude_centre":"4.6188","distance_km":6.77},{"id":0,"code_insee":"07179","nom_standard":"Pourchères","nom_a":null,"nom_de":null,"slug_ville":"pourcheres","departement_id":0,"code_postal":"07000","population":136,"superficie_km2":"786.41","latitude_centre":"44.7423","longitude_centre":"4.5051","distance_km":6.86},{"id":0,"code_insee":"07098","nom_standard":"Gourdon","nom_a":null,"nom_de":null,"slug_ville":"gourdon","departement_id":0,"code_postal":"07000","population":85,"superficie_km2":"1278.60","latitude_centre":"44.7328","longitude_centre":"4.4646","distance_km":8.17},{"id":0,"code_insee":"07146","nom_standard":"Lyas","nom_a":null,"nom_de":null,"slug_ville":"lyas","departement_id":0,"code_postal":"07000","population":592,"superficie_km2":"814.77","latitude_centre":"44.7545","longitude_centre":"4.5976","distance_km":8.41},{"id":0,"code_insee":"07072","nom_standard":"Coux","nom_a":null,"nom_de":null,"slug_ville":"coux","departement_id":0,"code_postal":"07000","population":1635,"superficie_km2":"1202.63","latitude_centre":"44.7434","longitude_centre":"4.6195","distance_km":8.43},{"id":11603,"code_insee":"07074","nom_standard":"Creysseilles","nom_a":null,"nom_de":null,"slug_ville":"creysseilles","departement_id":0,"code_postal":"07000","population":158,"superficie_km2":"1026.02","latitude_centre":"44.7645","longitude_centre":"4.5329","distance_km":8.56},{"id":11555,"code_insee":"07004","nom_standard":"Ajoux","nom_a":null,"nom_de":null,"slug_ville":"ajoux","departement_id":0,"code_postal":"07000","population":81,"superficie_km2":"1239.47","latitude_centre":"44.7541","longitude_centre":"4.4872","distance_km":8.71},{"id":0,"code_insee":"07311","nom_standard":"Sceautres","nom_a":null,"nom_de":null,"slug_ville":"sceautres","departement_id":0,"code_postal":"07400","population":143,"superficie_km2":"1457.99","latitude_centre":"44.6158","longitude_centre":"4.609","distance_km":9.43},{"id":0,"code_insee":"07287","nom_standard":"Saint-Pons","nom_a":null,"nom_de":null,"slug_ville":"saint-pons","departement_id":0,"code_postal":"07580","population":308,"superficie_km2":"1668.39","latitude_centre":"44.5985","longitude_centre":"4.5725","distance_km":10.17},{"id":0,"code_insee":"07184","nom_standard":"Pranles","nom_a":null,"nom_de":null,"slug_ville":"pranles","departement_id":0,"code_postal":"07000","population":499,"superficie_km2":"2913.32","latitude_centre":"44.781","longitude_centre":"4.5818","distance_km":10.7}]}