{"ville":{"id":11369,"code_insee":"05060","nom_standard":"Furmeyer","nom_a":null,"nom_de":null,"slug_ville":"furmeyer","departement_id":0,"code_postal":"05400","population":169,"superficie_km2":"1422.99","latitude_centre":"44.5379","longitude_centre":"5.8751","dep_code":"05","dep_nom":"Hautes-Alpes","dep_slug":"hautes-alpes","reg_code":"93","reg_nom":"Provence-Alpes-Côte d'Azur","reg_slug":"provence-alpes-cote-d-azur"},"departement":{"code":"05","nom":"Hautes-Alpes","slug":"hautes-alpes"},"region":{"code":"93","nom":"Provence-Alpes-Côte d'Azur","slug":"provence-alpes-cote-d-azur"},"villes_proches":[{"id":0,"code_insee":"05087","nom_standard":"Montmaur","nom_a":null,"nom_de":null,"slug_ville":"montmaur","departement_id":0,"code_postal":"05400","population":532,"superficie_km2":"4877.63","latitude_centre":"44.5774","longitude_centre":"5.8707","distance_km":4.41},{"id":11351,"code_insee":"05035","nom_standard":"Châteauneuf-d'Oze","nom_a":null,"nom_de":null,"slug_ville":"chateauneuf-d-oze","departement_id":0,"code_postal":"05400","population":30,"superficie_km2":"2665.32","latitude_centre":"44.503","longitude_centre":"5.9028","distance_km":4.46},{"id":0,"code_insee":"05179","nom_standard":"Veynes","nom_a":null,"nom_de":null,"slug_ville":"veynes","departement_id":0,"code_postal":"05400","population":3214,"superficie_km2":"4368.97","latitude_centre":"44.5599","longitude_centre":"5.8227","distance_km":4.82},{"id":0,"code_insee":"05131","nom_standard":"Saint-Auban-d'Oze","nom_a":null,"nom_de":null,"slug_ville":"saint-auban-d-oze","departement_id":0,"code_postal":"05400","population":75,"superficie_km2":"1334.69","latitude_centre":"44.4874","longitude_centre":"5.8458","distance_km":6.08},{"id":0,"code_insee":"05075","nom_standard":"Manteyer","nom_a":null,"nom_de":null,"slug_ville":"manteyer","departement_id":0,"code_postal":"05400","population":500,"superficie_km2":"2530.17","latitude_centre":"44.5317","longitude_centre":"5.9553","distance_km":6.39},{"id":0,"code_insee":"05099","nom_standard":"Oze","nom_a":null,"nom_de":null,"slug_ville":"oze","departement_id":0,"code_postal":"05400","population":103,"superficie_km2":"1206.09","latitude_centre":"44.5057","longitude_centre":"5.798","distance_km":7.08},{"id":0,"code_insee":"05158","nom_standard":"Le Saix","nom_a":null,"nom_de":null,"slug_ville":"le-saix","departement_id":0,"code_postal":"05400","population":126,"superficie_km2":"2240.08","latitude_centre":"44.4655","longitude_centre":"5.8402","distance_km":8.51},{"id":11332,"code_insee":"05010","nom_standard":"Aspres-sur-Buëch","nom_a":null,"nom_de":null,"slug_ville":"aspres-sur-buech","departement_id":0,"code_postal":"05140","population":828,"superficie_km2":"4262.00","latitude_centre":"44.5565","longitude_centre":"5.7695","distance_km":8.62},{"id":11358,"code_insee":"05049","nom_standard":"Esparron","nom_a":null,"nom_de":null,"slug_ville":"esparron","departement_id":0,"code_postal":"05110","population":53,"superficie_km2":"2425.84","latitude_centre":"44.4597","longitude_centre":"5.8875","distance_km":8.75},{"id":0,"code_insee":"05123","nom_standard":"La Roche-des-Arnauds","nom_a":null,"nom_de":null,"slug_ville":"la-roche-des-arnauds","departement_id":0,"code_postal":"05400","population":1685,"superficie_km2":"5282.76","latitude_centre":"44.59","longitude_centre":"5.9596","distance_km":8.85},{"id":11346,"code_insee":"05028","nom_standard":"Chabestan","nom_a":null,"nom_de":null,"slug_ville":"chabestan","departement_id":0,"code_postal":"05400","population":173,"superficie_km2":"1233.31","latitude_centre":"44.4793","longitude_centre":"5.7832","distance_km":9.78},{"id":0,"code_insee":"05168","nom_standard":"Sigoyer","nom_a":null,"nom_de":null,"slug_ville":"sigoyer","departement_id":0,"code_postal":"05130","population":741,"superficie_km2":"2512.28","latitude_centre":"44.4801","longitude_centre":"5.9716","distance_km":9.99},{"id":11368,"code_insee":"05059","nom_standard":"La Freissinouse","nom_a":null,"nom_de":null,"slug_ville":"la-freissinouse","departement_id":0,"code_postal":"05000","population":972,"superficie_km2":"789.18","latitude_centre":"44.5361","longitude_centre":"6.0054","distance_km":10.33},{"id":0,"code_insee":"05100","nom_standard":"Pelleautier","nom_a":null,"nom_de":null,"slug_ville":"pelleautier","departement_id":0,"code_postal":"05000","population":863,"superficie_km2":"1274.55","latitude_centre":"44.5052","longitude_centre":"5.9977","distance_km":10.38},{"id":11364,"code_insee":"05055","nom_standard":"La Faurie","nom_a":null,"nom_de":null,"slug_ville":"la-faurie","departement_id":0,"code_postal":"05140","population":287,"superficie_km2":"3143.00","latitude_centre":"44.5751","longitude_centre":"5.7378","distance_km":11.64},{"id":11335,"code_insee":"05013","nom_standard":"Barcillonnette","nom_a":null,"nom_de":null,"slug_ville":"barcillonnette","departement_id":0,"code_postal":"05110","population":148,"superficie_km2":"1970.65","latitude_centre":"44.4333","longitude_centre":"5.8973","distance_km":11.76},{"id":0,"code_insee":"05184","nom_standard":"Vitrolles","nom_a":null,"nom_de":null,"slug_ville":"vitrolles","departement_id":0,"code_postal":"05110","population":221,"superficie_km2":"1450.43","latitude_centre":"44.4296","longitude_centre":"5.9485","distance_km":13.38},{"id":0,"code_insee":"05071","nom_standard":"Lardier-et-Valença","nom_a":null,"nom_de":null,"slug_ville":"lardier-et-valenca","departement_id":0,"code_postal":"05110","population":391,"superficie_km2":"1480.54","latitude_centre":"44.4372","longitude_centre":"5.9721","distance_km":13.59},{"id":0,"code_insee":"05165","nom_standard":"Savournon","nom_a":null,"nom_de":null,"slug_ville":"savournon","departement_id":0,"code_postal":"05700","population":242,"superficie_km2":"3948.51","latitude_centre":"44.4234","longitude_centre":"5.7965","distance_km":14.18},{"id":0,"code_insee":"05139","nom_standard":"Dévoluy","nom_a":null,"nom_de":null,"slug_ville":"devoluy","departement_id":0,"code_postal":"05250","population":932,"superficie_km2":"18656.28","latitude_centre":"44.6847","longitude_centre":"5.8917","distance_km":16.38}]}