{"ville":{"id":19906,"code_insee":"34110","nom_standard":"Galargues","nom_a":null,"nom_de":null,"slug_ville":"galargues","departement_id":0,"code_postal":"34160","population":752,"superficie_km2":"1139.80","latitude_centre":"43.7844","longitude_centre":"4.0141","dep_code":"34","dep_nom":"Hérault","dep_slug":"herault","reg_code":"76","reg_nom":"Occitanie","reg_slug":"occitanie"},"departement":{"code":"34","nom":"Hérault","slug":"herault"},"region":{"code":"76","nom":"Occitanie","slug":"occitanie"},"villes_proches":[{"id":19872,"code_insee":"34048","nom_standard":"Campagne","nom_a":null,"nom_de":null,"slug_ville":"campagne","departement_id":0,"code_postal":"34160","population":318,"superficie_km2":"487.93","latitude_centre":"43.7868","longitude_centre":"4.0332","distance_km":1.56},{"id":0,"code_insee":"34112","nom_standard":"Garrigues","nom_a":null,"nom_de":null,"slug_ville":"garrigues","departement_id":0,"code_postal":"34160","population":236,"superficie_km2":"493.58","latitude_centre":"43.7996","longitude_centre":"4.0129","distance_km":1.69},{"id":19867,"code_insee":"34043","nom_standard":"Buzignargues","nom_a":null,"nom_de":null,"slug_ville":"buzignargues","departement_id":0,"code_postal":"34160","population":378,"superficie_km2":"461.01","latitude_centre":"43.7721","longitude_centre":"3.9951","distance_km":2.05},{"id":18488,"code_insee":"30018","nom_standard":"Aspères","nom_a":null,"nom_de":null,"slug_ville":"asperes","departement_id":0,"code_postal":"30250","population":563,"superficie_km2":"1001.76","latitude_centre":"43.8066","longitude_centre":"4.0325","distance_km":2.88},{"id":0,"code_insee":"34263","nom_standard":"Saint-Hilaire-de-Beauvoir","nom_a":null,"nom_de":null,"slug_ville":"saint-hilaire-de-beauvoir","departement_id":0,"code_postal":"34160","population":461,"superficie_km2":"463.26","latitude_centre":"43.752","longitude_centre":"4.0175","distance_km":3.61},{"id":0,"code_insee":"34296","nom_standard":"Saussines","nom_a":null,"nom_de":null,"slug_ville":"saussines","departement_id":0,"code_postal":"34160","population":1001,"superficie_km2":"628.10","latitude_centre":"43.7581","longitude_centre":"4.05","distance_km":4.11},{"id":0,"code_insee":"34265","nom_standard":"Saint-Jean-de-Cornies","nom_a":null,"nom_de":null,"slug_ville":"saint-jean-de-cornies","departement_id":0,"code_postal":"34160","population":858,"superficie_km2":"301.68","latitude_centre":"43.7456","longitude_centre":"4.0038","distance_km":4.39},{"id":18663,"code_insee":"30306","nom_standard":"Salinelles","nom_a":null,"nom_de":null,"slug_ville":"salinelles","departement_id":0,"code_postal":"30250","population":585,"superficie_km2":"887.23","latitude_centre":"43.8095","longitude_centre":"4.0634","distance_km":4.84},{"id":18625,"code_insee":"30244","nom_standard":"Saint-Clément","nom_a":null,"nom_de":null,"slug_ville":"saint-clement","departement_id":0,"code_postal":"30260","population":364,"superficie_km2":"491.74","latitude_centre":"43.828","longitude_centre":"4.0267","distance_km":4.95},{"id":0,"code_insee":"30321","nom_standard":"Sommières","nom_a":null,"nom_de":null,"slug_ville":"sommieres","departement_id":0,"code_postal":"30250","population":5073,"superficie_km2":"1037.97","latitude_centre":"43.7706","longitude_centre":"4.0812","distance_km":5.6},{"id":0,"code_insee":"34242","nom_standard":"Saint-Bauzille-de-Montmel","nom_a":null,"nom_de":null,"slug_ville":"saint-bauzille-de-montmel","departement_id":0,"code_postal":"34160","population":1246,"superficie_km2":"2146.17","latitude_centre":"43.7762","longitude_centre":"3.9434","distance_km":5.75},{"id":18517,"code_insee":"30069","nom_standard":"Carnas","nom_a":null,"nom_de":null,"slug_ville":"carnas","departement_id":0,"code_postal":"30260","population":537,"superficie_km2":"1580.65","latitude_centre":"43.8334","longitude_centre":"3.9886","distance_km":5.82},{"id":0,"code_insee":"34033","nom_standard":"Boisseron","nom_a":null,"nom_de":null,"slug_ville":"boisseron","departement_id":0,"code_postal":"34160","population":2185,"superficie_km2":"748.95","latitude_centre":"43.7535","longitude_centre":"4.0747","distance_km":5.96},{"id":0,"code_insee":"34027","nom_standard":"Beaulieu","nom_a":null,"nom_de":null,"slug_ville":"beaulieu","departement_id":0,"code_postal":"34160","population":2264,"superficie_km2":"789.21","latitude_centre":"43.7293","longitude_centre":"4.0256","distance_km":6.2},{"id":0,"code_insee":"34249","nom_standard":"Saint-Drézéry","nom_a":null,"nom_de":null,"slug_ville":"saint-drezery","departement_id":0,"code_postal":"34160","population":3006,"superficie_km2":"1043.72","latitude_centre":"43.7308","longitude_centre":"3.9764","distance_km":6.69},{"id":0,"code_insee":"34318","nom_standard":"Vacquières","nom_a":null,"nom_de":null,"slug_ville":"vacquieres","departement_id":0,"code_postal":"34270","population":772,"superficie_km2":"1470.90","latitude_centre":"43.8286","longitude_centre":"3.953","distance_km":6.94},{"id":0,"code_insee":"34164","nom_standard":"Montaud","nom_a":null,"nom_de":null,"slug_ville":"montaud","departement_id":0,"code_postal":"34160","population":1014,"superficie_km2":"1301.75","latitude_centre":"43.7422","longitude_centre":"3.9502","distance_km":6.95},{"id":0,"code_insee":"34227","nom_standard":"Restinclières","nom_a":null,"nom_de":null,"slug_ville":"restinclieres","departement_id":0,"code_postal":"34160","population":2612,"superficie_km2":"626.72","latitude_centre":"43.7238","longitude_centre":"4.0393","distance_km":7.04},{"id":18553,"code_insee":"30121","nom_standard":"Gailhan","nom_a":null,"nom_de":null,"slug_ville":"gailhan","departement_id":0,"code_postal":"30260","population":313,"superficie_km2":"548.52","latitude_centre":"43.8467","longitude_centre":"4.031","distance_km":7.06},{"id":18563,"code_insee":"30144","nom_standard":"Lecques","nom_a":null,"nom_de":null,"slug_ville":"lecques","departement_id":0,"code_postal":"30250","population":473,"superficie_km2":"523.58","latitude_centre":"43.8423","longitude_centre":"4.0561","distance_km":7.27}]}