{"ville":{"id":26774,"code_insee":"60268","nom_standard":"Gannes","nom_a":null,"nom_de":null,"slug_ville":"gannes","departement_id":0,"code_postal":"60120","population":365,"superficie_km2":"855.46","latitude_centre":"49.5749","longitude_centre":"2.4164","dep_code":"60","dep_nom":"Oise","dep_slug":"oise","reg_code":"32","reg_nom":"Hauts-de-France","reg_slug":"hauts-de-france"},"departement":{"code":"60","nom":"Oise","slug":"oise"},"region":{"code":"32","nom":"Hauts-de-France","slug":"hauts-de-france"},"villes_proches":[{"id":0,"code_insee":"60017","nom_standard":"Ansauvillers","nom_a":null,"nom_de":null,"slug_ville":"ansauvillers","departement_id":0,"code_postal":"60120","population":1134,"superficie_km2":"704.84","latitude_centre":"49.567","longitude_centre":"2.3865","distance_km":2.33},{"id":0,"code_insee":"60436","nom_standard":"Mory-Montcrux","nom_a":null,"nom_de":null,"slug_ville":"mory-montcrux","departement_id":0,"code_postal":"60120","population":84,"superficie_km2":"464.45","latitude_centre":"49.5943","longitude_centre":"2.3993","distance_km":2.48},{"id":0,"code_insee":"60311","nom_standard":"La Hérelle","nom_a":null,"nom_de":null,"slug_ville":"la-herelle","departement_id":0,"code_postal":"60120","population":237,"superficie_km2":"514.95","latitude_centre":"49.5998","longitude_centre":"2.4196","distance_km":2.78},{"id":0,"code_insee":"60522","nom_standard":"Quinquempoix","nom_a":null,"nom_de":null,"slug_ville":"quinquempoix","departement_id":0,"code_postal":"60130","population":320,"superficie_km2":"589.27","latitude_centre":"49.5467","longitude_centre":"2.4168","distance_km":3.14},{"id":0,"code_insee":"60564","nom_standard":"Sains-Morainvillers","nom_a":null,"nom_de":null,"slug_ville":"sains-morainvillers","departement_id":0,"code_postal":"60420","population":272,"superficie_km2":"1238.34","latitude_centre":"49.5806","longitude_centre":"2.4632","distance_km":3.43},{"id":26679,"code_insee":"60146","nom_standard":"Chepoix","nom_a":null,"nom_de":null,"slug_ville":"chepoix","departement_id":0,"code_postal":"60120","population":442,"superficie_km2":"897.06","latitude_centre":"49.6028","longitude_centre":"2.3899","distance_km":3.64},{"id":26657,"code_insee":"60112","nom_standard":"Brunvillers-la-Motte","nom_a":null,"nom_de":null,"slug_ville":"brunvillers-la-motte","departement_id":0,"code_postal":"60130","population":335,"superficie_km2":"649.75","latitude_centre":"49.5561","longitude_centre":"2.4595","distance_km":3.75},{"id":26638,"code_insee":"60085","nom_standard":"Bonvillers","nom_a":null,"nom_de":null,"slug_ville":"bonvillers","departement_id":0,"code_postal":"60120","population":189,"superficie_km2":"587.69","latitude_centre":"49.5871","longitude_centre":"2.3528","distance_km":4.78},{"id":0,"code_insee":"60496","nom_standard":"Plainville","nom_a":null,"nom_de":null,"slug_ville":"plainville","departement_id":0,"code_postal":"60120","population":159,"superficie_km2":"431.19","latitude_centre":"49.6128","longitude_centre":"2.4506","distance_km":4.88},{"id":0,"code_insee":"60701","nom_standard":"Wavignies","nom_a":null,"nom_de":null,"slug_ville":"wavignies","departement_id":0,"code_postal":"60130","population":1341,"superficie_km2":"990.08","latitude_centre":"49.5483","longitude_centre":"2.3569","distance_km":5.21},{"id":0,"code_insee":"60495","nom_standard":"Plainval","nom_a":null,"nom_de":null,"slug_ville":"plainval","departement_id":0,"code_postal":"60130","population":422,"superficie_km2":"912.82","latitude_centre":"49.5349","longitude_centre":"2.4589","distance_km":5.4},{"id":0,"code_insee":"60399","nom_standard":"Le Mesnil-Saint-Firmin","nom_a":null,"nom_de":null,"slug_ville":"le-mesnil-saint-firmin","departement_id":0,"code_postal":"60120","population":248,"superficie_km2":"412.28","latitude_centre":"49.6246","longitude_centre":"2.4092","distance_km":5.55},{"id":26673,"code_insee":"60133","nom_standard":"Catillon-Fumechon","nom_a":null,"nom_de":null,"slug_ville":"catillon-fumechon","departement_id":0,"code_postal":"60130","population":542,"superficie_km2":"1329.61","latitude_centre":"49.5312","longitude_centre":"2.3735","distance_km":5.76},{"id":26601,"code_insee":"60039","nom_standard":"Bacouël","nom_a":null,"nom_de":null,"slug_ville":"bacouel","departement_id":0,"code_postal":"60120","population":477,"superficie_km2":"560.76","latitude_centre":"49.6231","longitude_centre":"2.3805","distance_km":5.95},{"id":0,"code_insee":"60702","nom_standard":"Welles-Pérennes","nom_a":null,"nom_de":null,"slug_ville":"welles-perennes","departement_id":0,"code_postal":"60420","population":233,"superficie_km2":"1343.70","latitude_centre":"49.6132","longitude_centre":"2.4789","distance_km":6.2},{"id":0,"code_insee":"60615","nom_standard":"Sérévillers","nom_a":null,"nom_de":null,"slug_ville":"serevillers","departement_id":0,"code_postal":"60120","population":132,"superficie_km2":"329.50","latitude_centre":"49.6322","longitude_centre":"2.4364","distance_km":6.53},{"id":26656,"code_insee":"60111","nom_standard":"Broyes","nom_a":null,"nom_de":null,"slug_ville":"broyes","departement_id":0,"code_postal":"60120","population":150,"superficie_km2":"478.58","latitude_centre":"49.6291","longitude_centre":"2.4553","distance_km":6.65},{"id":0,"code_insee":"60581","nom_standard":"Saint-Just-en-Chaussée","nom_a":null,"nom_de":null,"slug_ville":"saint-just-en-chaussee","departement_id":0,"code_postal":"60130","population":5810,"superficie_km2":"1464.39","latitude_centre":"49.5132","longitude_centre":"2.4145","distance_km":6.86},{"id":0,"code_insee":"60627","nom_standard":"Tartigny","nom_a":null,"nom_de":null,"slug_ville":"tartigny","departement_id":0,"code_postal":"60120","population":250,"superficie_km2":"697.15","latitude_centre":"49.633","longitude_centre":"2.3664","distance_km":7.4},{"id":0,"code_insee":"60544","nom_standard":"Rocquencourt","nom_a":null,"nom_de":null,"slug_ville":"rocquencourt","departement_id":0,"code_postal":"60120","population":184,"superficie_km2":"981.93","latitude_centre":"49.6475","longitude_centre":"2.4115","distance_km":8.08}]}