{"ville":{"id":33449,"code_insee":"81100","nom_standard":"Garrevaques","nom_a":null,"nom_de":null,"slug_ville":"garrevaques","departement_id":0,"code_postal":"81700","population":398,"superficie_km2":"690.93","latitude_centre":"43.4959","longitude_centre":"1.9843","dep_code":"81","dep_nom":"Tarn","dep_slug":"tarn","reg_code":"76","reg_nom":"Occitanie","reg_slug":"occitanie"},"departement":{"code":"81","nom":"Tarn","slug":"tarn"},"region":{"code":"76","nom":"Occitanie","slug":"occitanie"},"villes_proches":[{"id":0,"code_insee":"81200","nom_standard":"Palleville","nom_a":null,"nom_de":null,"slug_ville":"palleville","departement_id":0,"code_postal":"81700","population":451,"superficie_km2":"649.03","latitude_centre":"43.5002","longitude_centre":"1.9926","distance_km":0.82},{"id":0,"code_insee":"81210","nom_standard":"Poudis","nom_a":null,"nom_de":null,"slug_ville":"poudis","departement_id":0,"code_postal":"81700","population":272,"superficie_km2":"462.81","latitude_centre":"43.5251","longitude_centre":"1.9803","distance_km":3.26},{"id":0,"code_insee":"31451","nom_standard":"Revel","nom_a":null,"nom_de":null,"slug_ville":"revel","departement_id":0,"code_postal":"31250","population":9762,"superficie_km2":"3567.53","latitude_centre":"43.4679","longitude_centre":"1.9975","distance_km":3.29},{"id":0,"code_insee":"81179","nom_standard":"Montgey","nom_a":null,"nom_de":null,"slug_ville":"montgey","departement_id":0,"code_postal":"81470","population":272,"superficie_km2":"993.71","latitude_centre":"43.5087","longitude_centre":"1.9418","distance_km":3.71},{"id":18973,"code_insee":"31400","nom_standard":"Nogaret","nom_a":null,"nom_de":null,"slug_ville":"nogaret","departement_id":0,"code_postal":"31540","population":96,"superficie_km2":"401.60","latitude_centre":"43.4934","longitude_centre":"1.9347","distance_km":4.01},{"id":0,"code_insee":"81032","nom_standard":"Blan","nom_a":null,"nom_de":null,"slug_ville":"blan","departement_id":0,"code_postal":"81700","population":1093,"superficie_km2":"1344.43","latitude_centre":"43.52","longitude_centre":"2.0245","distance_km":4.21},{"id":18954,"code_insee":"31371","nom_standard":"Montégut-Lauragais","nom_a":null,"nom_de":null,"slug_ville":"montegut-lauragais","departement_id":0,"code_postal":"31540","population":400,"superficie_km2":"774.08","latitude_centre":"43.4792","longitude_centre":"1.9341","distance_km":4.46},{"id":19018,"code_insee":"31463","nom_standard":"Roumens","nom_a":null,"nom_de":null,"slug_ville":"roumens","departement_id":0,"code_postal":"31540","population":250,"superficie_km2":"358.28","latitude_centre":"43.4634","longitude_centre":"1.9388","distance_km":5.15},{"id":0,"code_insee":"81270","nom_standard":"Saint-Sernin-lès-Lavaur","nom_a":null,"nom_de":null,"slug_ville":"saint-sernin-les-lavaur","departement_id":0,"code_postal":"81700","population":167,"superficie_km2":"426.71","latitude_centre":"43.5426","longitude_centre":"1.9737","distance_km":5.26},{"id":0,"code_insee":"81205","nom_standard":"Péchaudier","nom_a":null,"nom_de":null,"slug_ville":"pechaudier","departement_id":0,"code_postal":"81470","population":183,"superficie_km2":"682.24","latitude_centre":"43.5424","longitude_centre":"1.942","distance_km":6.19},{"id":33378,"code_insee":"81001","nom_standard":"Aguts","nom_a":null,"nom_de":null,"slug_ville":"aguts","departement_id":0,"code_postal":"81470","population":238,"superficie_km2":"983.10","latitude_centre":"43.5333","longitude_centre":"1.9271","distance_km":6.21},{"id":33399,"code_insee":"81027","nom_standard":"Belleserre","nom_a":null,"nom_de":null,"slug_ville":"belleserre","departement_id":0,"code_postal":"81540","population":171,"superficie_km2":"479.72","latitude_centre":"43.4902","longitude_centre":"2.0622","distance_km":6.32},{"id":0,"code_insee":"81214","nom_standard":"Puéchoursi","nom_a":null,"nom_de":null,"slug_ville":"puechoursi","departement_id":0,"code_postal":"81470","population":114,"superficie_km2":"359.68","latitude_centre":"43.5131","longitude_centre":"1.9056","distance_km":6.63},{"id":19036,"code_insee":"31491","nom_standard":"Saint-Julia","nom_a":null,"nom_de":null,"slug_ville":"saint-julia","departement_id":0,"code_postal":"31540","population":418,"superficie_km2":"1156.83","latitude_centre":"43.4943","longitude_centre":"1.8949","distance_km":7.21},{"id":0,"code_insee":"81142","nom_standard":"Lempaut","nom_a":null,"nom_de":null,"slug_ville":"lempaut","departement_id":0,"code_postal":"81700","population":878,"superficie_km2":"1416.20","latitude_centre":"43.5242","longitude_centre":"2.0677","distance_km":7.43},{"id":0,"code_insee":"31478","nom_standard":"Saint-Félix-Lauragais","nom_a":null,"nom_de":null,"slug_ville":"saint-felix-lauragais","departement_id":0,"code_postal":"31540","population":1252,"superficie_km2":"5218.89","latitude_centre":"43.454","longitude_centre":"1.9057","distance_km":7.87},{"id":33412,"code_insee":"81049","nom_standard":"Cahuzac","nom_a":null,"nom_de":null,"slug_ville":"cahuzac","departement_id":0,"code_postal":"81540","population":356,"superficie_km2":"563.64","latitude_centre":"43.4765","longitude_centre":"2.0797","distance_km":7.99},{"id":19096,"code_insee":"31569","nom_standard":"Vaudreuille","nom_a":null,"nom_de":null,"slug_ville":"vaudreuille","departement_id":0,"code_postal":"31250","population":392,"superficie_km2":"1143.08","latitude_centre":"43.4226","longitude_centre":"2.0008","distance_km":8.26},{"id":0,"code_insee":"81219","nom_standard":"Puylaurens","nom_a":null,"nom_de":null,"slug_ville":"puylaurens","departement_id":0,"code_postal":"81700","population":3257,"superficie_km2":"8218.11","latitude_centre":"43.5793","longitude_centre":"2.0087","distance_km":9.48},{"id":33389,"code_insee":"81015","nom_standard":"Appelle","nom_a":null,"nom_de":null,"slug_ville":"appelle","departement_id":0,"code_postal":"81700","population":66,"superficie_km2":"379.94","latitude_centre":"43.5809","longitude_centre":"1.9561","distance_km":9.72}]}