{"ville":{"id":29825,"code_insee":"68103","nom_standard":"Geispitzen","nom_a":null,"nom_de":null,"slug_ville":"geispitzen","departement_id":0,"code_postal":"68510","population":516,"superficie_km2":"604.26","latitude_centre":"47.6759","longitude_centre":"7.4377","dep_code":"68","dep_nom":"Haut-Rhin","dep_slug":"haut-rhin","reg_code":"44","reg_nom":"Grand Est","reg_slug":"grand-est"},"departement":{"code":"68","nom":"Haut-Rhin","slug":"haut-rhin"},"region":{"code":"44","nom":"Grand Est","slug":"grand-est"},"villes_proches":[{"id":0,"code_insee":"68301","nom_standard":"Schlierbach","nom_a":null,"nom_de":null,"slug_ville":"schlierbach","departement_id":0,"code_postal":"68440","population":1299,"superficie_km2":"1188.82","latitude_centre":"47.6841","longitude_centre":"7.4313","distance_km":1.03},{"id":0,"code_insee":"68357","nom_standard":"Waltenheim","nom_a":null,"nom_de":null,"slug_ville":"waltenheim","departement_id":0,"code_postal":"68510","population":506,"superficie_km2":"236.19","latitude_centre":"47.6552","longitude_centre":"7.4235","distance_km":2.54},{"id":0,"code_insee":"68309","nom_standard":"Sierentz","nom_a":null,"nom_de":null,"slug_ville":"sierentz","departement_id":0,"code_postal":"68510","population":4409,"superficie_km2":"1322.23","latitude_centre":"47.6639","longitude_centre":"7.467","distance_km":2.57},{"id":0,"code_insee":"68072","nom_standard":"Dietwiller","nom_a":null,"nom_de":null,"slug_ville":"dietwiller","departement_id":0,"code_postal":"68440","population":1385,"superficie_km2":"1106.11","latitude_centre":"47.6988","longitude_centre":"7.4284","distance_km":2.64},{"id":0,"code_insee":"68341","nom_standard":"Uffheim","nom_a":null,"nom_de":null,"slug_ville":"uffheim","departement_id":0,"code_postal":"68510","population":1142,"superficie_km2":"434.86","latitude_centre":"47.646","longitude_centre":"7.4372","distance_km":3.32},{"id":0,"code_insee":"68174","nom_standard":"Landser","nom_a":null,"nom_de":null,"slug_ville":"landser","departement_id":0,"code_postal":"68440","population":1633,"superficie_km2":"304.19","latitude_centre":"47.6877","longitude_centre":"7.3852","distance_km":4.14},{"id":0,"code_insee":"68163","nom_standard":"Kembs","nom_a":null,"nom_de":null,"slug_ville":"kembs","departement_id":0,"code_postal":"68680","population":5834,"superficie_km2":"1649.53","latitude_centre":"47.6742","longitude_centre":"7.4977","distance_km":4.5},{"id":0,"code_insee":"68197","nom_standard":"Magstatt-le-Bas","nom_a":null,"nom_de":null,"slug_ville":"magstatt-le-bas","departement_id":0,"code_postal":"68510","population":517,"superficie_km2":"333.95","latitude_centre":"47.6371","longitude_centre":"7.4119","distance_km":4.73},{"id":0,"code_insee":"68170","nom_standard":"KÅ“tzingue","nom_a":null,"nom_de":null,"slug_ville":"koetzingue","departement_id":0,"code_postal":"68510","population":585,"superficie_km2":"515.73","latitude_centre":"47.6474","longitude_centre":"7.3909","distance_km":4.73},{"id":0,"code_insee":"68084","nom_standard":"Eschentzwiller","nom_a":null,"nom_de":null,"slug_ville":"eschentzwiller","departement_id":0,"code_postal":"68440","population":1527,"superficie_km2":"319.60","latitude_centre":"47.7113","longitude_centre":"7.3932","distance_km":5.16},{"id":0,"code_insee":"68118","nom_standard":"Habsheim","nom_a":null,"nom_de":null,"slug_ville":"habsheim","departement_id":0,"code_postal":"68440","population":5076,"superficie_km2":"1565.49","latitude_centre":"47.7271","longitude_centre":"7.4333","distance_km":5.7},{"id":0,"code_insee":"68265","nom_standard":"Rantzwiller","nom_a":null,"nom_de":null,"slug_ville":"rantzwiller","departement_id":0,"code_postal":"68510","population":802,"superficie_km2":"523.82","latitude_centre":"47.6483","longitude_centre":"7.3706","distance_km":5.89},{"id":0,"code_insee":"68327","nom_standard":"Stetten","nom_a":null,"nom_de":null,"slug_ville":"stetten","departement_id":0,"code_postal":"68510","population":334,"superficie_km2":"434.20","latitude_centre":"47.6237","longitude_centre":"7.4173","distance_km":6.0},{"id":0,"code_insee":"68021","nom_standard":"Bartenheim","nom_a":null,"nom_de":null,"slug_ville":"bartenheim","departement_id":0,"code_postal":"68870","population":4211,"superficie_km2":"1298.91","latitude_centre":"47.6347","longitude_centre":"7.491","distance_km":6.08},{"id":29798,"code_insee":"68054","nom_standard":"Brinckheim","nom_a":null,"nom_de":null,"slug_ville":"brinckheim","departement_id":0,"code_postal":"68870","population":402,"superficie_km2":"342.37","latitude_centre":"47.6215","longitude_centre":"7.4584","distance_km":6.24},{"id":0,"code_insee":"68386","nom_standard":"Zimmersheim","nom_a":null,"nom_de":null,"slug_ville":"zimmersheim","departement_id":0,"code_postal":"68440","population":1083,"superficie_km2":"315.78","latitude_centre":"47.7187","longitude_centre":"7.3817","distance_km":6.34},{"id":0,"code_insee":"68238","nom_standard":"Niffer","nom_a":null,"nom_de":null,"slug_ville":"niffer","departement_id":0,"code_postal":"68680","population":985,"superficie_km2":"871.70","latitude_centre":"47.7138","longitude_centre":"7.5013","distance_km":6.36},{"id":0,"code_insee":"68198","nom_standard":"Magstatt-le-Haut","nom_a":null,"nom_de":null,"slug_ville":"magstatt-le-haut","departement_id":0,"code_postal":"68510","population":315,"superficie_km2":"393.52","latitude_centre":"47.6262","longitude_centre":"7.3946","distance_km":6.4},{"id":0,"code_insee":"68160","nom_standard":"Kappelen","nom_a":null,"nom_de":null,"slug_ville":"kappelen","departement_id":0,"code_postal":"68510","population":573,"superficie_km2":"516.16","latitude_centre":"47.615","longitude_centre":"7.4425","distance_km":6.78},{"id":0,"code_insee":"68278","nom_standard":"Rixheim","nom_a":null,"nom_de":null,"slug_ville":"rixheim","departement_id":0,"code_postal":"68170","population":14380,"superficie_km2":"1965.41","latitude_centre":"47.7445","longitude_centre":"7.4063","distance_km":7.98}]}