{"ville":{"id":16820,"code_insee":"25263","nom_standard":"Gellin","nom_a":null,"nom_de":null,"slug_ville":"gellin","departement_id":0,"code_postal":"25240","population":267,"superficie_km2":"482.52","latitude_centre":"46.7179","longitude_centre":"6.2359","dep_code":"25","dep_nom":"Doubs","dep_slug":"doubs","reg_code":"27","reg_nom":"Bourgogne-Franche-Comté","reg_slug":"bourgogne-franche-comte"},"departement":{"code":"25","nom":"Doubs","slug":"doubs"},"region":{"code":"27","nom":"Bourgogne-Franche-Comté","slug":"bourgogne-franche-comte"},"villes_proches":[{"id":0,"code_insee":"25534","nom_standard":"Sarrageois","nom_a":null,"nom_de":null,"slug_ville":"sarrageois","departement_id":0,"code_postal":"25240","population":197,"superficie_km2":"1332.54","latitude_centre":"46.7048","longitude_centre":"6.2308","distance_km":1.51},{"id":0,"code_insee":"25619","nom_standard":"Les Villedieu","nom_a":null,"nom_de":null,"slug_ville":"les-villedieu","departement_id":0,"code_postal":"25240","population":233,"superficie_km2":"1499.18","latitude_centre":"46.7126","longitude_centre":"6.2656","distance_km":2.34},{"id":16697,"code_insee":"25096","nom_standard":"Brey-et-Maison-du-Bois","nom_a":null,"nom_de":null,"slug_ville":"brey-et-maison-du-bois","departement_id":0,"code_postal":"25240","population":188,"superficie_km2":"612.76","latitude_centre":"46.7469","longitude_centre":"6.239","distance_km":3.23},{"id":0,"code_insee":"25413","nom_standard":"Mouthe","nom_a":null,"nom_de":null,"slug_ville":"mouthe","departement_id":0,"code_postal":"25240","population":1037,"superficie_km2":"3881.16","latitude_centre":"46.6836","longitude_centre":"6.2089","distance_km":4.33},{"id":0,"code_insee":"25501","nom_standard":"Rondefontaine","nom_a":null,"nom_de":null,"slug_ville":"rondefontaine","departement_id":0,"code_postal":"25240","population":38,"superficie_km2":"277.92","latitude_centre":"46.7332","longitude_centre":"6.1816","distance_km":4.47},{"id":0,"code_insee":"25486","nom_standard":"Remoray-Boujeons","nom_a":null,"nom_de":null,"slug_ville":"remoray-boujeons","departement_id":0,"code_postal":"25160","population":466,"superficie_km2":"1521.36","latitude_centre":"46.7581","longitude_centre":"6.22","distance_km":4.63},{"id":0,"code_insee":"25464","nom_standard":"Les Pontets","nom_a":null,"nom_de":null,"slug_ville":"les-pontets","departement_id":0,"code_postal":"25240","population":141,"superficie_km2":"638.94","latitude_centre":"46.7209","longitude_centre":"6.1639","distance_km":5.5},{"id":0,"code_insee":"25494","nom_standard":"Rochejean","nom_a":null,"nom_de":null,"slug_ville":"rochejean","departement_id":0,"code_postal":"25370","population":754,"superficie_km2":"2432.47","latitude_centre":"46.7299","longitude_centre":"6.3086","distance_km":5.7},{"id":0,"code_insee":"25483","nom_standard":"Reculfoz","nom_a":null,"nom_de":null,"slug_ville":"reculfoz","departement_id":0,"code_postal":"25240","population":45,"superficie_km2":"252.15","latitude_centre":"46.7123","longitude_centre":"6.1471","distance_km":6.8},{"id":0,"code_insee":"25451","nom_standard":"Petite-Chaux","nom_a":null,"nom_de":null,"slug_ville":"petite-chaux","departement_id":0,"code_postal":"25240","population":177,"superficie_km2":"976.42","latitude_centre":"46.6754","longitude_centre":"6.1617","distance_km":7.37},{"id":0,"code_insee":"25348","nom_standard":"Longevilles-Mont-d'Or","nom_a":null,"nom_de":null,"slug_ville":"longevilles-mont-d-or","departement_id":0,"code_postal":"25370","population":625,"superficie_km2":"1319.32","latitude_centre":"46.7451","longitude_centre":"6.3293","distance_km":7.73},{"id":16813,"code_insee":"25252","nom_standard":"Fourcatier-et-Maison-Neuve","nom_a":null,"nom_de":null,"slug_ville":"fourcatier-et-maison-neuve","departement_id":0,"code_postal":"25370","population":130,"superficie_km2":"275.66","latitude_centre":"46.7644","longitude_centre":"6.313","distance_km":7.83},{"id":0,"code_insee":"25320","nom_standard":"Labergement-Sainte-Marie","nom_a":null,"nom_de":null,"slug_ville":"labergement-sainte-marie","departement_id":0,"code_postal":"25160","population":1273,"superficie_km2":"2206.77","latitude_centre":"46.7817","longitude_centre":"6.282","distance_km":7.92},{"id":16757,"code_insee":"25179","nom_standard":"Le Crouzet","nom_a":null,"nom_de":null,"slug_ville":"le-crouzet","departement_id":0,"code_postal":"25240","population":51,"superficie_km2":"378.26","latitude_centre":"46.7088","longitude_centre":"6.132","distance_km":7.99},{"id":16732,"code_insee":"25142","nom_standard":"Chaux-Neuve","nom_a":null,"nom_de":null,"slug_ville":"chaux-neuve","departement_id":0,"code_postal":"25240","population":338,"superficie_km2":"2829.45","latitude_centre":"46.661","longitude_centre":"6.1583","distance_km":8.66},{"id":0,"code_insee":"25592","nom_standard":"Vaux-et-Chantegrue","nom_a":null,"nom_de":null,"slug_ville":"vaux-et-chantegrue","departement_id":0,"code_postal":"25160","population":689,"superficie_km2":"1397.39","latitude_centre":"46.7971","longitude_centre":"6.2343","distance_km":8.81},{"id":0,"code_insee":"39331","nom_standard":"Mignovillard","nom_a":null,"nom_de":null,"slug_ville":"mignovillard","departement_id":0,"code_postal":"39250","population":902,"superficie_km2":"5407.20","latitude_centre":"46.7741","longitude_centre":"6.14","distance_km":9.61},{"id":16681,"code_insee":"25075","nom_standard":"Bonnevaux","nom_a":null,"nom_de":null,"slug_ville":"bonnevaux","departement_id":0,"code_postal":"25560","population":410,"superficie_km2":"1655.86","latitude_centre":"46.8056","longitude_centre":"6.1975","distance_km":10.18},{"id":0,"code_insee":"25361","nom_standard":"Malbuisson","nom_a":null,"nom_de":null,"slug_ville":"malbuisson","departement_id":0,"code_postal":"25160","population":903,"superficie_km2":"671.08","latitude_centre":"46.8015","longitude_centre":"6.31","distance_km":10.88},{"id":0,"code_insee":"25525","nom_standard":"Saint-Point-Lac","nom_a":null,"nom_de":null,"slug_ville":"saint-point-lac","departement_id":0,"code_postal":"25160","population":306,"superficie_km2":"454.76","latitude_centre":"46.8078","longitude_centre":"6.2976","distance_km":11.05}]}