{"ville":{"id":29035,"code_insee":"65195","nom_standard":"Génos","nom_a":null,"nom_de":null,"slug_ville":"genos","departement_id":0,"code_postal":"65240","population":127,"superficie_km2":"2390.53","latitude_centre":"42.7627","longitude_centre":"0.3869","dep_code":"65","dep_nom":"Hautes-Pyrénées","dep_slug":"hautes-pyrenees","reg_code":"76","reg_nom":"Occitanie","reg_slug":"occitanie"},"departement":{"code":"65","nom":"Hautes-Pyrénées","slug":"hautes-pyrenees"},"region":{"code":"76","nom":"Occitanie","slug":"occitanie"},"villes_proches":[{"id":28908,"code_insee":"65058","nom_standard":"Azet","nom_a":null,"nom_de":null,"slug_ville":"azet","departement_id":0,"code_postal":"65170","population":148,"superficie_km2":"2681.86","latitude_centre":"42.7823","longitude_centre":"0.3566","distance_km":3.3},{"id":28859,"code_insee":"65003","nom_standard":"Adervielle-Pouchergues","nom_a":null,"nom_de":null,"slug_ville":"adervielle-pouchergues","departement_id":0,"code_postal":"65240","population":142,"superficie_km2":"914.77","latitude_centre":"42.7973","longitude_centre":"0.3894","distance_km":3.85},{"id":0,"code_insee":"65282","nom_standard":"Loudenvielle","nom_a":null,"nom_de":null,"slug_ville":"loudenvielle","departement_id":0,"code_postal":"65240","population":374,"superficie_km2":"4424.65","latitude_centre":"42.7537","longitude_centre":"0.4387","distance_km":4.35},{"id":0,"code_insee":"65199","nom_standard":"Germ","nom_a":null,"nom_de":null,"slug_ville":"germ","departement_id":0,"code_postal":"65240","population":33,"superficie_km2":"1238.86","latitude_centre":"42.7736","longitude_centre":"0.4406","distance_km":4.55},{"id":28998,"code_insee":"65157","nom_standard":"Ens","nom_a":null,"nom_de":null,"slug_ville":"ens","departement_id":0,"code_postal":"65170","population":28,"superficie_km2":"349.01","latitude_centre":"42.7955","longitude_centre":"0.3366","distance_km":5.49},{"id":0,"code_insee":"65283","nom_standard":"Loudervielle","nom_a":null,"nom_de":null,"slug_ville":"loudervielle","departement_id":0,"code_postal":"65240","population":49,"superficie_km2":"548.12","latitude_centre":"42.8041","longitude_centre":"0.4381","distance_km":6.22},{"id":0,"code_insee":"65384","nom_standard":"Sailhan","nom_a":null,"nom_de":null,"slug_ville":"sailhan","departement_id":0,"code_postal":"65170","population":172,"superficie_km2":"272.58","latitude_centre":"42.8079","longitude_centre":"0.3307","distance_km":6.8},{"id":29012,"code_insee":"65171","nom_standard":"Estarvielle","nom_a":null,"nom_de":null,"slug_ville":"estarvielle","departement_id":0,"code_postal":"65240","population":30,"superficie_km2":"81.82","latitude_centre":"42.8204","longitude_centre":"0.4156","distance_km":6.83},{"id":29013,"code_insee":"65172","nom_standard":"Estensan","nom_a":null,"nom_de":null,"slug_ville":"estensan","departement_id":0,"code_postal":"65170","population":48,"superficie_km2":"151.58","latitude_centre":"42.8164","longitude_centre":"0.3444","distance_km":6.91},{"id":18847,"code_insee":"31221","nom_standard":"Gouaux-de-Larboust","nom_a":null,"nom_de":null,"slug_ville":"gouaux-de-larboust","departement_id":0,"code_postal":"31110","population":40,"superficie_km2":"1079.11","latitude_centre":"42.7804","longitude_centre":"0.4783","distance_km":7.72},{"id":0,"code_insee":"65208","nom_standard":"Grailhen","nom_a":null,"nom_de":null,"slug_ville":"grailhen","departement_id":0,"code_postal":"65170","population":22,"superficie_km2":"581.49","latitude_centre":"42.8328","longitude_centre":"0.3721","distance_km":7.89},{"id":28967,"code_insee":"65124","nom_standard":"Camparan","nom_a":null,"nom_de":null,"slug_ville":"camparan","departement_id":0,"code_postal":"65170","population":51,"superficie_km2":"265.58","latitude_centre":"42.8306","longitude_centre":"0.3568","distance_km":7.94},{"id":0,"code_insee":"65466","nom_standard":"Vielle-Louron","nom_a":null,"nom_de":null,"slug_ville":"vielle-louron","departement_id":0,"code_postal":"65240","population":80,"superficie_km2":"283.49","latitude_centre":"42.8346","longitude_centre":"0.3965","distance_km":8.03},{"id":0,"code_insee":"65317","nom_standard":"Mont","nom_a":null,"nom_de":null,"slug_ville":"mont","departement_id":0,"code_postal":"65240","population":37,"superficie_km2":"820.91","latitude_centre":"42.8223","longitude_centre":"0.4427","distance_km":8.04},{"id":28951,"code_insee":"65106","nom_standard":"Bourisp","nom_a":null,"nom_de":null,"slug_ville":"bourisp","departement_id":0,"code_postal":"65170","population":191,"superficie_km2":"189.36","latitude_centre":"42.8332","longitude_centre":"0.3416","distance_km":8.67},{"id":18997,"code_insee":"31432","nom_standard":"Portet-de-Luchon","nom_a":null,"nom_de":null,"slug_ville":"portet-de-luchon","departement_id":0,"code_postal":"31110","population":37,"superficie_km2":"408.17","latitude_centre":"42.8126","longitude_centre":"0.4732","distance_km":8.97},{"id":28900,"code_insee":"65050","nom_standard":"Avajan","nom_a":null,"nom_de":null,"slug_ville":"avajan","departement_id":0,"code_postal":"65240","population":82,"superficie_km2":"335.79","latitude_centre":"42.8472","longitude_centre":"0.402","distance_km":9.48},{"id":0,"code_insee":"65211","nom_standard":"Guchan","nom_a":null,"nom_de":null,"slug_ville":"guchan","departement_id":0,"code_postal":"65170","population":151,"superficie_km2":"263.07","latitude_centre":"42.8459","longitude_centre":"0.3464","distance_km":9.82},{"id":28983,"code_insee":"65141","nom_standard":"Cazaux-Fréchet-Anéran-Camors","nom_a":null,"nom_de":null,"slug_ville":"cazaux-frechet-aneran-camors","departement_id":0,"code_postal":"65240","population":68,"superficie_km2":"1277.98","latitude_centre":"42.8433","longitude_centre":"0.4382","distance_km":9.89},{"id":0,"code_insee":"65205","nom_standard":"Gouaux","nom_a":null,"nom_de":null,"slug_ville":"gouaux","departement_id":0,"code_postal":"65240","population":54,"superficie_km2":"604.89","latitude_centre":"42.8559","longitude_centre":"0.3733","distance_km":10.42}]}