{"ville":{"id":9350,"code_insee":"88196","nom_standard":"Gérardmer","nom_a":null,"nom_de":null,"slug_ville":"gerardmer","departement_id":689,"code_postal":"88400","population":7833,"superficie_km2":"56.00","latitude_centre":"48.0649986","longitude_centre":"6.8590002","dep_code":"88","dep_nom":"Vosges","dep_slug":"vosges","reg_code":"06","reg_nom":"Grand Est","reg_slug":"grand-est"},"departement":{"code":"88","nom":"Vosges","slug":"vosges"},"region":{"code":"06","nom":"Grand Est","slug":"grand-est"},"villes_proches":[{"id":9396,"code_insee":"88531","nom_standard":"Xonrupt-Longemer","nom_a":null,"nom_de":null,"slug_ville":"xonrupt-longemer","departement_id":689,"code_postal":"88400","population":1488,"superficie_km2":"31.00","latitude_centre":"48.0719986","longitude_centre":"6.9540000","distance_km":7.1},{"id":9325,"code_insee":"88075","nom_standard":"La Bresse","nom_a":null,"nom_de":null,"slug_ville":"la-bresse","departement_id":689,"code_postal":"88250","population":4041,"superficie_km2":"58.00","latitude_centre":"48.0180016","longitude_centre":"6.9260001","distance_km":7.22},{"id":9352,"code_insee":"88218","nom_standard":"Granges-Aumontzey","nom_a":null,"nom_de":null,"slug_ville":"granges-aumontzey","departement_id":689,"code_postal":"88640","population":2590,"superficie_km2":"30.00","latitude_centre":"48.1279984","longitude_centre":"6.8099999","distance_km":7.89},{"id":9387,"code_insee":"88470","nom_standard":"Le Tholy","nom_a":null,"nom_de":null,"slug_ville":"le-tholy","departement_id":689,"code_postal":"88530","population":1515,"superficie_km2":"31.00","latitude_centre":"48.0880013","longitude_centre":"6.7389998","distance_km":9.27},{"id":9337,"code_insee":"88116","nom_standard":"Cornimont","nom_a":null,"nom_de":null,"slug_ville":"cornimont","departement_id":689,"code_postal":"88310","population":3045,"superficie_km2":"40.00","latitude_centre":"47.9679985","longitude_centre":"6.8649998","distance_km":10.8},{"id":9391,"code_insee":"88486","nom_standard":"Vagney","nom_a":null,"nom_de":null,"slug_ville":"vagney","departement_id":689,"code_postal":"88120","population":3878,"superficie_km2":"25.00","latitude_centre":"48.0180016","longitude_centre":"6.7240000","distance_km":11.32},{"id":9336,"code_insee":"88115","nom_standard":"Corcieux","nom_a":null,"nom_de":null,"slug_ville":"corcieux","departement_id":689,"code_postal":"88430","population":1494,"superficie_km2":"18.00","latitude_centre":"48.1669998","longitude_centre":"6.8850002","distance_km":11.51},{"id":9383,"code_insee":"88462","nom_standard":"Le Syndicat","nom_a":null,"nom_de":null,"slug_ville":"le-syndicat","departement_id":689,"code_postal":"88120","population":1876,"superficie_km2":"18.00","latitude_centre":"48.0309982","longitude_centre":"6.6980000","distance_km":12.55},{"id":9381,"code_insee":"88447","nom_standard":"Saulxures-sur-Moselotte","nom_a":null,"nom_de":null,"slug_ville":"saulxures-sur-moselotte","departement_id":689,"code_postal":"88290","population":2510,"superficie_km2":"32.00","latitude_centre":"47.9510002","longitude_centre":"6.7750001","distance_km":14.13},{"id":7119,"code_insee":"68204","nom_standard":"Metzeral","nom_a":null,"nom_de":null,"slug_ville":"metzeral","departement_id":669,"code_postal":"68380","population":1043,"superficie_km2":"31.00","latitude_centre":"47.9980011","longitude_centre":"7.0250001","distance_km":14.42},{"id":9320,"code_insee":"88009","nom_standard":"Anould","nom_a":null,"nom_de":null,"slug_ville":"anould","departement_id":689,"code_postal":"88650","population":3301,"superficie_km2":"24.00","latitude_centre":"48.1850014","longitude_centre":"6.9410000","distance_km":14.67},{"id":7169,"code_insee":"68329","nom_standard":"Stosswihr","nom_a":null,"nom_de":null,"slug_ville":"stosswihr","departement_id":669,"code_postal":"68140","population":1333,"superficie_km2":"26.00","latitude_centre":"48.0550003","longitude_centre":"7.0609999","distance_km":15.05},{"id":9361,"code_insee":"88349","nom_standard":"Plainfaing","nom_a":null,"nom_de":null,"slug_ville":"plainfaing","departement_id":689,"code_postal":"88230","population":1616,"superficie_km2":"39.00","latitude_centre":"48.1430016","longitude_centre":"7.0380001","distance_km":15.87},{"id":9372,"code_insee":"88409","nom_standard":"Saint-Amé","nom_a":null,"nom_de":null,"slug_ville":"saint-ame","departement_id":689,"code_postal":"88120","population":2151,"superficie_km2":"8.00","latitude_centre":"48.0239983","longitude_centre":"6.6520000","distance_km":16.05},{"id":9375,"code_insee":"88423","nom_standard":"Saint-Léonard","nom_a":null,"nom_de":null,"slug_ville":"saint-leonard","departement_id":689,"code_postal":"88650","population":1369,"superficie_km2":"14.00","latitude_centre":"48.2150002","longitude_centre":"6.9180002","distance_km":17.24},{"id":7164,"code_insee":"68317","nom_standard":"Soultzeren","nom_a":null,"nom_de":null,"slug_ville":"soultzeren","departement_id":669,"code_postal":"68140","population":1121,"superficie_km2":"18.00","latitude_centre":"48.0830002","longitude_centre":"7.0929999","distance_km":17.5},{"id":9374,"code_insee":"88415","nom_standard":"Saint-Étienne-lès-Remiremont","nom_a":null,"nom_de":null,"slug_ville":"saint-etienne-les-remiremont","departement_id":689,"code_postal":"88200","population":3809,"superficie_km2":"34.00","latitude_centre":"48.0460014","longitude_centre":"6.6250000","distance_km":17.52},{"id":9342,"code_insee":"88148","nom_standard":"Dommartin-lès-Remiremont","nom_a":null,"nom_de":null,"slug_ville":"dommartin-les-remiremont","departement_id":689,"code_postal":"88200","population":1880,"superficie_km2":"21.00","latitude_centre":"47.9910011","longitude_centre":"6.6479998","distance_km":17.72},{"id":9348,"code_insee":"88181","nom_standard":"Fraize","nom_a":null,"nom_de":null,"slug_ville":"fraize","departement_id":689,"code_postal":"88230","population":2846,"superficie_km2":"16.00","latitude_centre":"48.1860008","longitude_centre":"7.0180001","distance_km":17.9},{"id":9344,"code_insee":"88158","nom_standard":"Éloyes","nom_a":null,"nom_de":null,"slug_ville":"eloyes","departement_id":689,"code_postal":"88510","population":3099,"superficie_km2":"13.00","latitude_centre":"48.0929985","longitude_centre":"6.6199999","distance_km":18.03}]}