{"ville":{"id":26105,"code_insee":"58124","nom_standard":"Germigny-sur-Loire","nom_a":null,"nom_de":null,"slug_ville":"germigny-sur-loire","departement_id":0,"code_postal":"58320","population":738,"superficie_km2":"1888.84","latitude_centre":"47.0762","longitude_centre":"3.0479","dep_code":"58","dep_nom":"Nièvre","dep_slug":"nievre","reg_code":"27","reg_nom":"Bourgogne-Franche-Comté","reg_slug":"bourgogne-franche-comte"},"departement":{"code":"58","nom":"Nièvre","slug":"nievre"},"region":{"code":"27","nom":"Bourgogne-Franche-Comté","slug":"bourgogne-franche-comte"},"villes_proches":[{"id":0,"code_insee":"58214","nom_standard":"Pougues-les-Eaux","nom_a":null,"nom_de":null,"slug_ville":"pougues-les-eaux","departement_id":0,"code_postal":"58320","population":2401,"superficie_km2":"1302.87","latitude_centre":"47.0763","longitude_centre":"3.0944","distance_km":3.52},{"id":14725,"code_insee":"18025","nom_standard":"Beffes","nom_a":null,"nom_de":null,"slug_ville":"beffes","departement_id":0,"code_postal":"18320","population":602,"superficie_km2":"1181.85","latitude_centre":"47.0931","longitude_centre":"2.9991","distance_km":4.15},{"id":0,"code_insee":"58298","nom_standard":"Tronsanges","nom_a":null,"nom_de":null,"slug_ville":"tronsanges","departement_id":0,"code_postal":"58400","population":392,"superficie_km2":"874.18","latitude_centre":"47.1149","longitude_centre":"3.0515","distance_km":4.31},{"id":14813,"code_insee":"18139","nom_standard":"Marseilles-lès-Aubigny","nom_a":null,"nom_de":null,"slug_ville":"marseilles-les-aubigny","departement_id":0,"code_postal":"18320","population":645,"superficie_km2":"987.84","latitude_centre":"47.07","longitude_centre":"2.9895","distance_km":4.48},{"id":0,"code_insee":"18118","nom_standard":"Jouet-sur-l'Aubois","nom_a":null,"nom_de":null,"slug_ville":"jouet-sur-l-aubois","departement_id":0,"code_postal":"18320","population":1303,"superficie_km2":"1735.68","latitude_centre":"47.0454","longitude_centre":"3.0061","distance_km":4.66},{"id":0,"code_insee":"58121","nom_standard":"Garchizy","nom_a":null,"nom_de":null,"slug_ville":"garchizy","departement_id":0,"code_postal":"58600","population":3648,"superficie_km2":"1655.37","latitude_centre":"47.0445","longitude_centre":"3.0944","distance_km":4.98},{"id":14881,"code_insee":"18220","nom_standard":"Saint-Léger-le-Petit","nom_a":null,"nom_de":null,"slug_ville":"saint-leger-le-petit","departement_id":0,"code_postal":"18140","population":362,"superficie_km2":"1005.02","latitude_centre":"47.1151","longitude_centre":"2.9986","distance_km":5.71},{"id":0,"code_insee":"18075","nom_standard":"Cours-les-Barres","nom_a":null,"nom_de":null,"slug_ville":"cours-les-barres","departement_id":0,"code_postal":"18320","population":1021,"superficie_km2":"2157.75","latitude_centre":"47.0227","longitude_centre":"3.0325","distance_km":6.06},{"id":0,"code_insee":"58067","nom_standard":"Chaulgnes","nom_a":null,"nom_de":null,"slug_ville":"chaulgnes","departement_id":0,"code_postal":"58400","population":1500,"superficie_km2":"2535.01","latitude_centre":"47.1242","longitude_centre":"3.1104","distance_km":7.13},{"id":0,"code_insee":"58117","nom_standard":"Fourchambault","nom_a":null,"nom_de":null,"slug_ville":"fourchambault","departement_id":0,"code_postal":"58600","population":3992,"superficie_km2":"444.97","latitude_centre":"47.0159","longitude_centre":"3.0932","distance_km":7.53},{"id":0,"code_insee":"58207","nom_standard":"Parigny-les-Vaux","nom_a":null,"nom_de":null,"slug_ville":"parigny-les-vaux","departement_id":0,"code_postal":"58320","population":964,"superficie_km2":"3140.79","latitude_centre":"47.102","longitude_centre":"3.141","distance_km":7.61},{"id":26052,"code_insee":"58056","nom_standard":"Champvoux","nom_a":null,"nom_de":null,"slug_ville":"champvoux","departement_id":0,"code_postal":"58400","population":282,"superficie_km2":"1080.01","latitude_centre":"47.1459","longitude_centre":"3.0718","distance_km":7.96},{"id":0,"code_insee":"58155","nom_standard":"La Marche","nom_a":null,"nom_de":null,"slug_ville":"la-marche","departement_id":0,"code_postal":"58400","population":509,"superficie_km2":"1084.18","latitude_centre":"47.148","longitude_centre":"3.0453","distance_km":7.99},{"id":14715,"code_insee":"18012","nom_standard":"Argenvières","nom_a":null,"nom_de":null,"slug_ville":"argenvieres","departement_id":0,"code_postal":"18140","population":448,"superficie_km2":"1486.50","latitude_centre":"47.1406","longitude_centre":"2.9929","distance_km":8.28},{"id":0,"code_insee":"58303","nom_standard":"Varennes-Vauzelles","nom_a":null,"nom_de":null,"slug_ville":"varennes-vauzelles","departement_id":0,"code_postal":"58640","population":9146,"superficie_km2":"3396.89","latitude_centre":"47.0381","longitude_centre":"3.1447","distance_km":8.47},{"id":14850,"code_insee":"18184","nom_standard":"Précy","nom_a":null,"nom_de":null,"slug_ville":"precy","departement_id":0,"code_postal":"18140","population":353,"superficie_km2":"1469.77","latitude_centre":"47.0927","longitude_centre":"2.9353","distance_km":8.72},{"id":14918,"code_insee":"18265","nom_standard":"Torteron","nom_a":null,"nom_de":null,"slug_ville":"torteron","departement_id":0,"code_postal":"18320","population":785,"superficie_km2":"1379.52","latitude_centre":"47.009","longitude_centre":"2.9883","distance_km":8.73},{"id":0,"code_insee":"58160","nom_standard":"Marzy","nom_a":null,"nom_de":null,"slug_ville":"marzy","departement_id":0,"code_postal":"58180","population":3623,"superficie_km2":"2160.80","latitude_centre":"46.9865","longitude_centre":"3.0942","distance_km":10.57},{"id":0,"code_insee":"18082","nom_standard":"Cuffy","nom_a":null,"nom_de":null,"slug_ville":"cuffy","departement_id":0,"code_postal":"18150","population":1020,"superficie_km2":"3568.08","latitude_centre":"46.974","longitude_centre":"3.0372","distance_km":11.39},{"id":0,"code_insee":"58059","nom_standard":"La Charité-sur-Loire","nom_a":null,"nom_de":null,"slug_ville":"la-charite-sur-loire","departement_id":0,"code_postal":"58400","population":4705,"superficie_km2":"1582.66","latitude_centre":"47.183","longitude_centre":"3.0291","distance_km":11.96}]}