{"ville":{"id":25082,"code_insee":"55210","nom_standard":"Gimécourt","nom_a":null,"nom_de":null,"slug_ville":"gimecourt","departement_id":0,"code_postal":"55260","population":37,"superficie_km2":"1012.98","latitude_centre":"48.8475","longitude_centre":"5.3782","dep_code":"55","dep_nom":"Meuse","dep_slug":"meuse","reg_code":"44","reg_nom":"Grand Est","reg_slug":"grand-est"},"departement":{"code":"55","nom":"Meuse","slug":"meuse"},"region":{"code":"44","nom":"Grand Est","slug":"grand-est"},"villes_proches":[{"id":24939,"code_insee":"55032","nom_standard":"Baudrémont","nom_a":null,"nom_de":null,"slug_ville":"baudremont","departement_id":0,"code_postal":"55260","population":44,"superficie_km2":"670.62","latitude_centre":"48.8363","longitude_centre":"5.3946","distance_km":1.73},{"id":0,"code_insee":"55570","nom_standard":"Villotte-sur-Aire","nom_a":null,"nom_de":null,"slug_ville":"villotte-sur-aire","departement_id":0,"code_postal":"55260","population":207,"superficie_km2":"1399.70","latitude_centre":"48.8568","longitude_centre":"5.3592","distance_km":1.73},{"id":0,"code_insee":"55289","nom_standard":"Levoncourt","nom_a":null,"nom_de":null,"slug_ville":"levoncourt","departement_id":0,"code_postal":"55260","population":52,"superficie_km2":"788.85","latitude_centre":"48.8273","longitude_centre":"5.3519","distance_km":2.96},{"id":0,"code_insee":"55555","nom_standard":"Ville-devant-Belrain","nom_a":null,"nom_de":null,"slug_ville":"ville-devant-belrain","departement_id":0,"code_postal":"55260","population":33,"superficie_km2":"610.89","latitude_centre":"48.8773","longitude_centre":"5.3594","distance_km":3.59},{"id":0,"code_insee":"55290","nom_standard":"Lignières-sur-Aire","nom_a":null,"nom_de":null,"slug_ville":"lignieres-sur-aire","departement_id":0,"code_postal":"55260","population":49,"superficie_km2":"930.77","latitude_centre":"48.8125","longitude_centre":"5.3905","distance_km":3.99},{"id":25020,"code_insee":"55127","nom_standard":"Courcelles-en-Barrois","nom_a":null,"nom_de":null,"slug_ville":"courcelles-en-barrois","departement_id":0,"code_postal":"55260","population":49,"superficie_km2":"719.16","latitude_centre":"48.8252","longitude_centre":"5.4277","distance_km":4.39},{"id":0,"code_insee":"55448","nom_standard":"Rupt-devant-Saint-Mihiel","nom_a":null,"nom_de":null,"slug_ville":"rupt-devant-saint-mihiel","departement_id":0,"code_postal":"55260","population":39,"superficie_km2":"630.37","latitude_centre":"48.8872","longitude_centre":"5.3981","distance_km":4.65},{"id":24950,"code_insee":"55044","nom_standard":"Belrain","nom_a":null,"nom_de":null,"slug_ville":"belrain","departement_id":0,"code_postal":"55260","population":41,"superficie_km2":"825.22","latitude_centre":"48.8617","longitude_centre":"5.3065","distance_km":5.48},{"id":0,"code_insee":"55282","nom_standard":"Lavallée","nom_a":null,"nom_de":null,"slug_ville":"lavallee","departement_id":0,"code_postal":"55260","population":83,"superficie_km2":"1257.00","latitude_centre":"48.8067","longitude_centre":"5.3354","distance_km":5.51},{"id":0,"code_insee":"55384","nom_standard":"Nicey-sur-Aire","nom_a":null,"nom_de":null,"slug_ville":"nicey-sur-aire","departement_id":0,"code_postal":"55260","population":130,"superficie_km2":"1096.21","latitude_centre":"48.8943","longitude_centre":"5.3505","distance_km":5.58},{"id":0,"code_insee":"55264","nom_standard":"Kœur-la-Petite","nom_a":null,"nom_de":null,"slug_ville":"koeur-la-petite","departement_id":0,"code_postal":"55300","population":256,"superficie_km2":"2052.08","latitude_centre":"48.854","longitude_centre":"5.4607","distance_km":6.08},{"id":25029,"code_insee":"55141","nom_standard":"Dagonville","nom_a":null,"nom_de":null,"slug_ville":"dagonville","departement_id":0,"code_postal":"55500","population":88,"superficie_km2":"1302.02","latitude_centre":"48.7904","longitude_centre":"5.3832","distance_km":6.36},{"id":0,"code_insee":"55263","nom_standard":"Kœur-la-Grande","nom_a":null,"nom_de":null,"slug_ville":"koeur-la-grande","departement_id":0,"code_postal":"55300","population":164,"superficie_km2":"1222.55","latitude_centre":"48.8648","longitude_centre":"5.4625","distance_km":6.46},{"id":0,"code_insee":"55333","nom_standard":"Ménil-aux-Bois","nom_a":null,"nom_de":null,"slug_ville":"menil-aux-bois","departement_id":0,"code_postal":"55260","population":48,"superficie_km2":"662.44","latitude_centre":"48.8037","longitude_centre":"5.4413","distance_km":6.71},{"id":0,"code_insee":"55404","nom_standard":"Pierrefitte-sur-Aire","nom_a":null,"nom_de":null,"slug_ville":"pierrefitte-sur-aire","departement_id":0,"code_postal":"55260","population":304,"superficie_km2":"1759.03","latitude_centre":"48.9051","longitude_centre":"5.3455","distance_km":6.84},{"id":25072,"code_insee":"55197","nom_standard":"Fresnes-au-Mont","nom_a":null,"nom_de":null,"slug_ville":"fresnes-au-mont","departement_id":0,"code_postal":"55260","population":162,"superficie_km2":"1588.60","latitude_centre":"48.8984","longitude_centre":"5.4432","distance_km":7.39},{"id":25080,"code_insee":"55207","nom_standard":"Géry","nom_a":null,"nom_de":null,"slug_ville":"gery","departement_id":0,"code_postal":"55000","population":50,"superficie_km2":"483.87","latitude_centre":"48.7866","longitude_centre":"5.3034","distance_km":8.71},{"id":0,"code_insee":"55518","nom_standard":"Cousances-lès-Triconville","nom_a":null,"nom_de":null,"slug_ville":"cousances-les-triconville","departement_id":0,"code_postal":"55500","population":146,"superficie_km2":"1839.35","latitude_centre":"48.7703","longitude_centre":"5.4032","distance_km":8.78},{"id":0,"code_insee":"55301","nom_standard":"Longchamps-sur-Aire","nom_a":null,"nom_de":null,"slug_ville":"longchamps-sur-aire","departement_id":0,"code_postal":"55260","population":121,"superficie_km2":"1575.74","latitude_centre":"48.913","longitude_centre":"5.3095","distance_km":8.85},{"id":0,"code_insee":"55269","nom_standard":"Lahaymeix","nom_a":null,"nom_de":null,"slug_ville":"lahaymeix","departement_id":0,"code_postal":"55260","population":76,"superficie_km2":"1255.11","latitude_centre":"48.9339","longitude_centre":"5.4186","distance_km":10.05}]}