{"ville":{"id":25083,"code_insee":"55211","nom_standard":"Gincrey","nom_a":null,"nom_de":null,"slug_ville":"gincrey","departement_id":0,"code_postal":"55400","population":61,"superficie_km2":"963.78","latitude_centre":"49.2616","longitude_centre":"5.5642","dep_code":"55","dep_nom":"Meuse","dep_slug":"meuse","reg_code":"44","reg_nom":"Grand Est","reg_slug":"grand-est"},"departement":{"code":"55","nom":"Meuse","slug":"meuse"},"region":{"code":"44","nom":"Grand Est","slug":"grand-est"},"villes_proches":[{"id":0,"code_insee":"55339","nom_standard":"Mogeville","nom_a":null,"nom_de":null,"slug_ville":"mogeville","departement_id":0,"code_postal":"55400","population":73,"superficie_km2":"634.70","latitude_centre":"49.2459","longitude_centre":"5.5402","distance_km":2.47},{"id":0,"code_insee":"55357","nom_standard":"Morgemoulin","nom_a":null,"nom_de":null,"slug_ville":"morgemoulin","departement_id":0,"code_postal":"55400","population":109,"superficie_km2":"684.32","latitude_centre":"49.2304","longitude_centre":"5.5693","distance_km":3.49},{"id":0,"code_insee":"55325","nom_standard":"Maucourt-sur-Orne","nom_a":null,"nom_de":null,"slug_ville":"maucourt-sur-orne","departement_id":0,"code_postal":"55400","population":51,"superficie_km2":"643.13","latitude_centre":"49.253","longitude_centre":"5.5136","distance_km":3.79},{"id":25066,"code_insee":"55191","nom_standard":"Foameix-Ornel","nom_a":null,"nom_de":null,"slug_ville":"foameix-ornel","departement_id":0,"code_postal":"55400","population":229,"superficie_km2":"1088.42","latitude_centre":"49.2358","longitude_centre":"5.61","distance_km":4.39},{"id":0,"code_insee":"55218","nom_standard":"Gremilly","nom_a":null,"nom_de":null,"slug_ville":"gremilly","departement_id":0,"code_postal":"55150","population":40,"superficie_km2":"1775.72","latitude_centre":"49.2829","longitude_centre":"5.5129","distance_km":4.41},{"id":0,"code_insee":"55481","nom_standard":"Senon","nom_a":null,"nom_de":null,"slug_ville":"senon","departement_id":0,"code_postal":"55230","population":300,"superficie_km2":"2052.97","latitude_centre":"49.2805","longitude_centre":"5.62","distance_km":4.56},{"id":0,"code_insee":"55299","nom_standard":"Loison","nom_a":null,"nom_de":null,"slug_ville":"loison","departement_id":0,"code_postal":"55230","population":116,"superficie_km2":"1425.60","latitude_centre":"49.3046","longitude_centre":"5.5908","distance_km":5.16},{"id":25038,"code_insee":"55153","nom_standard":"Dieppe-sous-Douaumont","nom_a":null,"nom_de":null,"slug_ville":"dieppe-sous-douaumont","departement_id":0,"code_postal":"55400","population":187,"superficie_km2":"1503.12","latitude_centre":"49.2217","longitude_centre":"5.5201","distance_km":5.47},{"id":24921,"code_insee":"55008","nom_standard":"Amel-sur-l'Étang","nom_a":null,"nom_de":null,"slug_ville":"amel-sur-l-etang","departement_id":0,"code_postal":"55230","population":153,"superficie_km2":"1527.82","latitude_centre":"49.2569","longitude_centre":"5.645","distance_km":5.89},{"id":25076,"code_insee":"55201","nom_standard":"Fromezey","nom_a":null,"nom_de":null,"slug_ville":"fromezey","departement_id":0,"code_postal":"55400","population":64,"superficie_km2":"589.44","latitude_centre":"49.2092","longitude_centre":"5.5827","distance_km":5.98},{"id":0,"code_insee":"55394","nom_standard":"Ornes","nom_a":null,"nom_de":null,"slug_ville":"ornes","departement_id":0,"code_postal":"55150","population":9,"superficie_km2":"1854.82","latitude_centre":"49.2577","longitude_centre":"5.4816","distance_km":6.01},{"id":0,"code_insee":"55181","nom_standard":"Étain","nom_a":null,"nom_de":null,"slug_ville":"etain","departement_id":0,"code_postal":"55400","population":3375,"superficie_km2":"1992.54","latitude_centre":"49.2204","longitude_centre":"5.6311","distance_km":6.68},{"id":24958,"code_insee":"55053","nom_standard":"Billy-sous-Mangiennes","nom_a":null,"nom_de":null,"slug_ville":"billy-sous-mangiennes","departement_id":0,"code_postal":"55230","population":349,"superficie_km2":"2514.81","latitude_centre":"49.3221","longitude_centre":"5.5651","distance_km":6.73},{"id":24917,"code_insee":"55002","nom_standard":"Abaucourt-Hautecourt","nom_a":null,"nom_de":null,"slug_ville":"abaucourt-hautecourt","departement_id":0,"code_postal":"55400","population":101,"superficie_km2":"964.18","latitude_centre":"49.1998","longitude_centre":"5.5469","distance_km":6.99},{"id":24956,"code_insee":"55050","nom_standard":"Bezonvaux","nom_a":null,"nom_de":null,"slug_ville":"bezonvaux","departement_id":0,"code_postal":"55100","population":0,"superficie_km2":"924.85","latitude_centre":"49.2294","longitude_centre":"5.4752","distance_km":7.39},{"id":25031,"code_insee":"55143","nom_standard":"Damloup","nom_a":null,"nom_de":null,"slug_ville":"damloup","departement_id":0,"code_postal":"55400","population":129,"superficie_km2":"528.40","latitude_centre":"49.1985","longitude_centre":"5.4951","distance_km":8.63},{"id":0,"code_insee":"55356","nom_standard":"Moranville","nom_a":null,"nom_de":null,"slug_ville":"moranville","departement_id":0,"code_postal":"55400","population":103,"superficie_km2":"675.25","latitude_centre":"49.1779","longitude_centre":"5.5415","distance_km":9.45},{"id":0,"code_insee":"55316","nom_standard":"Mangiennes","nom_a":null,"nom_de":null,"slug_ville":"mangiennes","departement_id":0,"code_postal":"55150","population":397,"superficie_km2":"1849.16","latitude_centre":"49.3454","longitude_centre":"5.5379","distance_km":9.51},{"id":0,"code_insee":"55367","nom_standard":"Muzeray","nom_a":null,"nom_de":null,"slug_ville":"muzeray","departement_id":0,"code_postal":"55230","population":133,"superficie_km2":"826.10","latitude_centre":"49.3385","longitude_centre":"5.6228","distance_km":9.55},{"id":0,"code_insee":"55244","nom_standard":"Herméville-en-Woëvre","nom_a":null,"nom_de":null,"slug_ville":"hermeville-en-woevre","departement_id":0,"code_postal":"55400","population":218,"superficie_km2":"1458.28","latitude_centre":"49.1768","longitude_centre":"5.6043","distance_km":9.87}]}