{"ville":{"id":2878,"code_insee":"33187","nom_standard":"Gironde-sur-Dropt","nom_a":null,"nom_de":null,"slug_ville":"gironde-sur-dropt","departement_id":634,"code_postal":"33190","population":1311,"superficie_km2":"9.00","latitude_centre":"44.5909996","longitude_centre":"-0.0880000","dep_code":"33","dep_nom":"Gironde","dep_slug":"gironde","reg_code":"15","reg_nom":"Nouvelle-Aquitaine","reg_slug":"nouvelle-aquitaine"},"departement":{"code":"33","nom":"Gironde","slug":"gironde"},"region":{"code":"15","nom":"Nouvelle-Aquitaine","slug":"nouvelle-aquitaine"},"villes_proches":[{"id":2949,"code_insee":"33352","nom_standard":"La Réole","nom_a":null,"nom_de":null,"slug_ville":"la-reole","departement_id":634,"code_postal":"33190","population":4396,"superficie_km2":"13.00","latitude_centre":"44.5859985","longitude_centre":"-0.0420000","distance_km":3.68},{"id":2853,"code_insee":"33111","nom_standard":"Caudrot","nom_a":null,"nom_de":null,"slug_ville":"caudrot","departement_id":634,"code_postal":"33490","population":1106,"superficie_km2":"6.00","latitude_centre":"44.5849991","longitude_centre":"-0.1450000","distance_km":4.56},{"id":2850,"code_insee":"33106","nom_standard":"Castets et Castillon","nom_a":null,"nom_de":null,"slug_ville":"castets-et-castillon","departement_id":634,"code_postal":"33210","population":1513,"superficie_km2":"9.00","latitude_centre":"44.5559998","longitude_centre":"-0.1410000","distance_km":5.72},{"id":2987,"code_insee":"33463","nom_standard":"Saint-Pierre-d'Aurillac","nom_a":null,"nom_de":null,"slug_ville":"saint-pierre-d-aurillac","departement_id":634,"code_postal":"33490","population":1309,"superficie_km2":"7.00","latitude_centre":"44.5789986","longitude_centre":"-0.1930000","distance_km":8.42},{"id":2808,"code_insee":"33021","nom_standard":"Auros","nom_a":null,"nom_de":null,"slug_ville":"auros","departement_id":634,"code_postal":"33124","population":1047,"superficie_km2":"15.00","latitude_centre":"44.5079994","longitude_centre":"-0.1640000","distance_km":11.02},{"id":2988,"code_insee":"33465","nom_standard":"Saint-Pierre-de-Mons","nom_a":null,"nom_de":null,"slug_ville":"saint-pierre-de-mons","departement_id":634,"code_postal":"33210","population":1236,"superficie_km2":"9.00","latitude_centre":"44.5460014","longitude_centre":"-0.2130000","distance_km":11.09},{"id":2976,"code_insee":"33435","nom_standard":"Saint-Macaire","nom_a":null,"nom_de":null,"slug_ville":"saint-macaire","departement_id":634,"code_postal":"33490","population":2017,"superficie_km2":"2.00","latitude_centre":"44.5629997","longitude_centre":"-0.2320000","distance_km":11.82},{"id":3005,"code_insee":"33506","nom_standard":"Sauveterre-de-Guyenne","nom_a":null,"nom_de":null,"slug_ville":"sauveterre-de-guyenne","departement_id":634,"code_postal":"33540","population":1868,"superficie_km2":"32.00","latitude_centre":"44.7000008","longitude_centre":"-0.0770000","distance_km":12.15},{"id":2894,"code_insee":"33221","nom_standard":"Lamothe-Landerron","nom_a":null,"nom_de":null,"slug_ville":"lamothe-landerron","departement_id":634,"code_postal":"33190","population":1121,"superficie_km2":"9.00","latitude_centre":"44.5639992","longitude_centre":"0.0610000","distance_km":12.18},{"id":2979,"code_insee":"33438","nom_standard":"Saint-Maixant","nom_a":null,"nom_de":null,"slug_ville":"saint-maixant","departement_id":634,"code_postal":"33490","population":2033,"superficie_km2":"8.00","latitude_centre":"44.5769997","longitude_centre":"-0.2460000","distance_km":12.61},{"id":3020,"code_insee":"33543","nom_standard":"Verdelais","nom_a":null,"nom_de":null,"slug_ville":"verdelais","departement_id":634,"code_postal":"33490","population":1035,"superficie_km2":"5.00","latitude_centre":"44.5919991","longitude_centre":"-0.2480000","distance_km":12.67},{"id":4658,"code_insee":"47165","nom_standard":"Meilhan-sur-Garonne","nom_a":null,"nom_de":null,"slug_ville":"meilhan-sur-garonne","departement_id":648,"code_postal":"47180","population":1344,"superficie_km2":"29.00","latitude_centre":"44.5070000","longitude_centre":"0.0290000","distance_km":13.16},{"id":2897,"code_insee":"33227","nom_standard":"Langon","nom_a":null,"nom_de":null,"slug_ville":"langon","departement_id":634,"code_postal":"33210","population":7345,"superficie_km2":"14.00","latitude_centre":"44.5379982","longitude_centre":"-0.2420000","distance_km":13.55},{"id":2861,"code_insee":"33130","nom_standard":"Coimères","nom_a":null,"nom_de":null,"slug_ville":"coimeres","departement_id":634,"code_postal":"33210","population":1073,"superficie_km2":"13.00","latitude_centre":"44.5000000","longitude_centre":"-0.2130000","distance_km":14.16},{"id":3015,"code_insee":"33533","nom_standard":"Toulenne","nom_a":null,"nom_de":null,"slug_ville":"toulenne","departement_id":634,"code_postal":"33210","population":2813,"superficie_km2":"7.00","latitude_centre":"44.5639992","longitude_centre":"-0.2750000","distance_km":15.11},{"id":2920,"code_insee":"33289","nom_standard":"Monségur","nom_a":null,"nom_de":null,"slug_ville":"monsegur","departement_id":634,"code_postal":"33580","population":1591,"superficie_km2":"10.00","latitude_centre":"44.6459999","longitude_centre":"0.0890000","distance_km":15.29},{"id":2907,"code_insee":"33253","nom_standard":"Loupiac","nom_a":null,"nom_de":null,"slug_ville":"loupiac","departement_id":634,"code_postal":"33410","population":1097,"superficie_km2":"10.00","latitude_centre":"44.6279984","longitude_centre":"-0.2870000","distance_km":16.28},{"id":4672,"code_insee":"47233","nom_standard":"Sainte-Bazeille","nom_a":null,"nom_de":null,"slug_ville":"sainte-bazeille","departement_id":648,"code_postal":"47180","population":3173,"superficie_km2":"21.00","latitude_centre":"44.5299988","longitude_centre":"0.1030000","distance_km":16.58},{"id":2870,"code_insee":"33164","nom_standard":"Fargues","nom_a":null,"nom_de":null,"slug_ville":"fargues","departement_id":634,"code_postal":"33210","population":1613,"superficie_km2":"15.00","latitude_centre":"44.5349999","longitude_centre":"-0.2950000","distance_km":17.54},{"id":2942,"code_insee":"33337","nom_standard":"Preignac","nom_a":null,"nom_de":null,"slug_ville":"preignac","departement_id":634,"code_postal":"33210","population":2145,"superficie_km2":"13.00","latitude_centre":"44.5699997","longitude_centre":"-0.3100000","distance_km":17.74}]}