{"ville":{"id":20412,"code_insee":"37112","nom_standard":"Gizeux","nom_a":null,"nom_de":null,"slug_ville":"gizeux","departement_id":0,"code_postal":"37340","population":382,"superficie_km2":"2108.58","latitude_centre":"47.3883","longitude_centre":"0.1838","dep_code":"37","dep_nom":"Indre-et-Loire","dep_slug":"indre-et-loire","reg_code":"24","reg_nom":"Centre-Val de Loire","reg_slug":"centre-val-de-loire"},"departement":{"code":"37","nom":"Indre-et-Loire","slug":"indre-et-loire"},"region":{"code":"24","nom":"Centre-Val de Loire","slug":"centre-val-de-loire"},"villes_proches":[{"id":0,"code_insee":"49114","nom_standard":"Courléon","nom_a":null,"nom_de":null,"slug_ville":"courleon","departement_id":0,"code_postal":"49390","population":142,"superficie_km2":"1396.75","latitude_centre":"47.3822","longitude_centre":"0.1491","distance_km":2.7},{"id":20389,"code_insee":"37082","nom_standard":"Continvoir","nom_a":null,"nom_de":null,"slug_ville":"continvoir","departement_id":0,"code_postal":"37340","population":469,"superficie_km2":"4143.29","latitude_centre":"47.3758","longitude_centre":"0.2419","distance_km":4.59},{"id":0,"code_insee":"49369","nom_standard":"Vernoil-le-Fourrier","nom_a":null,"nom_de":null,"slug_ville":"vernoil-le-fourrier","departement_id":0,"code_postal":"49390","population":1366,"superficie_km2":"3323.09","latitude_centre":"47.3972","longitude_centre":"0.1001","distance_km":6.38},{"id":0,"code_insee":"37198","nom_standard":"Rillé","nom_a":null,"nom_de":null,"slug_ville":"rille","departement_id":0,"code_postal":"37340","population":313,"superficie_km2":"2381.93","latitude_centre":"47.4499","longitude_centre":"0.225","distance_km":7.52},{"id":20351,"code_insee":"37024","nom_standard":"Benais","nom_a":null,"nom_de":null,"slug_ville":"benais","departement_id":0,"code_postal":"37140","population":945,"superficie_km2":"2014.48","latitude_centre":"47.3183","longitude_centre":"0.2222","distance_km":8.3},{"id":0,"code_insee":"37117","nom_standard":"Hommes","nom_a":null,"nom_de":null,"slug_ville":"hommes","departement_id":0,"code_postal":"37340","population":865,"superficie_km2":"3028.36","latitude_centre":"47.4255","longitude_centre":"0.2805","distance_km":8.37},{"id":0,"code_insee":"49237","nom_standard":"La Pellerine","nom_a":null,"nom_de":null,"slug_ville":"la-pellerine","departement_id":0,"code_postal":"49490","population":141,"superficie_km2":"537.50","latitude_centre":"47.4578","longitude_centre":"0.1347","distance_km":8.57},{"id":0,"code_insee":"49045","nom_standard":"La Breille-les-Pins","nom_a":null,"nom_de":null,"slug_ville":"la-breille-les-pins","departement_id":0,"code_postal":"49390","population":624,"superficie_km2":"2788.33","latitude_centre":"47.3515","longitude_centre":"0.0819","distance_km":8.7},{"id":0,"code_insee":"37031","nom_standard":"Bourgueil","nom_a":null,"nom_de":null,"slug_ville":"bourgueil","departement_id":0,"code_postal":"37140","population":3631,"superficie_km2":"3299.81","latitude_centre":"47.31","longitude_centre":"0.1712","distance_km":8.76},{"id":20347,"code_insee":"37013","nom_standard":"Avrillé-les-Ponceaux","nom_a":null,"nom_de":null,"slug_ville":"avrille-les-ponceaux","departement_id":0,"code_postal":"37340","population":479,"superficie_km2":"3281.80","latitude_centre":"47.3843","longitude_centre":"0.3027","distance_km":8.96},{"id":0,"code_insee":"37228","nom_standard":"Saint-Nicolas-de-Bourgueil","nom_a":null,"nom_de":null,"slug_ville":"saint-nicolas-de-bourgueil","departement_id":0,"code_postal":"37140","population":1116,"superficie_km2":"3640.97","latitude_centre":"47.3002","longitude_centre":"0.1216","distance_km":10.86},{"id":20373,"code_insee":"37055","nom_standard":"Channay-sur-Lathan","nom_a":null,"nom_de":null,"slug_ville":"channay-sur-lathan","departement_id":0,"code_postal":"37330","population":803,"superficie_km2":"2918.77","latitude_centre":"47.4776","longitude_centre":"0.2483","distance_km":11.05},{"id":0,"code_insee":"37193","nom_standard":"Restigné","nom_a":null,"nom_de":null,"slug_ville":"restigne","departement_id":0,"code_postal":"37140","population":1139,"superficie_km2":"2028.90","latitude_centre":"47.2951","longitude_centre":"0.2383","distance_km":11.15},{"id":0,"code_insee":"37241","nom_standard":"Savigné-sur-Lathan","nom_a":null,"nom_de":null,"slug_ville":"savigne-sur-lathan","departement_id":0,"code_postal":"37340","population":1305,"superficie_km2":"1779.17","latitude_centre":"47.4445","longitude_centre":"0.3202","distance_km":12.02},{"id":0,"code_insee":"49041","nom_standard":"Brain-sur-Allonnes","nom_a":null,"nom_de":null,"slug_ville":"brain-sur-allonnes","departement_id":0,"code_postal":"49650","population":2056,"superficie_km2":"3355.98","latitude_centre":"47.3041","longitude_centre":"0.0743","distance_km":12.48},{"id":0,"code_insee":"37232","nom_standard":"Coteaux-sur-Loire","nom_a":null,"nom_de":null,"slug_ville":"coteaux-sur-loire","departement_id":0,"code_postal":"37130","population":1867,"superficie_km2":"4430.36","latitude_centre":"47.3035","longitude_centre":"0.3109","distance_km":13.44},{"id":0,"code_insee":"49228","nom_standard":"Noyant-Villages","nom_a":null,"nom_de":null,"slug_ville":"noyant-villages","departement_id":0,"code_postal":"49390","population":5448,"superficie_km2":"30077.08","latitude_centre":"47.5111","longitude_centre":"0.1027","distance_km":14.95},{"id":0,"code_insee":"37223","nom_standard":"Saint-Laurent-de-Lin","nom_a":null,"nom_de":null,"slug_ville":"saint-laurent-de-lin","departement_id":0,"code_postal":"37330","population":347,"superficie_km2":"1386.76","latitude_centre":"47.5133","longitude_centre":"0.2679","distance_km":15.27},{"id":0,"code_insee":"37058","nom_standard":"La Chapelle-sur-Loire","nom_a":null,"nom_de":null,"slug_ville":"la-chapelle-sur-loire","departement_id":0,"code_postal":"37140","population":1468,"superficie_km2":"1933.11","latitude_centre":"47.252","longitude_centre":"0.2222","distance_km":15.43},{"id":0,"code_insee":"37137","nom_standard":"Lublé","nom_a":null,"nom_de":null,"slug_ville":"luble","departement_id":0,"code_postal":"37330","population":141,"superficie_km2":"1263.29","latitude_centre":"47.5245","longitude_centre":"0.2607","distance_km":16.21}]}