{"ville":{"id":13947,"code_insee":"15076","nom_standard":"Glénat","nom_a":null,"nom_de":null,"slug_ville":"glenat","departement_id":0,"code_postal":"15150","population":178,"superficie_km2":"2416.27","latitude_centre":"44.8965","longitude_centre":"2.1745","dep_code":"15","dep_nom":"Cantal","dep_slug":"cantal","reg_code":"84","reg_nom":"Auvergne-Rhône-Alpes","reg_slug":"auvergne-rhone-alpes"},"departement":{"code":"15","nom":"Cantal","slug":"cantal"},"region":{"code":"84","nom":"Auvergne-Rhône-Alpes","slug":"auvergne-rhone-alpes"},"villes_proches":[{"id":0,"code_insee":"15224","nom_standard":"La Ségalassière","nom_a":null,"nom_de":null,"slug_ville":"la-segalassiere","departement_id":0,"code_postal":"15290","population":121,"superficie_km2":"668.01","latitude_centre":"44.8934","longitude_centre":"2.2099","distance_km":2.81},{"id":0,"code_insee":"15166","nom_standard":"Roumégoux","nom_a":null,"nom_de":null,"slug_ville":"roumegoux","departement_id":0,"code_postal":"15290","population":336,"superficie_km2":"1355.77","latitude_centre":"44.8611","longitude_centre":"2.1872","distance_km":4.06},{"id":0,"code_insee":"15214","nom_standard":"Saint-Saury","nom_a":null,"nom_de":null,"slug_ville":"saint-saury","departement_id":0,"code_postal":"15290","population":183,"superficie_km2":"3067.16","latitude_centre":"44.877","longitude_centre":"2.124","distance_km":4.53},{"id":0,"code_insee":"15268","nom_standard":"Le Rouget-Pers","nom_a":null,"nom_de":null,"slug_ville":"le-rouget-pers","departement_id":0,"code_postal":"15290","population":1297,"superficie_km2":"2595.24","latitude_centre":"44.884","longitude_centre":"2.2351","distance_km":4.97},{"id":0,"code_insee":"15189","nom_standard":"Saint-Gérons","nom_a":null,"nom_de":null,"slug_ville":"saint-gerons","departement_id":0,"code_postal":"15150","population":220,"superficie_km2":"1838.00","latitude_centre":"44.9422","longitude_centre":"2.2063","distance_km":5.66},{"id":0,"code_insee":"15228","nom_standard":"Siran","nom_a":null,"nom_de":null,"slug_ville":"siran","departement_id":0,"code_postal":"15150","population":467,"superficie_km2":"5064.11","latitude_centre":"44.9448","longitude_centre":"2.1218","distance_km":6.79},{"id":0,"code_insee":"15182","nom_standard":"Saint-Étienne-Cantalès","nom_a":null,"nom_de":null,"slug_ville":"saint-etienne-cantales","departement_id":0,"code_postal":"15150","population":127,"superficie_km2":"1124.44","latitude_centre":"44.9455","longitude_centre":"2.2431","distance_km":7.67},{"id":0,"code_insee":"15144","nom_standard":"Omps","nom_a":null,"nom_de":null,"slug_ville":"omps","departement_id":0,"code_postal":"15290","population":314,"superficie_km2":"1278.26","latitude_centre":"44.8812","longitude_centre":"2.2724","distance_km":7.9},{"id":0,"code_insee":"15147","nom_standard":"Parlan","nom_a":null,"nom_de":null,"slug_ville":"parlan","departement_id":0,"code_postal":"15290","population":475,"superficie_km2":"2462.39","latitude_centre":"44.8213","longitude_centre":"2.171","distance_km":8.37},{"id":0,"code_insee":"15094","nom_standard":"Laroquebrou","nom_a":null,"nom_de":null,"slug_ville":"laroquebrou","departement_id":0,"code_postal":"15150","population":785,"superficie_km2":"1720.85","latitude_centre":"44.9705","longitude_centre":"2.2017","distance_km":8.5},{"id":0,"code_insee":"15088","nom_standard":"Lacapelle-Viescamp","nom_a":null,"nom_de":null,"slug_ville":"lacapelle-viescamp","departement_id":0,"code_postal":"15150","population":528,"superficie_km2":"1719.09","latitude_centre":"44.9279","longitude_centre":"2.2744","distance_km":8.61},{"id":13908,"code_insee":"15030","nom_standard":"Cayrols","nom_a":null,"nom_de":null,"slug_ville":"cayrols","departement_id":0,"code_postal":"15290","population":297,"superficie_km2":"939.75","latitude_centre":"44.8266","longitude_centre":"2.2243","distance_km":8.71},{"id":0,"code_insee":"46135","nom_standard":"Labastide-du-Haut-Mont","nom_a":null,"nom_de":null,"slug_ville":"labastide-du-haut-mont","departement_id":0,"code_postal":"46210","population":44,"superficie_km2":"977.09","latitude_centre":"44.829","longitude_centre":"2.1109","distance_km":9.03},{"id":0,"code_insee":"46338","nom_standard":"Bessonies","nom_a":null,"nom_de":null,"slug_ville":"bessonies","departement_id":0,"code_postal":"46210","population":72,"superficie_km2":"742.54","latitude_centre":"44.8073","longitude_centre":"2.1428","distance_km":10.23},{"id":0,"code_insee":"46302","nom_standard":"Sénaillac-Latronquière","nom_a":null,"nom_de":null,"slug_ville":"senaillac-latronquiere","departement_id":0,"code_postal":"46210","population":127,"superficie_km2":"1130.13","latitude_centre":"44.8372","longitude_centre":"2.0743","distance_km":10.29},{"id":0,"code_insee":"15143","nom_standard":"Nieudan","nom_a":null,"nom_de":null,"slug_ville":"nieudan","departement_id":0,"code_postal":"15150","population":109,"superficie_km2":"1241.29","latitude_centre":"44.9818","longitude_centre":"2.2415","distance_km":10.85},{"id":0,"code_insee":"15135","nom_standard":"Montvert","nom_a":null,"nom_de":null,"slug_ville":"montvert","departement_id":0,"code_postal":"15150","population":112,"superficie_km2":"1129.08","latitude_centre":"44.9973","longitude_centre":"2.1634","distance_km":11.24},{"id":0,"code_insee":"15167","nom_standard":"Rouziers","nom_a":null,"nom_de":null,"slug_ville":"rouziers","departement_id":0,"code_postal":"15600","population":107,"superficie_km2":"873.28","latitude_centre":"44.7936","longitude_centre":"2.2036","distance_km":11.67},{"id":0,"code_insee":"46269","nom_standard":"Saint-Hilaire","nom_a":null,"nom_de":null,"slug_ville":"saint-hilaire","departement_id":0,"code_postal":"46210","population":65,"superficie_km2":"803.55","latitude_centre":"44.7915","longitude_centre":"2.1423","distance_km":11.95},{"id":0,"code_insee":"46161","nom_standard":"Lauresses","nom_a":null,"nom_de":null,"slug_ville":"lauresses","departement_id":0,"code_postal":"46210","population":239,"superficie_km2":"2389.38","latitude_centre":"44.7869","longitude_centre":"2.1144","distance_km":13.08}]}