{"ville":{"id":7970,"code_insee":"76315","nom_standard":"Grainville-la-Teinturière","nom_a":null,"nom_de":null,"slug_ville":"grainville-la-teinturiere","departement_id":677,"code_postal":"76450","population":1072,"superficie_km2":"19.00","latitude_centre":"49.7449989","longitude_centre":"0.6430000","dep_code":"76","dep_nom":"Seine-Maritime","dep_slug":"seine-maritime","reg_code":"14","reg_nom":"Normandie","reg_slug":"normandie"},"departement":{"code":"76","nom":"Seine-Maritime","slug":"seine-maritime"},"region":{"code":"14","nom":"Normandie","slug":"normandie"},"villes_proches":[{"id":7929,"code_insee":"76159","nom_standard":"Cany-Barville","nom_a":null,"nom_de":null,"slug_ville":"cany-barville","departement_id":677,"code_postal":"76450","population":2947,"superficie_km2":"14.00","latitude_centre":"49.7750015","longitude_centre":"0.6330000","distance_km":3.41},{"id":8017,"code_insee":"76490","nom_standard":"Ourville-en-Caux","nom_a":null,"nom_de":null,"slug_ville":"ourville-en-caux","departement_id":677,"code_postal":"76450","population":1105,"superficie_km2":"10.00","latitude_centre":"49.7330017","longitude_centre":"0.5990000","distance_km":3.43},{"id":8009,"code_insee":"76467","nom_standard":"Néville","nom_a":null,"nom_de":null,"slug_ville":"neville","departement_id":677,"code_postal":"76460","population":1339,"superficie_km2":"9.00","latitude_centre":"49.8240013","longitude_centre":"0.7110000","distance_km":10.05},{"id":8068,"code_insee":"76663","nom_standard":"Sassetot-le-Mauconduit","nom_a":null,"nom_de":null,"slug_ville":"sassetot-le-mauconduit","departement_id":677,"code_postal":"76540","population":1011,"superficie_km2":"9.00","latitude_centre":"49.7989998","longitude_centre":"0.5290000","distance_km":10.15},{"id":7900,"code_insee":"76013","nom_standard":"Angerville-la-Martel","nom_a":null,"nom_de":null,"slug_ville":"angerville-la-martel","departement_id":677,"code_postal":"76540","population":1083,"superficie_km2":"10.00","latitude_centre":"49.7680016","longitude_centre":"0.5020000","distance_km":10.45},{"id":7941,"code_insee":"76219","nom_standard":"Doudeville","nom_a":null,"nom_de":null,"slug_ville":"doudeville","departement_id":677,"code_postal":"76560","population":2460,"superficie_km2":"15.00","latitude_centre":"49.7299995","longitude_centre":"0.7870000","distance_km":10.48},{"id":7952,"code_insee":"76258","nom_standard":"Terres-de-Caux","nom_a":null,"nom_de":null,"slug_ville":"terres-de-caux","departement_id":677,"code_postal":"76640","population":4208,"superficie_km2":"8.00","latitude_centre":"49.6570015","longitude_centre":"0.5850000","distance_km":10.64},{"id":7908,"code_insee":"76041","nom_standard":"Les Hauts-de-Caux","nom_a":null,"nom_de":null,"slug_ville":"les-hauts-de-caux","departement_id":677,"code_postal":"76190","population":1344,"superficie_km2":"4.00","latitude_centre":"49.6549988","longitude_centre":"0.7280000","distance_km":11.73},{"id":8066,"code_insee":"76655","nom_standard":"Saint-Valery-en-Caux","nom_a":null,"nom_de":null,"slug_ville":"saint-valery-en-caux","departement_id":677,"code_postal":"76460","population":3915,"superficie_km2":"11.00","latitude_centre":"49.8600006","longitude_centre":"0.7070000","distance_km":13.59},{"id":8084,"code_insee":"76751","nom_standard":"Yébleron","nom_a":null,"nom_de":null,"slug_ville":"yebleron","departement_id":677,"code_postal":"76640","population":1278,"superficie_km2":"10.00","latitude_centre":"49.6310005","longitude_centre":"0.5340000","distance_km":14.91},{"id":8079,"code_insee":"76718","nom_standard":"Valliquerville","nom_a":null,"nom_de":null,"slug_ville":"valliquerville","departement_id":677,"code_postal":"76190","population":1423,"superficie_km2":"13.00","latitude_centre":"49.6170006","longitude_centre":"0.7110000","distance_km":15.05},{"id":8087,"code_insee":"76758","nom_standard":"Yvetot","nom_a":null,"nom_de":null,"slug_ville":"yvetot","departement_id":677,"code_postal":"76190","population":11385,"superficie_km2":"7.00","latitude_centre":"49.6180000","longitude_centre":"0.7620000","distance_km":16.51},{"id":8051,"code_insee":"76610","nom_standard":"Sainte-Marie-des-Champs","nom_a":null,"nom_de":null,"slug_ville":"sainte-marie-des-champs","departement_id":677,"code_postal":"76190","population":1579,"superficie_km2":"4.00","latitude_centre":"49.6259995","longitude_centre":"0.7820000","distance_km":16.59},{"id":7898,"code_insee":"76001","nom_standard":"Allouville-Bellefosse","nom_a":null,"nom_de":null,"slug_ville":"allouville-bellefosse","departement_id":677,"code_postal":"76190","population":1150,"superficie_km2":"15.00","latitude_centre":"49.5950012","longitude_centre":"0.6650000","distance_km":16.75},{"id":7909,"code_insee":"76043","nom_standard":"Auzebosc","nom_a":null,"nom_de":null,"slug_ville":"auzebosc","departement_id":677,"code_postal":"76190","population":1143,"superficie_km2":"5.00","latitude_centre":"49.6010017","longitude_centre":"0.7340000","distance_km":17.3},{"id":7953,"code_insee":"76259","nom_standard":"Fécamp","nom_a":null,"nom_de":null,"slug_ville":"fecamp","departement_id":677,"code_postal":"76400","population":18016,"superficie_km2":"15.00","latitude_centre":"49.7519989","longitude_centre":"0.3950000","distance_km":17.84},{"id":8085,"code_insee":"76752","nom_standard":"Yerville","nom_a":null,"nom_de":null,"slug_ville":"yerville","departement_id":677,"code_postal":"76760","population":2584,"superficie_km2":"10.00","latitude_centre":"49.6720009","longitude_centre":"0.8870000","distance_km":19.33},{"id":7985,"code_insee":"76382","nom_standard":"Lanquetot","nom_a":null,"nom_de":null,"slug_ville":"lanquetot","departement_id":677,"code_postal":"76210","population":1152,"superficie_km2":"5.00","latitude_centre":"49.5830002","longitude_centre":"0.5300000","distance_km":19.76},{"id":7946,"code_insee":"76240","nom_standard":"Épreville","nom_a":null,"nom_de":null,"slug_ville":"epreville","departement_id":677,"code_postal":"76400","population":1052,"superficie_km2":"6.00","latitude_centre":"49.7050018","longitude_centre":"0.3680000","distance_km":20.26},{"id":8010,"code_insee":"76468","nom_standard":"Nointot","nom_a":null,"nom_de":null,"slug_ville":"nointot","departement_id":677,"code_postal":"76210","population":1364,"superficie_km2":"6.00","latitude_centre":"49.5979996","longitude_centre":"0.4730000","distance_km":20.42}]}