{"ville":{"id":35283,"code_insee":"97211","nom_standard":"Grand'Rivière","nom_a":null,"nom_de":null,"slug_ville":"grand-riviere","departement_id":0,"code_postal":"97218","population":487,"superficie_km2":"1669.30","latitude_centre":"14.847","longitude_centre":"-61.1836","dep_code":"972","dep_nom":"Martinique","dep_slug":"martinique","reg_code":"02","reg_nom":"Martinique","reg_slug":"martinique"},"departement":{"code":"972","nom":"Martinique","slug":"martinique"},"region":{"code":"02","nom":"Martinique","slug":"martinique"},"villes_proches":[{"id":0,"code_insee":"97219","nom_standard":"Le Prêcheur","nom_a":null,"nom_de":null,"slug_ville":"le-precheur","departement_id":0,"code_postal":"97250","population":1479,"superficie_km2":"2994.18","latitude_centre":"14.8221","longitude_centre":"-61.1963","distance_km":3.09},{"id":0,"code_insee":"97215","nom_standard":"Macouba","nom_a":null,"nom_de":null,"slug_ville":"macouba","departement_id":0,"code_postal":"97218","population":987,"superficie_km2":"1695.48","latitude_centre":"14.8474","longitude_centre":"-61.1465","distance_km":3.99},{"id":0,"code_insee":"97203","nom_standard":"Basse-Pointe","nom_a":null,"nom_de":null,"slug_ville":"basse-pointe","departement_id":0,"code_postal":"97218","population":2852,"superficie_km2":"2793.24","latitude_centre":"14.841","longitude_centre":"-61.1237","distance_km":6.47},{"id":0,"code_insee":"97201","nom_standard":"L'Ajoupa-Bouillon","nom_a":null,"nom_de":null,"slug_ville":"l-ajoupa-bouillon","departement_id":0,"code_postal":"97216","population":1682,"superficie_km2":"1237.18","latitude_centre":"14.816","longitude_centre":"-61.1305","distance_km":6.67},{"id":0,"code_insee":"97225","nom_standard":"Saint-Pierre","nom_a":null,"nom_de":null,"slug_ville":"saint-pierre","departement_id":0,"code_postal":"97250","population":3961,"superficie_km2":"3869.43","latitude_centre":"14.7717","longitude_centre":"-61.1735","distance_km":8.44},{"id":0,"code_insee":"97218","nom_standard":"Le Morne-Rouge","nom_a":null,"nom_de":null,"slug_ville":"le-morne-rouge","departement_id":0,"code_postal":"97260","population":4388,"superficie_km2":"3768.01","latitude_centre":"14.7695","longitude_centre":"-61.1217","distance_km":10.89},{"id":0,"code_insee":"97214","nom_standard":"Le Lorrain","nom_a":null,"nom_de":null,"slug_ville":"le-lorrain","departement_id":0,"code_postal":"97214","population":6566,"superficie_km2":"5049.31","latitude_centre":"14.7995","longitude_centre":"-61.074","distance_km":12.91},{"id":35282,"code_insee":"97208","nom_standard":"Fonds-Saint-Denis","nom_a":null,"nom_de":null,"slug_ville":"fonds-saint-denis","departement_id":0,"code_postal":"97250","population":640,"superficie_km2":"2378.95","latitude_centre":"14.7228","longitude_centre":"-61.1207","distance_km":15.38},{"id":0,"code_insee":"97216","nom_standard":"Le Marigot","nom_a":null,"nom_de":null,"slug_ville":"le-marigot","departement_id":0,"code_postal":"97225","population":2948,"superficie_km2":"2176.73","latitude_centre":"14.7795","longitude_centre":"-61.053","distance_km":15.92},{"id":0,"code_insee":"97204","nom_standard":"Le Carbet","nom_a":null,"nom_de":null,"slug_ville":"le-carbet","departement_id":0,"code_postal":"97221","population":3721,"superficie_km2":"1789.74","latitude_centre":"14.7041","longitude_centre":"-61.1583","distance_km":16.12},{"id":0,"code_insee":"97233","nom_standard":"Le Morne-Vert","nom_a":null,"nom_de":null,"slug_ville":"le-morne-vert","departement_id":0,"code_postal":"97226","population":1718,"superficie_km2":"1337.79","latitude_centre":"14.7046","longitude_centre":"-61.1362","distance_km":16.63},{"id":0,"code_insee":"97234","nom_standard":"Bellefontaine","nom_a":null,"nom_de":null,"slug_ville":"bellefontaine","departement_id":0,"code_postal":"97222","population":1746,"superficie_km2":"1196.57","latitude_centre":"14.6747","longitude_centre":"-61.146","distance_km":19.58},{"id":0,"code_insee":"97228","nom_standard":"Sainte-Marie","nom_a":null,"nom_de":null,"slug_ville":"sainte-marie","departement_id":0,"code_postal":"97230","population":14756,"superficie_km2":"4465.39","latitude_centre":"14.773","longitude_centre":"-61.0084","distance_km":20.55},{"id":0,"code_insee":"97205","nom_standard":"Case-Pilote","nom_a":null,"nom_de":null,"slug_ville":"case-pilote","departement_id":0,"code_postal":"97222","population":4537,"superficie_km2":"1857.20","latitude_centre":"14.6594","longitude_centre":"-61.1297","distance_km":21.65},{"id":0,"code_insee":"97212","nom_standard":"Gros-Morne","nom_a":null,"nom_de":null,"slug_ville":"gros-morne","departement_id":0,"code_postal":"97213","population":9610,"superficie_km2":"4627.46","latitude_centre":"14.7084","longitude_centre":"-61.0303","distance_km":22.57},{"id":0,"code_insee":"97229","nom_standard":"Schœlcher","nom_a":null,"nom_de":null,"slug_ville":"schoelcher","departement_id":0,"code_postal":"97233","population":19478,"superficie_km2":"2130.25","latitude_centre":"14.6518","longitude_centre":"-61.1001","distance_km":23.49},{"id":0,"code_insee":"97224","nom_standard":"Saint-Joseph","nom_a":null,"nom_de":null,"slug_ville":"saint-joseph","departement_id":0,"code_postal":"97212","population":16258,"superficie_km2":"4357.82","latitude_centre":"14.6835","longitude_centre":"-61.0407","distance_km":23.8},{"id":0,"code_insee":"97209","nom_standard":"Fort-de-France","nom_a":null,"nom_de":null,"slug_ville":"fort-de-france","departement_id":0,"code_postal":"97200","population":75506,"superficie_km2":"4403.76","latitude_centre":"14.6492","longitude_centre":"-61.0686","distance_km":25.23},{"id":0,"code_insee":"97230","nom_standard":"La Trinité","nom_a":null,"nom_de":null,"slug_ville":"la-trinite","departement_id":0,"code_postal":"97220","population":11454,"superficie_km2":"4602.16","latitude_centre":"14.7518","longitude_centre":"-60.9469","distance_km":27.56},{"id":0,"code_insee":"97213","nom_standard":"Le Lamentin","nom_a":null,"nom_de":null,"slug_ville":"le-lamentin","departement_id":0,"code_postal":"97232","population":39400,"superficie_km2":"6273.15","latitude_centre":"14.6231","longitude_centre":"-60.9923","distance_km":32.3}]}