{"ville":{"id":34412,"code_insee":"88212","nom_standard":"Grand","nom_a":null,"nom_de":null,"slug_ville":"grand","departement_id":0,"code_postal":"88350","population":372,"superficie_km2":"3664.43","latitude_centre":"48.3946","longitude_centre":"5.4732","dep_code":"88","dep_nom":"Vosges","dep_slug":"vosges","reg_code":"44","reg_nom":"Grand Est","reg_slug":"grand-est"},"departement":{"code":"88","nom":"Vosges","slug":"vosges"},"region":{"code":"44","nom":"Grand Est","slug":"grand-est"},"villes_proches":[{"id":34306,"code_insee":"88074","nom_standard":"Brechainville","nom_a":null,"nom_de":null,"slug_ville":"brechainville","departement_id":0,"code_postal":"88350","population":55,"superficie_km2":"1425.30","latitude_centre":"48.3618","longitude_centre":"5.5023","distance_km":4.23},{"id":0,"code_insee":"88477","nom_standard":"Trampot","nom_a":null,"nom_de":null,"slug_ville":"trampot","departement_id":0,"code_postal":"88350","population":99,"superficie_km2":"1318.10","latitude_centre":"48.3557","longitude_centre":"5.4458","distance_km":4.78},{"id":24113,"code_insee":"52342","nom_standard":"Morionvilliers","nom_a":null,"nom_de":null,"slug_ville":"morionvilliers","departement_id":0,"code_postal":"52700","population":24,"superficie_km2":"681.51","latitude_centre":"48.3762","longitude_centre":"5.4112","distance_km":5.01},{"id":34262,"code_insee":"88025","nom_standard":"Avranville","nom_a":null,"nom_de":null,"slug_ville":"avranville","departement_id":0,"code_postal":"88630","population":66,"superficie_km2":"1089.18","latitude_centre":"48.4165","longitude_centre":"5.5388","distance_km":5.42},{"id":25001,"code_insee":"55104","nom_standard":"Chassey-Beaupré","nom_a":null,"nom_de":null,"slug_ville":"chassey-beaupre","departement_id":0,"code_postal":"55130","population":94,"superficie_km2":"1418.44","latitude_centre":"48.4446","longitude_centre":"5.4375","distance_km":6.15},{"id":24075,"code_insee":"52288","nom_standard":"Lezéville","nom_a":null,"nom_de":null,"slug_ville":"lezeville","departement_id":0,"code_postal":"52230","population":106,"superficie_km2":"2576.49","latitude_centre":"48.4262","longitude_centre":"5.3979","distance_km":6.58},{"id":23871,"code_insee":"52003","nom_standard":"Aillianville","nom_a":null,"nom_de":null,"slug_ville":"aillianville","departement_id":0,"code_postal":"52700","population":148,"superficie_km2":"2377.60","latitude_centre":"48.3343","longitude_centre":"5.4798","distance_km":6.72},{"id":25030,"code_insee":"55142","nom_standard":"Dainville-Bertheléville","nom_a":null,"nom_de":null,"slug_ville":"dainville-bertheleville","departement_id":0,"code_postal":"55130","population":120,"superficie_km2":"4025.05","latitude_centre":"48.4508","longitude_centre":"5.5135","distance_km":6.92},{"id":23938,"code_insee":"52097","nom_standard":"Chambroncourt","nom_a":null,"nom_de":null,"slug_ville":"chambroncourt","departement_id":0,"code_postal":"52700","population":48,"superficie_km2":"1019.67","latitude_centre":"48.3503","longitude_centre":"5.3987","distance_km":7.39},{"id":34324,"code_insee":"88102","nom_standard":"Chermisey","nom_a":null,"nom_de":null,"slug_ville":"chermisey","departement_id":0,"code_postal":"88630","population":83,"superficie_km2":"1077.79","latitude_centre":"48.4125","longitude_centre":"5.5717","distance_km":7.54},{"id":24026,"code_insee":"52218","nom_standard":"Germay","nom_a":null,"nom_de":null,"slug_ville":"germay","departement_id":0,"code_postal":"52230","population":49,"superficie_km2":"1191.88","latitude_centre":"48.4074","longitude_centre":"5.3726","distance_km":7.56},{"id":24027,"code_insee":"52219","nom_standard":"Germisay","nom_a":null,"nom_de":null,"slug_ville":"germisay","departement_id":0,"code_postal":"52230","population":17,"superficie_km2":"668.80","latitude_centre":"48.3909","longitude_centre":"5.3666","distance_km":7.88},{"id":0,"code_insee":"88303","nom_standard":"Midrevaux","nom_a":null,"nom_de":null,"slug_ville":"midrevaux","departement_id":0,"code_postal":"88630","population":173,"superficie_km2":"1424.17","latitude_centre":"48.3869","longitude_centre":"5.5827","distance_km":8.13},{"id":23962,"code_insee":"52131","nom_standard":"Cirfontaines-en-Ornois","nom_a":null,"nom_de":null,"slug_ville":"cirfontaines-en-ornois","departement_id":0,"code_postal":"52230","population":89,"superficie_km2":"1401.15","latitude_centre":"48.4515","longitude_centre":"5.3989","distance_km":8.37},{"id":24073,"code_insee":"52286","nom_standard":"Leurville","nom_a":null,"nom_de":null,"slug_ville":"leurville","departement_id":0,"code_postal":"52700","population":81,"superficie_km2":"1043.16","latitude_centre":"48.3374","longitude_centre":"5.3858","distance_km":9.06},{"id":25108,"code_insee":"55247","nom_standard":"Horville-en-Ornois","nom_a":null,"nom_de":null,"slug_ville":"horville-en-ornois","departement_id":0,"code_postal":"55130","population":45,"superficie_km2":"763.56","latitude_centre":"48.4857","longitude_centre":"5.4689","distance_km":10.13},{"id":24054,"code_insee":"52256","nom_standard":"Lafauche","nom_a":null,"nom_de":null,"slug_ville":"lafauche","departement_id":0,"code_postal":"52700","population":74,"superficie_km2":"517.01","latitude_centre":"48.3039","longitude_centre":"5.4908","distance_km":10.17},{"id":24134,"code_insee":"52369","nom_standard":"Orquevaux","nom_a":null,"nom_de":null,"slug_ville":"orquevaux","departement_id":0,"code_postal":"52700","population":70,"superficie_km2":"1562.11","latitude_centre":"48.3088","longitude_centre":"5.4157","distance_km":10.44},{"id":0,"code_insee":"55215","nom_standard":"Gondrecourt-le-Château","nom_a":null,"nom_de":null,"slug_ville":"gondrecourt-le-chateau","departement_id":0,"code_postal":"55130","population":1032,"superficie_km2":"5131.65","latitude_centre":"48.4924","longitude_centre":"5.4981","distance_km":11.03},{"id":24243,"code_insee":"52517","nom_standard":"Vesaignes-sous-Lafauche","nom_a":null,"nom_de":null,"slug_ville":"vesaignes-sous-lafauche","departement_id":0,"code_postal":"52700","population":116,"superficie_km2":"1391.34","latitude_centre":"48.2846","longitude_centre":"5.4462","distance_km":12.39}]}