{"ville":{"id":32452,"code_insee":"78283","nom_standard":"Grandchamp","nom_a":null,"nom_de":null,"slug_ville":"grandchamp","departement_id":0,"code_postal":"78113","population":300,"superficie_km2":"609.61","latitude_centre":"48.7207","longitude_centre":"1.6141","dep_code":"78","dep_nom":"Yvelines","dep_slug":"yvelines","reg_code":"11","reg_nom":"Île-de-France","reg_slug":"ile-de-france"},"departement":{"code":"78","nom":"Yvelines","slug":"yvelines"},"region":{"code":"11","nom":"Île-de-France","slug":"ile-de-france"},"villes_proches":[{"id":0,"code_insee":"78302","nom_standard":"La Hauteville","nom_a":null,"nom_de":null,"slug_ville":"la-hauteville","departement_id":0,"code_postal":"78113","population":157,"superficie_km2":"489.71","latitude_centre":"48.7049","longitude_centre":"1.6257","distance_km":1.95},{"id":0,"code_insee":"78606","nom_standard":"Le Tartre-Gaudran","nom_a":null,"nom_de":null,"slug_ville":"le-tartre-gaudran","departement_id":0,"code_postal":"78113","population":37,"superficie_km2":"430.23","latitude_centre":"48.6976","longitude_centre":"1.6028","distance_km":2.7},{"id":17997,"code_insee":"28299","nom_standard":"Les Pinthières","nom_a":null,"nom_de":null,"slug_ville":"les-pinthieres","departement_id":0,"code_postal":"28210","population":165,"superficie_km2":"404.30","latitude_centre":"48.7044","longitude_centre":"1.5748","distance_km":3.41},{"id":32407,"code_insee":"78006","nom_standard":"Adainville","nom_a":null,"nom_de":null,"slug_ville":"adainville","departement_id":0,"code_postal":"78113","population":673,"superficie_km2":"1018.75","latitude_centre":"48.7206","longitude_centre":"1.6629","distance_km":3.58},{"id":0,"code_insee":"28056","nom_standard":"Boutigny-Prouais","nom_a":null,"nom_de":null,"slug_ville":"boutigny-prouais","departement_id":0,"code_postal":"28410","population":1704,"superficie_km2":"3296.94","latitude_centre":"48.7363","longitude_centre":"1.5674","distance_km":3.84},{"id":0,"code_insee":"78171","nom_standard":"Condé-sur-Vesgre","nom_a":null,"nom_de":null,"slug_ville":"conde-sur-vesgre","departement_id":0,"code_postal":"78113","population":1279,"superficie_km2":"1077.68","latitude_centre":"48.7308","longitude_centre":"1.669","distance_km":4.18},{"id":32435,"code_insee":"78194","nom_standard":"Dannemarie","nom_a":null,"nom_de":null,"slug_ville":"dannemarie","departement_id":0,"code_postal":"78550","population":229,"superficie_km2":"345.41","latitude_centre":"48.7623","longitude_centre":"1.6036","distance_km":4.69},{"id":32424,"code_insee":"78096","nom_standard":"Bourdonné","nom_a":null,"nom_de":null,"slug_ville":"bourdonne","departement_id":0,"code_postal":"78113","population":506,"superficie_km2":"1091.26","latitude_centre":"48.7556","longitude_centre":"1.6559","distance_km":4.95},{"id":32421,"code_insee":"78077","nom_standard":"La Boissière-École","nom_a":null,"nom_de":null,"slug_ville":"la-boissiere-ecole","departement_id":0,"code_postal":"78125","population":747,"superficie_km2":"2558.26","latitude_centre":"48.6911","longitude_centre":"1.6661","distance_km":5.04},{"id":17892,"code_insee":"28146","nom_standard":"Faverolles","nom_a":null,"nom_de":null,"slug_ville":"faverolles","departement_id":0,"code_postal":"28210","population":820,"superficie_km2":"1004.21","latitude_centre":"48.6799","longitude_centre":"1.5818","distance_km":5.12},{"id":18028,"code_insee":"28343","nom_standard":"Saint-Laurent-la-Gâtine","nom_a":null,"nom_de":null,"slug_ville":"saint-laurent-la-gatine","departement_id":0,"code_postal":"28210","population":470,"superficie_km2":"699.54","latitude_centre":"48.6924","longitude_centre":"1.54","distance_km":6.28},{"id":0,"code_insee":"78407","nom_standard":"Mittainville","nom_a":null,"nom_de":null,"slug_ville":"mittainville","departement_id":0,"code_postal":"78125","population":659,"superficie_km2":"1064.68","latitude_centre":"48.6639","longitude_centre":"1.6363","distance_km":6.52},{"id":0,"code_insee":"78381","nom_standard":"Maulette","nom_a":null,"nom_de":null,"slug_ville":"maulette","departement_id":0,"code_postal":"78550","population":1088,"superficie_km2":"790.62","latitude_centre":"48.7842","longitude_centre":"1.6111","distance_km":7.06},{"id":17841,"code_insee":"28062","nom_standard":"Broué","nom_a":null,"nom_de":null,"slug_ville":"broue","departement_id":0,"code_postal":"28410","population":837,"superficie_km2":"1219.41","latitude_centre":"48.752","longitude_centre":"1.5251","distance_km":7.4},{"id":18047,"code_insee":"28372","nom_standard":"Senantes","nom_a":null,"nom_de":null,"slug_ville":"senantes","departement_id":0,"code_postal":"28210","population":528,"superficie_km2":"769.42","latitude_centre":"48.6568","longitude_centre":"1.5818","distance_km":7.49},{"id":0,"code_insee":"78263","nom_standard":"Gambais","nom_a":null,"nom_de":null,"slug_ville":"gambais","departement_id":0,"code_postal":"78950","population":2574,"superficie_km2":"2273.32","latitude_centre":"48.7774","longitude_centre":"1.6732","distance_km":7.65},{"id":0,"code_insee":"28185","nom_standard":"Goussainville","nom_a":null,"nom_de":null,"slug_ville":"goussainville","departement_id":0,"code_postal":"28410","population":1335,"superficie_km2":"1323.72","latitude_centre":"48.7831","longitude_centre":"1.5566","distance_km":8.12},{"id":0,"code_insee":"28113","nom_standard":"Coulombs","nom_a":null,"nom_de":null,"slug_ville":"coulombs","departement_id":0,"code_postal":"28210","population":1363,"superficie_km2":"1263.95","latitude_centre":"48.6562","longitude_centre":"1.5527","distance_km":8.47},{"id":0,"code_insee":"78310","nom_standard":"Houdan","nom_a":null,"nom_de":null,"slug_ville":"houdan","departement_id":0,"code_postal":"78550","population":3721,"superficie_km2":"1041.03","latitude_centre":"48.7968","longitude_centre":"1.5981","distance_km":8.54},{"id":18032,"code_insee":"28349","nom_standard":"Saint-Lucien","nom_a":null,"nom_de":null,"slug_ville":"saint-lucien","departement_id":0,"code_postal":"28210","population":283,"superficie_km2":"882.20","latitude_centre":"48.641","longitude_centre":"1.6235","distance_km":8.89}]}