{"ville":{"id":33452,"code_insee":"81106","nom_standard":"Grazac","nom_a":null,"nom_de":null,"slug_ville":"grazac","departement_id":0,"code_postal":"81800","population":650,"superficie_km2":"3208.37","latitude_centre":"43.8454","longitude_centre":"1.6462","dep_code":"81","dep_nom":"Tarn","dep_slug":"tarn","reg_code":"76","reg_nom":"Occitanie","reg_slug":"occitanie"},"departement":{"code":"81","nom":"Tarn","slug":"tarn"},"region":{"code":"76","nom":"Occitanie","slug":"occitanie"},"villes_proches":[{"id":0,"code_insee":"81228","nom_standard":"Roquemaure","nom_a":null,"nom_de":null,"slug_ville":"roquemaure","departement_id":0,"code_postal":"81800","population":465,"superficie_km2":"1594.93","latitude_centre":"43.8225","longitude_centre":"1.6167","distance_km":3.48},{"id":0,"code_insee":"81185","nom_standard":"Montvalen","nom_a":null,"nom_de":null,"slug_ville":"montvalen","departement_id":0,"code_postal":"81630","population":243,"superficie_km2":"1194.00","latitude_centre":"43.8562","longitude_centre":"1.5897","distance_km":4.69},{"id":0,"code_insee":"81293","nom_standard":"Tauriac","nom_a":null,"nom_de":null,"slug_ville":"tauriac","departement_id":0,"code_postal":"81630","population":413,"superficie_km2":"1014.01","latitude_centre":"43.8828","longitude_centre":"1.5933","distance_km":5.94},{"id":0,"code_insee":"81164","nom_standard":"Mézens","nom_a":null,"nom_de":null,"slug_ville":"mezens","departement_id":0,"code_postal":"81800","population":536,"superficie_km2":"599.05","latitude_centre":"43.7909","longitude_centre":"1.66","distance_km":6.16},{"id":0,"code_insee":"31346","nom_standard":"Mirepoix-sur-Tarn","nom_a":null,"nom_de":null,"slug_ville":"mirepoix-sur-tarn","departement_id":0,"code_postal":"31340","population":1139,"superficie_km2":"555.76","latitude_centre":"43.8269","longitude_centre":"1.5726","distance_km":6.25},{"id":0,"code_insee":"81220","nom_standard":"Rabastens","nom_a":null,"nom_de":null,"slug_ville":"rabastens","departement_id":0,"code_postal":"81800","population":5867,"superficie_km2":"6665.57","latitude_centre":"43.8397","longitude_centre":"1.7279","distance_km":6.58},{"id":18889,"code_insee":"31288","nom_standard":"Layrac-sur-Tarn","nom_a":null,"nom_de":null,"slug_ville":"layrac-sur-tarn","departement_id":0,"code_postal":"31340","population":320,"superficie_km2":"725.14","latitude_centre":"43.8327","longitude_centre":"1.5655","distance_km":6.62},{"id":0,"code_insee":"31066","nom_standard":"Bessières","nom_a":null,"nom_de":null,"slug_ville":"bessieres","departement_id":0,"code_postal":"31660","population":4310,"superficie_km2":"1672.34","latitude_centre":"43.794","longitude_centre":"1.5846","distance_km":7.56},{"id":33396,"code_insee":"81024","nom_standard":"Beauvais-sur-Tescou","nom_a":null,"nom_de":null,"slug_ville":"beauvais-sur-tescou","departement_id":0,"code_postal":"81630","population":379,"superficie_km2":"1220.02","latitude_centre":"43.8952","longitude_centre":"1.582","distance_km":7.56},{"id":0,"code_insee":"81178","nom_standard":"Montgaillard","nom_a":null,"nom_de":null,"slug_ville":"montgaillard","departement_id":0,"code_postal":"81630","population":362,"superficie_km2":"1515.88","latitude_centre":"43.9082","longitude_centre":"1.6087","distance_km":7.6},{"id":18742,"code_insee":"31073","nom_standard":"Bondigoux","nom_a":null,"nom_de":null,"slug_ville":"bondigoux","departement_id":0,"code_postal":"31340","population":766,"superficie_km2":"751.45","latitude_centre":"43.8455","longitude_centre":"1.5455","distance_km":8.08},{"id":0,"code_insee":"31094","nom_standard":"Buzet-sur-Tarn","nom_a":null,"nom_de":null,"slug_ville":"buzet-sur-tarn","departement_id":0,"code_postal":"31660","population":2963,"superficie_km2":"3038.87","latitude_centre":"43.7721","longitude_centre":"1.6099","distance_km":8.66},{"id":0,"code_insee":"81070","nom_standard":"Coufouleux","nom_a":null,"nom_de":null,"slug_ville":"coufouleux","departement_id":0,"code_postal":"81800","population":3057,"superficie_km2":"2717.16","latitude_centre":"43.7993","longitude_centre":"1.7337","distance_km":8.69},{"id":0,"code_insee":"81276","nom_standard":"Salvagnac","nom_a":null,"nom_de":null,"slug_ville":"salvagnac","departement_id":0,"code_postal":"81630","population":1237,"superficie_km2":"3363.49","latitude_centre":"43.9226","longitude_centre":"1.6778","distance_km":8.95},{"id":0,"code_insee":"31311","nom_standard":"La Magdelaine-sur-Tarn","nom_a":null,"nom_de":null,"slug_ville":"la-magdelaine-sur-tarn","departement_id":0,"code_postal":"31340","population":1254,"superficie_km2":"694.18","latitude_centre":"43.8146","longitude_centre":"1.5367","distance_km":9.43},{"id":0,"code_insee":"81272","nom_standard":"Saint-Urcisse","nom_a":null,"nom_de":null,"slug_ville":"saint-urcisse","departement_id":0,"code_postal":"81630","population":230,"superficie_km2":"1212.45","latitude_centre":"43.9348","longitude_centre":"1.605","distance_km":10.47},{"id":0,"code_insee":"81271","nom_standard":"Saint-Sulpice-la-Pointe","nom_a":null,"nom_de":null,"slug_ville":"saint-sulpice-la-pointe","departement_id":0,"code_postal":"81370","population":9719,"superficie_km2":"2407.67","latitude_centre":"43.7567","longitude_centre":"1.6906","distance_km":10.49},{"id":0,"code_insee":"81279","nom_standard":"La Sauzière-Saint-Jean","nom_a":null,"nom_de":null,"slug_ville":"la-sauziere-saint-jean","departement_id":0,"code_postal":"81630","population":254,"superficie_km2":"1593.92","latitude_centre":"43.9514","longitude_centre":"1.6478","distance_km":11.79},{"id":0,"code_insee":"81175","nom_standard":"Montdurausse","nom_a":null,"nom_de":null,"slug_ville":"montdurausse","departement_id":0,"code_postal":"81630","population":396,"superficie_km2":"1613.71","latitude_centre":"43.9495","longitude_centre":"1.593","distance_km":12.34},{"id":19016,"code_insee":"31459","nom_standard":"Roquesérière","nom_a":null,"nom_de":null,"slug_ville":"roqueseriere","departement_id":0,"code_postal":"31380","population":942,"superficie_km2":"1064.82","latitude_centre":"43.7299","longitude_centre":"1.634","distance_km":12.88}]}