{"ville":{"id":25089,"code_insee":"55219","nom_standard":"Grimaucourt-en-Woëvre","nom_a":null,"nom_de":null,"slug_ville":"grimaucourt-en-woevre","departement_id":0,"code_postal":"55400","population":94,"superficie_km2":"565.24","latitude_centre":"49.164","longitude_centre":"5.5668","dep_code":"55","dep_nom":"Meuse","dep_slug":"meuse","reg_code":"44","reg_nom":"Grand Est","reg_slug":"grand-est"},"departement":{"code":"55","nom":"Meuse","slug":"meuse"},"region":{"code":"44","nom":"Grand Est","slug":"grand-est"},"villes_proches":[{"id":0,"code_insee":"55356","nom_standard":"Moranville","nom_a":null,"nom_de":null,"slug_ville":"moranville","departement_id":0,"code_postal":"55400","population":103,"superficie_km2":"675.25","latitude_centre":"49.1779","longitude_centre":"5.5415","distance_km":2.4},{"id":24960,"code_insee":"55055","nom_standard":"Blanzée","nom_a":null,"nom_de":null,"slug_ville":"blanzee","departement_id":0,"code_postal":"55400","population":12,"superficie_km2":"341.38","latitude_centre":"49.1609","longitude_centre":"5.5335","distance_km":2.45},{"id":0,"code_insee":"55244","nom_standard":"Herméville-en-Woëvre","nom_a":null,"nom_de":null,"slug_ville":"hermeville-en-woevre","departement_id":0,"code_postal":"55400","population":218,"superficie_km2":"1458.28","latitude_centre":"49.1768","longitude_centre":"5.6043","distance_km":3.08},{"id":0,"code_insee":"55579","nom_standard":"Watronville","nom_a":null,"nom_de":null,"slug_ville":"watronville","departement_id":0,"code_postal":"55160","population":103,"superficie_km2":"654.49","latitude_centre":"49.1369","longitude_centre":"5.5414","distance_km":3.53},{"id":0,"code_insee":"55439","nom_standard":"Ronvaux","nom_a":null,"nom_de":null,"slug_ville":"ronvaux","departement_id":0,"code_postal":"55160","population":105,"superficie_km2":"262.98","latitude_centre":"49.1315","longitude_centre":"5.5596","distance_km":3.65},{"id":0,"code_insee":"55557","nom_standard":"Ville-en-Woëvre","nom_a":null,"nom_de":null,"slug_ville":"ville-en-woevre","departement_id":0,"code_postal":"55160","population":131,"superficie_km2":"1423.20","latitude_centre":"49.1399","longitude_centre":"5.6108","distance_km":4.17},{"id":24917,"code_insee":"55002","nom_standard":"Abaucourt-Hautecourt","nom_a":null,"nom_de":null,"slug_ville":"abaucourt-hautecourt","departement_id":0,"code_postal":"55400","population":101,"superficie_km2":"964.18","latitude_centre":"49.1998","longitude_centre":"5.5469","distance_km":4.24},{"id":24975,"code_insee":"55072","nom_standard":"Braquis","nom_a":null,"nom_de":null,"slug_ville":"braquis","departement_id":0,"code_postal":"55400","population":105,"superficie_km2":"492.49","latitude_centre":"49.1563","longitude_centre":"5.6258","distance_km":4.37},{"id":25002,"code_insee":"55105","nom_standard":"Châtillon-sous-les-Côtes","nom_a":null,"nom_de":null,"slug_ville":"chatillon-sous-les-cotes","departement_id":0,"code_postal":"55400","population":176,"superficie_km2":"1071.75","latitude_centre":"49.1393","longitude_centre":"5.5129","distance_km":4.79},{"id":0,"code_insee":"55317","nom_standard":"Manheulles","nom_a":null,"nom_de":null,"slug_ville":"manheulles","departement_id":0,"code_postal":"55160","population":156,"superficie_km2":"1046.90","latitude_centre":"49.1229","longitude_centre":"5.5956","distance_km":5.03},{"id":25076,"code_insee":"55201","nom_standard":"Fromezey","nom_a":null,"nom_de":null,"slug_ville":"fromezey","departement_id":0,"code_postal":"55400","population":64,"superficie_km2":"589.44","latitude_centre":"49.2092","longitude_centre":"5.5827","distance_km":5.16},{"id":0,"code_insee":"55237","nom_standard":"Haudiomont","nom_a":null,"nom_de":null,"slug_ville":"haudiomont","departement_id":0,"code_postal":"55160","population":232,"superficie_km2":"935.88","latitude_centre":"49.113","longitude_centre":"5.538","distance_km":6.05},{"id":0,"code_insee":"55578","nom_standard":"Warcq","nom_a":null,"nom_de":null,"slug_ville":"warcq","departement_id":0,"code_postal":"55400","population":181,"superficie_km2":"497.34","latitude_centre":"49.19","longitude_centre":"5.6439","distance_km":6.31},{"id":25031,"code_insee":"55143","nom_standard":"Damloup","nom_a":null,"nom_de":null,"slug_ville":"damloup","departement_id":0,"code_postal":"55400","population":129,"superficie_km2":"528.40","latitude_centre":"49.1985","longitude_centre":"5.4951","distance_km":6.47},{"id":25038,"code_insee":"55153","nom_standard":"Dieppe-sous-Douaumont","nom_a":null,"nom_de":null,"slug_ville":"dieppe-sous-douaumont","departement_id":0,"code_postal":"55400","population":187,"superficie_km2":"1503.12","latitude_centre":"49.2217","longitude_centre":"5.5201","distance_km":7.26},{"id":0,"code_insee":"55357","nom_standard":"Morgemoulin","nom_a":null,"nom_de":null,"slug_ville":"morgemoulin","departement_id":0,"code_postal":"55400","population":109,"superficie_km2":"684.32","latitude_centre":"49.2304","longitude_centre":"5.5693","distance_km":7.39},{"id":0,"code_insee":"55181","nom_standard":"Étain","nom_a":null,"nom_de":null,"slug_ville":"etain","departement_id":0,"code_postal":"55400","population":3375,"superficie_km2":"1992.54","latitude_centre":"49.2204","longitude_centre":"5.6311","distance_km":7.82},{"id":24964,"code_insee":"55060","nom_standard":"Bonzée","nom_a":null,"nom_de":null,"slug_ville":"bonzee","departement_id":0,"code_postal":"55160","population":366,"superficie_km2":"2123.69","latitude_centre":"49.0894","longitude_centre":"5.5692","distance_km":8.3},{"id":25066,"code_insee":"55191","nom_standard":"Foameix-Ornel","nom_a":null,"nom_de":null,"slug_ville":"foameix-ornel","departement_id":0,"code_postal":"55400","population":229,"superficie_km2":"1088.42","latitude_centre":"49.2358","longitude_centre":"5.61","distance_km":8.58},{"id":0,"code_insee":"55339","nom_standard":"Mogeville","nom_a":null,"nom_de":null,"slug_ville":"mogeville","departement_id":0,"code_postal":"55400","population":73,"superficie_km2":"634.70","latitude_centre":"49.2459","longitude_centre":"5.5402","distance_km":9.31}]}