{"ville":{"id":27689,"code_insee":"62389","nom_standard":"Grincourt-lès-Pas","nom_a":null,"nom_de":null,"slug_ville":"grincourt-les-pas","departement_id":0,"code_postal":"62760","population":32,"superficie_km2":"281.53","latitude_centre":"50.1779","longitude_centre":"2.4882","dep_code":"62","dep_nom":"Pas-de-Calais","dep_slug":"pas-de-calais","reg_code":"32","reg_nom":"Hauts-de-France","reg_slug":"hauts-de-france"},"departement":{"code":"62","nom":"Pas-de-Calais","slug":"pas-de-calais"},"region":{"code":"32","nom":"Hauts-de-France","slug":"hauts-de-france"},"villes_proches":[{"id":0,"code_insee":"62877","nom_standard":"Warlincourt-lès-Pas","nom_a":null,"nom_de":null,"slug_ville":"warlincourt-les-pas","departement_id":0,"code_postal":"62760","population":177,"superficie_km2":"514.80","latitude_centre":"50.1805","longitude_centre":"2.5055","distance_km":1.27},{"id":0,"code_insee":"62583","nom_standard":"Mondicourt","nom_a":null,"nom_de":null,"slug_ville":"mondicourt","departement_id":0,"code_postal":"62760","population":600,"superficie_km2":"507.17","latitude_centre":"50.1742","longitude_centre":"2.467","distance_km":1.56},{"id":27673,"code_insee":"62368","nom_standard":"Gaudiempré","nom_a":null,"nom_de":null,"slug_ville":"gaudiempre","departement_id":0,"code_postal":"62760","population":215,"superficie_km2":"622.31","latitude_centre":"50.1781","longitude_centre":"2.5256","distance_km":2.66},{"id":0,"code_insee":"62649","nom_standard":"Pas-en-Artois","nom_a":null,"nom_de":null,"slug_ville":"pas-en-artois","departement_id":0,"code_postal":"62760","population":768,"superficie_km2":"1085.56","latitude_centre":"50.1532","longitude_centre":"2.4899","distance_km":2.75},{"id":27595,"code_insee":"62253","nom_standard":"Couturelle","nom_a":null,"nom_de":null,"slug_ville":"couturelle","departement_id":0,"code_postal":"62158","population":76,"superficie_km2":"212.79","latitude_centre":"50.2069","longitude_centre":"2.5","distance_km":3.33},{"id":0,"code_insee":"62663","nom_standard":"Pommera","nom_a":null,"nom_de":null,"slug_ville":"pommera","departement_id":0,"code_postal":"62760","population":307,"superficie_km2":"444.19","latitude_centre":"50.1671","longitude_centre":"2.4392","distance_km":3.69},{"id":0,"code_insee":"62430","nom_standard":"Hénu","nom_a":null,"nom_de":null,"slug_ville":"henu","departement_id":0,"code_postal":"62760","population":147,"superficie_km2":"428.76","latitude_centre":"50.1556","longitude_centre":"2.5335","distance_km":4.07},{"id":0,"code_insee":"80445","nom_standard":"Humbercourt","nom_a":null,"nom_de":null,"slug_ville":"humbercourt","departement_id":0,"code_postal":"80600","population":247,"superficie_km2":"833.25","latitude_centre":"50.2109","longitude_centre":"2.4597","distance_km":4.19},{"id":27638,"code_insee":"62322","nom_standard":"Famechon","nom_a":null,"nom_de":null,"slug_ville":"famechon","departement_id":0,"code_postal":"62760","population":111,"superficie_km2":"459.00","latitude_centre":"50.1437","longitude_centre":"2.4587","distance_km":4.34},{"id":0,"code_insee":"62784","nom_standard":"Saulty","nom_a":null,"nom_de":null,"slug_ville":"saulty","departement_id":0,"code_postal":"62158","population":750,"superficie_km2":"1288.01","latitude_centre":"50.2127","longitude_centre":"2.5251","distance_km":4.68},{"id":27589,"code_insee":"62243","nom_standard":"Coullemont","nom_a":null,"nom_de":null,"slug_ville":"coullemont","departement_id":0,"code_postal":"62158","population":111,"superficie_km2":"406.15","latitude_centre":"50.2207","longitude_centre":"2.4787","distance_km":4.81},{"id":0,"code_insee":"62404","nom_standard":"Halloy","nom_a":null,"nom_de":null,"slug_ville":"halloy","departement_id":0,"code_postal":"62760","population":201,"superficie_km2":"341.59","latitude_centre":"50.1613","longitude_centre":"2.4256","distance_km":4.83},{"id":0,"code_insee":"80495","nom_standard":"Lucheux","nom_a":null,"nom_de":null,"slug_ville":"lucheux","departement_id":0,"code_postal":"80600","population":521,"superficie_km2":"2794.18","latitude_centre":"50.204","longitude_centre":"2.4287","distance_km":5.13},{"id":0,"code_insee":"62814","nom_standard":"Thièvres","nom_a":null,"nom_de":null,"slug_ville":"thievres","departement_id":0,"code_postal":"62760","population":96,"superficie_km2":"124.98","latitude_centre":"50.1333","longitude_centre":"2.4479","distance_km":5.73},{"id":0,"code_insee":"62879","nom_standard":"Warluzel","nom_a":null,"nom_de":null,"slug_ville":"warluzel","departement_id":0,"code_postal":"62810","population":218,"superficie_km2":"406.11","latitude_centre":"50.2306","longitude_centre":"2.4689","distance_km":6.02},{"id":0,"code_insee":"80705","nom_standard":"Saint-Léger-lès-Authie","nom_a":null,"nom_de":null,"slug_ville":"saint-leger-les-authie","departement_id":0,"code_postal":"80560","population":79,"superficie_km2":"431.59","latitude_centre":"50.1258","longitude_centre":"2.5118","distance_km":6.03},{"id":27588,"code_insee":"62242","nom_standard":"Couin","nom_a":null,"nom_de":null,"slug_ville":"couin","departement_id":0,"code_postal":"62760","population":76,"superficie_km2":"579.38","latitude_centre":"50.1309","longitude_centre":"2.5334","distance_km":6.14},{"id":0,"code_insee":"80043","nom_standard":"Authie","nom_a":null,"nom_de":null,"slug_ville":"authie","departement_id":0,"code_postal":"80560","population":246,"superficie_km2":"1001.99","latitude_centre":"50.1195","longitude_centre":"2.4935","distance_km":6.5},{"id":0,"code_insee":"62798","nom_standard":"Sombrin","nom_a":null,"nom_de":null,"slug_ville":"sombrin","departement_id":0,"code_postal":"62810","population":205,"superficie_km2":"661.50","latitude_centre":"50.238","longitude_centre":"2.5043","distance_km":6.78},{"id":0,"code_insee":"80756","nom_standard":"Thièvres","nom_a":null,"nom_de":null,"slug_ville":"thievres","departement_id":0,"code_postal":"80560","population":54,"superficie_km2":"371.56","latitude_centre":"50.1184","longitude_centre":"2.4609","distance_km":6.9}]}