{"ville":{"id":8182,"code_insee":"77222","nom_standard":"Guignes","nom_a":null,"nom_de":null,"slug_ville":"guignes","departement_id":678,"code_postal":"77390","population":4414,"superficie_km2":"6.00","latitude_centre":"48.6360016","longitude_centre":"2.8000000","dep_code":"77","dep_nom":"Seine-et-Marne","dep_slug":"seine-et-marne","reg_code":"10","reg_nom":"Île-de-France","reg_slug":"ile-de-france"},"departement":{"code":"77","nom":"Seine-et-Marne","slug":"seine-et-marne"},"region":{"code":"10","nom":"Île-de-France","slug":"ile-de-france"},"villes_proches":[{"id":8301,"code_insee":"77493","nom_standard":"Verneuil-l'Étang","nom_a":null,"nom_de":null,"slug_ville":"verneuil-l-etang","departement_id":678,"code_postal":"77390","population":3198,"superficie_km2":"8.00","latitude_centre":"48.6370010","longitude_centre":"2.8320000","distance_km":2.35},{"id":8240,"code_insee":"77352","nom_standard":"Ozouer-le-Voulgis","nom_a":null,"nom_de":null,"slug_ville":"ozouer-le-voulgis","departement_id":678,"code_postal":"77390","population":1970,"superficie_km2":"11.00","latitude_centre":"48.6650009","longitude_centre":"2.7770000","distance_km":3.64},{"id":8127,"code_insee":"77107","nom_standard":"Chaumes-en-Brie","nom_a":null,"nom_de":null,"slug_ville":"chaumes-en-brie","departement_id":678,"code_postal":"77390","population":3401,"superficie_km2":"20.00","latitude_centre":"48.6669998","longitude_centre":"2.8450000","distance_km":4.78},{"id":8286,"code_insee":"77457","nom_standard":"Solers","nom_a":null,"nom_de":null,"slug_ville":"solers","departement_id":678,"code_postal":"77111","population":1231,"superficie_km2":"6.00","latitude_centre":"48.6590004","longitude_centre":"2.7270000","distance_km":5.94},{"id":8285,"code_insee":"77455","nom_standard":"Soignolles-en-Brie","nom_a":null,"nom_de":null,"slug_ville":"soignolles-en-brie","departement_id":678,"code_postal":"77111","population":2026,"superficie_km2":"11.00","latitude_centre":"48.6450005","longitude_centre":"2.7079999","distance_km":6.83},{"id":8193,"code_insee":"77254","nom_standard":"Liverdy-en-Brie","nom_a":null,"nom_de":null,"slug_ville":"liverdy-en-brie","departement_id":678,"code_postal":"77220","population":1306,"superficie_km2":"9.00","latitude_centre":"48.6959992","longitude_centre":"2.7800000","distance_km":6.83},{"id":8224,"code_insee":"77317","nom_standard":"Mormant","nom_a":null,"nom_de":null,"slug_ville":"mormant","departement_id":678,"code_postal":"77720","population":5222,"superficie_km2":"17.00","latitude_centre":"48.5979996","longitude_centre":"2.8820000","distance_km":7.36},{"id":8140,"code_insee":"77127","nom_standard":"Coubert","nom_a":null,"nom_de":null,"slug_ville":"coubert","departement_id":678,"code_postal":"77170","population":1879,"superficie_km2":"8.00","latitude_centre":"48.6780014","longitude_centre":"2.7079999","distance_km":8.21},{"id":8170,"code_insee":"77192","nom_standard":"Fontenay-Trésigny","nom_a":null,"nom_de":null,"slug_ville":"fontenay-tresigny","departement_id":678,"code_postal":"77610","population":5757,"superficie_km2":"22.00","latitude_centre":"48.6980019","longitude_centre":"2.8620000","distance_km":8.26},{"id":8214,"code_insee":"77295","nom_standard":"Moisenay","nom_a":null,"nom_de":null,"slug_ville":"moisenay","departement_id":678,"code_postal":"77950","population":1371,"superficie_km2":"9.00","latitude_centre":"48.5649986","longitude_centre":"2.7409999","distance_km":9.01},{"id":8248,"code_insee":"77377","nom_standard":"Presles-en-Brie","nom_a":null,"nom_de":null,"slug_ville":"presles-en-brie","departement_id":678,"code_postal":"77220","population":2313,"superficie_km2":"17.00","latitude_centre":"48.7130013","longitude_centre":"2.7370000","distance_km":9.73},{"id":8179,"code_insee":"77217","nom_standard":"Grisy-Suisnes","nom_a":null,"nom_de":null,"slug_ville":"grisy-suisnes","departement_id":678,"code_postal":"77166","population":2749,"superficie_km2":"18.00","latitude_centre":"48.6839981","longitude_centre":"2.6760001","distance_km":10.56},{"id":8144,"code_insee":"77135","nom_standard":"Courpalay","nom_a":null,"nom_de":null,"slug_ville":"courpalay","departement_id":678,"code_postal":"77540","population":1385,"superficie_km2":"15.00","latitude_centre":"48.6430016","longitude_centre":"2.9540000","distance_km":11.34},{"id":8203,"code_insee":"77269","nom_standard":"Maincy","nom_a":null,"nom_de":null,"slug_ville":"maincy","departement_id":678,"code_postal":"77950","population":1833,"superficie_km2":"10.00","latitude_centre":"48.5540009","longitude_centre":"2.7060001","distance_km":11.44},{"id":8293,"code_insee":"77470","nom_standard":"Tournan-en-Brie","nom_a":null,"nom_de":null,"slug_ville":"tournan-en-brie","departement_id":678,"code_postal":"77220","population":8340,"superficie_km2":"16.00","latitude_centre":"48.7400017","longitude_centre":"2.7780001","distance_km":11.68},{"id":8205,"code_insee":"77277","nom_standard":"Marles-en-Brie","nom_a":null,"nom_de":null,"slug_ville":"marles-en-brie","departement_id":678,"code_postal":"77610","population":1843,"superficie_km2":"13.00","latitude_centre":"48.7249985","longitude_centre":"2.8880000","distance_km":11.82},{"id":8258,"code_insee":"77394","nom_standard":"Rubelles","nom_a":null,"nom_de":null,"slug_ville":"rubelles","departement_id":678,"code_postal":"77950","population":3273,"superficie_km2":"4.00","latitude_centre":"48.5649986","longitude_centre":"2.6800001","distance_km":11.84},{"id":8160,"code_insee":"77175","nom_standard":"Évry-Grégy-sur-Yerre","nom_a":null,"nom_de":null,"slug_ville":"evry-gregy-sur-yerre","departement_id":678,"code_postal":"77166","population":3150,"superficie_km2":"19.00","latitude_centre":"48.6539993","longitude_centre":"2.6400001","distance_km":11.92},{"id":8284,"code_insee":"77453","nom_standard":"Sivry-Courtry","nom_a":null,"nom_de":null,"slug_ville":"sivry-courtry","departement_id":678,"code_postal":"77115","population":1122,"superficie_km2":"22.00","latitude_centre":"48.5309982","longitude_centre":"2.7560000","distance_km":12.12},{"id":8313,"code_insee":"77528","nom_standard":"Voisenon","nom_a":null,"nom_de":null,"slug_ville":"voisenon","departement_id":678,"code_postal":"77950","population":1167,"superficie_km2":"3.00","latitude_centre":"48.5699997","longitude_centre":"2.6640000","distance_km":12.4}]}