{"ville":{"id":19644,"code_insee":"33196","nom_standard":"Guillac","nom_a":null,"nom_de":null,"slug_ville":"guillac","departement_id":0,"code_postal":"33420","population":181,"superficie_km2":"305.72","latitude_centre":"44.8032","longitude_centre":"-0.2107","dep_code":"33","dep_nom":"Gironde","dep_slug":"gironde","reg_code":"75","reg_nom":"Nouvelle-Aquitaine","reg_slug":"nouvelle-aquitaine"},"departement":{"code":"33","nom":"Gironde","slug":"gironde"},"region":{"code":"75","nom":"Nouvelle-Aquitaine","slug":"nouvelle-aquitaine"},"villes_proches":[{"id":19643,"code_insee":"33194","nom_standard":"Grézillac","nom_a":null,"nom_de":null,"slug_ville":"grezillac","departement_id":0,"code_postal":"33420","population":693,"superficie_km2":"778.43","latitude_centre":"44.8147","longitude_centre":"-0.2152","distance_km":1.33},{"id":0,"code_insee":"33257","nom_standard":"Lugaignac","nom_a":null,"nom_de":null,"slug_ville":"lugaignac","departement_id":0,"code_postal":"33420","population":433,"superficie_km2":"381.20","latitude_centre":"44.8123","longitude_centre":"-0.1943","distance_km":1.64},{"id":19610,"code_insee":"33147","nom_standard":"Daignac","nom_a":null,"nom_de":null,"slug_ville":"daignac","departement_id":0,"code_postal":"33420","population":473,"superficie_km2":"571.57","latitude_centre":"44.7987","longitude_centre":"-0.2337","distance_km":1.88},{"id":0,"code_insee":"33301","nom_standard":"Naujan-et-Postiac","nom_a":null,"nom_de":null,"slug_ville":"naujan-et-postiac","departement_id":0,"code_postal":"33420","population":599,"superficie_km2":"1116.20","latitude_centre":"44.7871","longitude_centre":"-0.1851","distance_km":2.7},{"id":19611,"code_insee":"33148","nom_standard":"Dardenac","nom_a":null,"nom_de":null,"slug_ville":"dardenac","departement_id":0,"code_postal":"33420","population":98,"superficie_km2":"152.09","latitude_centre":"44.7834","longitude_centre":"-0.2377","distance_km":3.06},{"id":0,"code_insee":"33375","nom_standard":"Saint-Aubin-de-Branne","nom_a":null,"nom_de":null,"slug_ville":"saint-aubin-de-branne","departement_id":0,"code_postal":"33420","population":381,"superficie_km2":"552.56","latitude_centre":"44.8113","longitude_centre":"-0.1679","distance_km":3.49},{"id":0,"code_insee":"33531","nom_standard":"Tizac-de-Curton","nom_a":null,"nom_de":null,"slug_ville":"tizac-de-curton","departement_id":0,"code_postal":"33420","population":383,"superficie_km2":"407.87","latitude_centre":"44.8254","longitude_centre":"-0.2428","distance_km":3.54},{"id":0,"code_insee":"33071","nom_standard":"Branne","nom_a":null,"nom_de":null,"slug_ville":"branne","departement_id":0,"code_postal":"33420","population":1296,"superficie_km2":"241.81","latitude_centre":"44.8299","longitude_centre":"-0.181","distance_km":3.78},{"id":0,"code_insee":"33358","nom_standard":"Romagne","nom_a":null,"nom_de":null,"slug_ville":"romagne","departement_id":0,"code_postal":"33760","population":483,"superficie_km2":"518.37","latitude_centre":"44.7646","longitude_centre":"-0.2032","distance_km":4.33},{"id":19566,"code_insee":"33059","nom_standard":"Blésignac","nom_a":null,"nom_de":null,"slug_ville":"blesignac","departement_id":0,"code_postal":"33670","population":313,"superficie_km2":"262.14","latitude_centre":"44.7786","longitude_centre":"-0.2537","distance_km":4.36},{"id":19623,"code_insee":"33163","nom_standard":"Faleyras","nom_a":null,"nom_de":null,"slug_ville":"faleyras","departement_id":0,"code_postal":"33760","population":430,"superficie_km2":"1040.02","latitude_centre":"44.7646","longitude_centre":"-0.2272","distance_km":4.49},{"id":19619,"code_insee":"33157","nom_standard":"Espiet","nom_a":null,"nom_de":null,"slug_ville":"espiet","departement_id":0,"code_postal":"33420","population":741,"superficie_km2":"678.07","latitude_centre":"44.7983","longitude_centre":"-0.2683","distance_km":4.58},{"id":19558,"code_insee":"33044","nom_standard":"Bellefond","nom_a":null,"nom_de":null,"slug_ville":"bellefond","departement_id":0,"code_postal":"33760","population":213,"superficie_km2":"321.73","latitude_centre":"44.768","longitude_centre":"-0.1738","distance_km":4.88},{"id":19576,"code_insee":"33078","nom_standard":"Cabara","nom_a":null,"nom_de":null,"slug_ville":"cabara","departement_id":0,"code_postal":"33420","population":526,"superficie_km2":"343.73","latitude_centre":"44.8299","longitude_centre":"-0.1612","distance_km":4.91},{"id":0,"code_insee":"33209","nom_standard":"Jugazan","nom_a":null,"nom_de":null,"slug_ville":"jugazan","departement_id":0,"code_postal":"33420","population":272,"superficie_km2":"544.91","latitude_centre":"44.7799","longitude_centre":"-0.1497","distance_km":5.47},{"id":19603,"code_insee":"33135","nom_standard":"Courpiac","nom_a":null,"nom_de":null,"slug_ville":"courpiac","departement_id":0,"code_postal":"33760","population":121,"superficie_km2":"220.93","latitude_centre":"44.7568","longitude_centre":"-0.1859","distance_km":5.52},{"id":0,"code_insee":"33298","nom_standard":"Moulon","nom_a":null,"nom_de":null,"slug_ville":"moulon","departement_id":0,"code_postal":"33420","population":1068,"superficie_km2":"1326.57","latitude_centre":"44.8616","longitude_centre":"-0.2207","distance_km":6.54},{"id":0,"code_insee":"33480","nom_standard":"Saint-Sulpice-de-Faleyrens","nom_a":null,"nom_de":null,"slug_ville":"saint-sulpice-de-faleyrens","departement_id":0,"code_postal":"33330","population":1344,"superficie_km2":"2002.33","latitude_centre":"44.8614","longitude_centre":"-0.1893","distance_km":6.69},{"id":19593,"code_insee":"33121","nom_standard":"Cessac","nom_a":null,"nom_de":null,"slug_ville":"cessac","departement_id":0,"code_postal":"33760","population":196,"superficie_km2":"370.47","latitude_centre":"44.7411","longitude_centre":"-0.187","distance_km":7.15},{"id":19557,"code_insee":"33043","nom_standard":"Bellebat","nom_a":null,"nom_de":null,"slug_ville":"bellebat","departement_id":0,"code_postal":"33760","population":329,"superficie_km2":"488.56","latitude_centre":"44.7367","longitude_centre":"-0.2226","distance_km":7.45}]}