{"ville":{"id":24639,"code_insee":"54247","nom_standard":"Hammeville","nom_a":null,"nom_de":null,"slug_ville":"hammeville","departement_id":0,"code_postal":"54330","population":195,"superficie_km2":"548.06","latitude_centre":"48.5003","longitude_centre":"6.075","dep_code":"54","dep_nom":"Meurthe-et-Moselle","dep_slug":"meurthe-et-moselle","reg_code":"44","reg_nom":"Grand Est","reg_slug":"grand-est"},"departement":{"code":"54","nom":"Meurthe-et-Moselle","slug":"meurthe-et-moselle"},"region":{"code":"44","nom":"Grand Est","slug":"grand-est"},"villes_proches":[{"id":0,"code_insee":"54266","nom_standard":"Houdreville","nom_a":null,"nom_de":null,"slug_ville":"houdreville","departement_id":0,"code_postal":"54330","population":403,"superficie_km2":"1043.91","latitude_centre":"48.5129","longitude_centre":"6.1009","distance_km":2.37},{"id":0,"code_insee":"54563","nom_standard":"Vézelise","nom_a":null,"nom_de":null,"slug_ville":"vezelise","departement_id":0,"code_postal":"54330","population":1346,"superficie_km2":"536.46","latitude_centre":"48.4838","longitude_centre":"6.0961","distance_km":2.4},{"id":0,"code_insee":"54587","nom_standard":"Vitrey","nom_a":null,"nom_de":null,"slug_ville":"vitrey","departement_id":0,"code_postal":"54330","population":193,"superficie_km2":"1169.06","latitude_centre":"48.4921","longitude_centre":"6.0423","distance_km":2.58},{"id":0,"code_insee":"54409","nom_standard":"Omelmont","nom_a":null,"nom_de":null,"slug_ville":"omelmont","departement_id":0,"code_postal":"54330","population":192,"superficie_km2":"466.12","latitude_centre":"48.495","longitude_centre":"6.118","distance_km":3.22},{"id":0,"code_insee":"54417","nom_standard":"Parey-Saint-Césaire","nom_a":null,"nom_de":null,"slug_ville":"parey-saint-cesaire","departement_id":0,"code_postal":"54330","population":248,"superficie_km2":"560.72","latitude_centre":"48.5291","longitude_centre":"6.0612","distance_km":3.36},{"id":0,"code_insee":"54407","nom_standard":"Ognéville","nom_a":null,"nom_de":null,"slug_ville":"ogneville","departement_id":0,"code_postal":"54330","population":87,"superficie_km2":"413.22","latitude_centre":"48.472","longitude_centre":"6.0577","distance_km":3.4},{"id":0,"code_insee":"54442","nom_standard":"Quevilloncourt","nom_a":null,"nom_de":null,"slug_ville":"quevilloncourt","departement_id":0,"code_postal":"54330","population":96,"superficie_km2":"289.34","latitude_centre":"48.4716","longitude_centre":"6.1038","distance_km":3.83},{"id":24627,"code_insee":"54235","nom_standard":"Goviller","nom_a":null,"nom_de":null,"slug_ville":"goviller","departement_id":0,"code_postal":"54330","population":418,"superficie_km2":"1226.62","latitude_centre":"48.5039","longitude_centre":"6.0164","distance_km":4.34},{"id":0,"code_insee":"54264","nom_standard":"Houdelmont","nom_a":null,"nom_de":null,"slug_ville":"houdelmont","departement_id":0,"code_postal":"54330","population":363,"superficie_km2":"389.26","latitude_centre":"48.5378","longitude_centre":"6.0939","distance_km":4.4},{"id":0,"code_insee":"54592","nom_standard":"Vroncourt","nom_a":null,"nom_de":null,"slug_ville":"vroncourt","departement_id":0,"code_postal":"54330","population":273,"superficie_km2":"417.08","latitude_centre":"48.4598","longitude_centre":"6.077","distance_km":4.51},{"id":24549,"code_insee":"54132","nom_standard":"Clérey-sur-Brenon","nom_a":null,"nom_de":null,"slug_ville":"clerey-sur-brenon","departement_id":0,"code_postal":"54330","population":57,"superficie_km2":"442.01","latitude_centre":"48.5059","longitude_centre":"6.1377","distance_km":4.66},{"id":0,"code_insee":"54515","nom_standard":"Thélod","nom_a":null,"nom_de":null,"slug_ville":"thelod","departement_id":0,"code_postal":"54330","population":251,"superficie_km2":"1082.36","latitude_centre":"48.5422","longitude_centre":"6.0536","distance_km":4.92},{"id":24470,"code_insee":"54032","nom_standard":"Autrey","nom_a":null,"nom_de":null,"slug_ville":"autrey","departement_id":0,"code_postal":"54160","population":192,"superficie_km2":"619.23","latitude_centre":"48.5322","longitude_centre":"6.1257","distance_km":5.15},{"id":24587,"code_insee":"54185","nom_standard":"Étreval","nom_a":null,"nom_de":null,"slug_ville":"etreval","departement_id":0,"code_postal":"54330","population":59,"superficie_km2":"238.97","latitude_centre":"48.4561","longitude_centre":"6.0529","distance_km":5.18},{"id":24601,"code_insee":"54203","nom_standard":"Forcelles-Saint-Gorgon","nom_a":null,"nom_de":null,"slug_ville":"forcelles-saint-gorgon","departement_id":0,"code_postal":"54330","population":168,"superficie_km2":"532.46","latitude_centre":"48.4574","longitude_centre":"6.1047","distance_km":5.25},{"id":0,"code_insee":"54429","nom_standard":"Pierreville","nom_a":null,"nom_de":null,"slug_ville":"pierreville","departement_id":0,"code_postal":"54160","population":299,"superficie_km2":"297.14","latitude_centre":"48.5483","longitude_centre":"6.1109","distance_km":5.96},{"id":24536,"code_insee":"54117","nom_standard":"Chaouilley","nom_a":null,"nom_de":null,"slug_ville":"chaouilley","departement_id":0,"code_postal":"54330","population":111,"superficie_km2":"512.78","latitude_centre":"48.4427","longitude_centre":"6.0675","distance_km":6.43},{"id":0,"code_insee":"54522","nom_standard":"Thorey-Lyautey","nom_a":null,"nom_de":null,"slug_ville":"thorey-lyautey","departement_id":0,"code_postal":"54115","population":119,"superficie_km2":"618.31","latitude_centre":"48.4484","longitude_centre":"6.029","distance_km":6.69},{"id":0,"code_insee":"54596","nom_standard":"Xeuilley","nom_a":null,"nom_de":null,"slug_ville":"xeuilley","departement_id":0,"code_postal":"54990","population":959,"superficie_km2":"743.89","latitude_centre":"48.5615","longitude_centre":"6.0884","distance_km":6.88},{"id":0,"code_insee":"54354","nom_standard":"Marthemont","nom_a":null,"nom_de":null,"slug_ville":"marthemont","departement_id":0,"code_postal":"54330","population":52,"superficie_km2":"213.21","latitude_centre":"48.5593","longitude_centre":"6.04","distance_km":7.05}]}