{"ville":{"id":26797,"code_insee":"60296","nom_standard":"Hannaches","nom_a":null,"nom_de":null,"slug_ville":"hannaches","departement_id":0,"code_postal":"60650","population":132,"superficie_km2":"955.09","latitude_centre":"49.5085","longitude_centre":"1.8105","dep_code":"60","dep_nom":"Oise","dep_slug":"oise","reg_code":"32","reg_nom":"Hauts-de-France","reg_slug":"hauts-de-france"},"departement":{"code":"60","nom":"Oise","slug":"oise"},"region":{"code":"32","nom":"Hauts-de-France","slug":"hauts-de-france"},"villes_proches":[{"id":0,"code_insee":"60306","nom_standard":"Hécourt","nom_a":null,"nom_de":null,"slug_ville":"hecourt","departement_id":0,"code_postal":"60380","population":149,"superficie_km2":"750.14","latitude_centre":"49.5225","longitude_centre":"1.7796","distance_km":2.72},{"id":0,"code_insee":"60699","nom_standard":"Wambez","nom_a":null,"nom_de":null,"slug_ville":"wambez","departement_id":0,"code_postal":"60380","population":158,"superficie_km2":"459.24","latitude_centre":"49.5217","longitude_centre":"1.8437","distance_km":2.81},{"id":26659,"code_insee":"60114","nom_standard":"Buicourt","nom_a":null,"nom_de":null,"slug_ville":"buicourt","departement_id":0,"code_postal":"60380","population":143,"superficie_km2":"351.20","latitude_centre":"49.5367","longitude_centre":"1.8157","distance_km":3.16},{"id":0,"code_insee":"60611","nom_standard":"Senantes","nom_a":null,"nom_de":null,"slug_ville":"senantes","departement_id":0,"code_postal":"60650","population":577,"superficie_km2":"2003.74","latitude_centre":"49.4818","longitude_centre":"1.8336","distance_km":3.41},{"id":0,"code_insee":"60687","nom_standard":"Villers-sur-Auchy","nom_a":null,"nom_de":null,"slug_ville":"villers-sur-auchy","departement_id":0,"code_postal":"60650","population":370,"superficie_km2":"877.25","latitude_centre":"49.4752","longitude_centre":"1.7901","distance_km":3.99},{"id":26777,"code_insee":"60271","nom_standard":"Gerberoy","nom_a":null,"nom_de":null,"slug_ville":"gerberoy","departement_id":0,"code_postal":"60380","population":82,"superficie_km2":"453.02","latitude_centre":"49.539","longitude_centre":"1.8431","distance_km":4.13},{"id":0,"code_insee":"76260","nom_standard":"Ferrières-en-Bray","nom_a":null,"nom_de":null,"slug_ville":"ferrieres-en-bray","departement_id":0,"code_postal":"76220","population":1669,"superficie_km2":"1585.89","latitude_centre":"49.4863","longitude_centre":"1.758","distance_km":4.52},{"id":0,"code_insee":"60594","nom_standard":"Saint-Quentin-des-Prés","nom_a":null,"nom_de":null,"slug_ville":"saint-quentin-des-pres","departement_id":0,"code_postal":"60380","population":285,"superficie_km2":"1085.19","latitude_centre":"49.5192","longitude_centre":"1.7456","distance_km":4.83},{"id":0,"code_insee":"60298","nom_standard":"Hanvoile","nom_a":null,"nom_de":null,"slug_ville":"hanvoile","departement_id":0,"code_postal":"60650","population":654,"superficie_km2":"586.81","latitude_centre":"49.5081","longitude_centre":"1.8813","distance_km":5.11},{"id":0,"code_insee":"60677","nom_standard":"Villembray","nom_a":null,"nom_de":null,"slug_ville":"villembray","departement_id":0,"code_postal":"60650","population":247,"superficie_km2":"659.89","latitude_centre":"49.4828","longitude_centre":"1.8729","distance_km":5.34},{"id":26732,"code_insee":"60217","nom_standard":"Escames","nom_a":null,"nom_de":null,"slug_ville":"escames","departement_id":0,"code_postal":"60380","population":226,"superficie_km2":"1176.37","latitude_centre":"49.5608","longitude_centre":"1.8006","distance_km":5.86},{"id":0,"code_insee":"60335","nom_standard":"Lachapelle-sous-Gerberoy","nom_a":null,"nom_de":null,"slug_ville":"lachapelle-sous-gerberoy","departement_id":0,"code_postal":"60380","population":165,"superficie_km2":"495.81","latitude_centre":"49.5403","longitude_centre":"1.878","distance_km":6.02},{"id":0,"code_insee":"60624","nom_standard":"Sully","nom_a":null,"nom_de":null,"slug_ville":"sully","departement_id":0,"code_postal":"60380","population":165,"superficie_km2":"485.52","latitude_centre":"49.5602","longitude_centre":"1.7773","distance_km":6.23},{"id":0,"code_insee":"60623","nom_standard":"Songeons","nom_a":null,"nom_de":null,"slug_ville":"songeons","departement_id":0,"code_postal":"60380","population":926,"superficie_km2":"1371.11","latitude_centre":"49.5623","longitude_centre":"1.8506","distance_km":6.65},{"id":26628,"code_insee":"60073","nom_standard":"Blacourt","nom_a":null,"nom_de":null,"slug_ville":"blacourt","departement_id":0,"code_postal":"60650","population":592,"superficie_km2":"1150.90","latitude_centre":"49.4579","longitude_centre":"1.8598","distance_km":6.66},{"id":26608,"code_insee":"60049","nom_standard":"Bazancourt","nom_a":null,"nom_de":null,"slug_ville":"bazancourt","departement_id":0,"code_postal":"60380","population":100,"superficie_km2":"319.43","latitude_centre":"49.5505","longitude_centre":"1.7386","distance_km":6.98},{"id":26754,"code_insee":"60244","nom_standard":"Fontenay-Torcy","nom_a":null,"nom_de":null,"slug_ville":"fontenay-torcy","departement_id":0,"code_postal":"60380","population":143,"superficie_km2":"597.01","latitude_centre":"49.5677","longitude_centre":"1.7665","distance_km":7.31},{"id":0,"code_insee":"60577","nom_standard":"Saint-Germer-de-Fly","nom_a":null,"nom_de":null,"slug_ville":"saint-germer-de-fly","departement_id":0,"code_postal":"60850","population":1662,"superficie_km2":"2000.83","latitude_centre":"49.4383","longitude_centre":"1.7809","distance_km":8.09},{"id":26706,"code_insee":"60187","nom_standard":"Cuigy-en-Bray","nom_a":null,"nom_de":null,"slug_ville":"cuigy-en-bray","departement_id":0,"code_postal":"60850","population":987,"superficie_km2":"983.35","latitude_centre":"49.4319","longitude_centre":"1.837","distance_km":8.73},{"id":26729,"code_insee":"60214","nom_standard":"Ernemont-Boutavent","nom_a":null,"nom_de":null,"slug_ville":"ernemont-boutavent","departement_id":0,"code_postal":"60380","population":172,"superficie_km2":"902.75","latitude_centre":"49.5906","longitude_centre":"1.7923","distance_km":9.22}]}