{"ville":{"id":10494,"code_insee":"02366","nom_standard":"Hannapes","nom_a":null,"nom_de":null,"slug_ville":"hannapes","departement_id":0,"code_postal":"02510","population":320,"superficie_km2":"926.85","latitude_centre":"49.9762","longitude_centre":"3.6163","dep_code":"02","dep_nom":"Aisne","dep_slug":"aisne","reg_code":"32","reg_nom":"Hauts-de-France","reg_slug":"hauts-de-france"},"departement":{"code":"02","nom":"Aisne","slug":"aisne"},"region":{"code":"32","nom":"Hauts-de-France","slug":"hauts-de-france"},"villes_proches":[{"id":0,"code_insee":"02753","nom_standard":"Tupigny","nom_a":null,"nom_de":null,"slug_ville":"tupigny","departement_id":0,"code_postal":"02120","population":341,"superficie_km2":"1297.66","latitude_centre":"49.9775","longitude_centre":"3.5983","distance_km":1.3},{"id":0,"code_insee":"02779","nom_standard":"Vénérolles","nom_a":null,"nom_de":null,"slug_ville":"venerolles","departement_id":0,"code_postal":"02510","population":229,"superficie_km2":"898.76","latitude_centre":"49.9898","longitude_centre":"3.6287","distance_km":1.75},{"id":0,"code_insee":"02298","nom_standard":"Étreux","nom_a":null,"nom_de":null,"slug_ville":"etreux","departement_id":0,"code_postal":"02510","population":1436,"superficie_km2":"1033.28","latitude_centre":"49.9985","longitude_centre":"3.6554","distance_km":3.74},{"id":0,"code_insee":"02784","nom_standard":"Petit-Verly","nom_a":null,"nom_de":null,"slug_ville":"petit-verly","departement_id":0,"code_postal":"02630","population":155,"superficie_km2":"519.66","latitude_centre":"49.9609","longitude_centre":"3.5646","distance_km":4.07},{"id":0,"code_insee":"02783","nom_standard":"Grand-Verly","nom_a":null,"nom_de":null,"slug_ville":"grand-verly","departement_id":0,"code_postal":"02120","population":124,"superficie_km2":"379.52","latitude_centre":"49.9446","longitude_centre":"3.5814","distance_km":4.31},{"id":0,"code_insee":"02386","nom_standard":"Iron","nom_a":null,"nom_de":null,"slug_ville":"iron","departement_id":0,"code_postal":"02510","population":224,"superficie_km2":"978.34","latitude_centre":"49.9517","longitude_centre":"3.6656","distance_km":4.46},{"id":0,"code_insee":"02476","nom_standard":"Mennevret","nom_a":null,"nom_de":null,"slug_ville":"mennevret","departement_id":0,"code_postal":"02630","population":637,"superficie_km2":"1190.23","latitude_centre":"49.9925","longitude_centre":"3.5568","distance_km":4.62},{"id":0,"code_insee":"02830","nom_standard":"Wassigny","nom_a":null,"nom_de":null,"slug_ville":"wassigny","departement_id":0,"code_postal":"02630","population":927,"superficie_km2":"676.38","latitude_centre":"50.0177","longitude_centre":"3.6018","distance_km":4.73},{"id":0,"code_insee":"02548","nom_standard":"La Neuville-lès-Dorengt","nom_a":null,"nom_de":null,"slug_ville":"la-neuville-les-dorengt","departement_id":0,"code_postal":"02450","population":394,"superficie_km2":"1091.66","latitude_centre":"49.9832","longitude_centre":"3.6851","distance_km":4.98},{"id":0,"code_insee":"02422","nom_standard":"Lesquielles-Saint-Germain","nom_a":null,"nom_de":null,"slug_ville":"lesquielles-saint-germain","departement_id":0,"code_postal":"02120","population":754,"superficie_km2":"1648.33","latitude_centre":"49.9312","longitude_centre":"3.6277","distance_km":5.07},{"id":0,"code_insee":"02569","nom_standard":"Oisy","nom_a":null,"nom_de":null,"slug_ville":"oisy","departement_id":0,"code_postal":"02450","population":438,"superficie_km2":"1084.74","latitude_centre":"50.0226","longitude_centre":"3.6502","distance_km":5.7},{"id":10421,"code_insee":"02269","nom_standard":"Dorengt","nom_a":null,"nom_de":null,"slug_ville":"dorengt","departement_id":0,"code_postal":"02450","population":148,"superficie_km2":"1047.87","latitude_centre":"49.9656","longitude_centre":"3.7014","distance_km":6.2},{"id":0,"code_insee":"02757","nom_standard":"Vadencourt","nom_a":null,"nom_de":null,"slug_ville":"vadencourt","departement_id":0,"code_postal":"02120","population":505,"superficie_km2":"1240.24","latitude_centre":"49.9248","longitude_centre":"3.5774","distance_km":6.36},{"id":0,"code_insee":"02760","nom_standard":"La Vallée-Mulâtre","nom_a":null,"nom_de":null,"slug_ville":"la-vallee-mulatre","departement_id":0,"code_postal":"02110","population":152,"superficie_km2":"535.90","latitude_centre":"50.0259","longitude_centre":"3.561","distance_km":6.79},{"id":0,"code_insee":"02647","nom_standard":"Ribeauville","nom_a":null,"nom_de":null,"slug_ville":"ribeauville","departement_id":0,"code_postal":"02110","population":86,"superficie_km2":"361.90","latitude_centre":"50.037","longitude_centre":"3.5903","distance_km":7.01},{"id":0,"code_insee":"02814","nom_standard":"Villers-lès-Guise","nom_a":null,"nom_de":null,"slug_ville":"villers-les-guise","departement_id":0,"code_postal":"02120","population":166,"superficie_km2":"813.49","latitude_centre":"49.9251","longitude_centre":"3.6827","distance_km":7.41},{"id":0,"code_insee":"59496","nom_standard":"Rejet-de-Beaulieu","nom_a":null,"nom_de":null,"slug_ville":"rejet-de-beaulieu","departement_id":0,"code_postal":"59360","population":241,"superficie_km2":"634.87","latitude_centre":"50.0439","longitude_centre":"3.6351","distance_km":7.65},{"id":0,"code_insee":"59395","nom_standard":"Mazinghien","nom_a":null,"nom_de":null,"slug_ville":"mazinghien","departement_id":0,"code_postal":"59360","population":279,"superficie_km2":"899.07","latitude_centre":"50.0495","longitude_centre":"3.5986","distance_km":8.25},{"id":0,"code_insee":"02625","nom_standard":"Proix","nom_a":null,"nom_de":null,"slug_ville":"proix","departement_id":0,"code_postal":"02120","population":146,"superficie_km2":"349.43","latitude_centre":"49.902","longitude_centre":"3.5769","distance_km":8.72},{"id":0,"code_insee":"02361","nom_standard":"Guise","nom_a":null,"nom_de":null,"slug_ville":"guise","departement_id":0,"code_postal":"02120","population":4490,"superficie_km2":"1622.13","latitude_centre":"49.8973","longitude_centre":"3.6229","distance_km":8.79}]}