{"ville":{"id":34427,"code_insee":"88230","nom_standard":"Hardancourt","nom_a":null,"nom_de":null,"slug_ville":"hardancourt","departement_id":0,"code_postal":"88700","population":34,"superficie_km2":"333.92","latitude_centre":"48.3794","longitude_centre":"6.5601","dep_code":"88","dep_nom":"Vosges","dep_slug":"vosges","reg_code":"44","reg_nom":"Grand Est","reg_slug":"grand-est"},"departement":{"code":"88","nom":"Vosges","slug":"vosges"},"region":{"code":"44","nom":"Grand Est","slug":"grand-est"},"villes_proches":[{"id":0,"code_insee":"88425","nom_standard":"Saint-Maurice-sur-Mortagne","nom_a":null,"nom_de":null,"slug_ville":"saint-maurice-sur-mortagne","departement_id":0,"code_postal":"88700","population":182,"superficie_km2":"684.99","latitude_centre":"48.3904","longitude_centre":"6.572","distance_km":1.51},{"id":34377,"code_insee":"88168","nom_standard":"Fauconcourt","nom_a":null,"nom_de":null,"slug_ville":"fauconcourt","departement_id":0,"code_postal":"88700","population":126,"superficie_km2":"490.43","latitude_centre":"48.372","longitude_centre":"6.5388","distance_km":1.78},{"id":34343,"code_insee":"88127","nom_standard":"Deinvillers","nom_a":null,"nom_de":null,"slug_ville":"deinvillers","departement_id":0,"code_postal":"88700","population":57,"superficie_km2":"556.90","latitude_centre":"48.4137","longitude_centre":"6.5628","distance_km":3.82},{"id":0,"code_insee":"88338","nom_standard":"Ortoncourt","nom_a":null,"nom_de":null,"slug_ville":"ortoncourt","departement_id":0,"code_postal":"88700","population":94,"superficie_km2":"435.90","latitude_centre":"48.3687","longitude_centre":"6.511","distance_km":3.82},{"id":0,"code_insee":"88395","nom_standard":"Romont","nom_a":null,"nom_de":null,"slug_ville":"romont","departement_id":0,"code_postal":"88700","population":358,"superficie_km2":"1939.15","latitude_centre":"48.347","longitude_centre":"6.5804","distance_km":3.9},{"id":0,"code_insee":"88402","nom_standard":"Roville-aux-Chênes","nom_a":null,"nom_de":null,"slug_ville":"roville-aux-chenes","departement_id":0,"code_postal":"88700","population":350,"superficie_km2":"864.50","latitude_centre":"48.3827","longitude_centre":"6.6131","distance_km":3.93},{"id":34332,"code_insee":"88110","nom_standard":"Clézentaine","nom_a":null,"nom_de":null,"slug_ville":"clezentaine","departement_id":0,"code_postal":"88700","population":217,"superficie_km2":"1304.32","latitude_centre":"48.4063","longitude_centre":"6.5242","distance_km":4.0},{"id":0,"code_insee":"88318","nom_standard":"Moyemont","nom_a":null,"nom_de":null,"slug_ville":"moyemont","departement_id":0,"code_postal":"88700","population":220,"superficie_km2":"1231.90","latitude_centre":"48.3438","longitude_centre":"6.5455","distance_km":4.1},{"id":34425,"code_insee":"88228","nom_standard":"Haillainville","nom_a":null,"nom_de":null,"slug_ville":"haillainville","departement_id":0,"code_postal":"88330","population":181,"superficie_km2":"1253.18","latitude_centre":"48.3968","longitude_centre":"6.4964","distance_km":5.09},{"id":0,"code_insee":"88527","nom_standard":"Xaffévillers","nom_a":null,"nom_de":null,"slug_ville":"xaffevillers","departement_id":0,"code_postal":"88700","population":131,"superficie_km2":"832.75","latitude_centre":"48.4104","longitude_centre":"6.611","distance_km":5.1},{"id":0,"code_insee":"88416","nom_standard":"Saint-Genest","nom_a":null,"nom_de":null,"slug_ville":"saint-genest","departement_id":0,"code_postal":"88700","population":131,"superficie_km2":"623.95","latitude_centre":"48.3456","longitude_centre":"6.51","distance_km":5.27},{"id":34368,"code_insee":"88156","nom_standard":"Doncières","nom_a":null,"nom_de":null,"slug_ville":"doncieres","departement_id":0,"code_postal":"88700","population":157,"superficie_km2":"770.24","latitude_centre":"48.3901","longitude_centre":"6.6344","distance_km":5.61},{"id":0,"code_insee":"88367","nom_standard":"Rambervillers","nom_a":null,"nom_de":null,"slug_ville":"rambervillers","departement_id":0,"code_postal":"88700","population":5018,"superficie_km2":"2067.41","latitude_centre":"48.3457","longitude_centre":"6.6312","distance_km":6.45},{"id":0,"code_insee":"88432","nom_standard":"Saint-Pierremont","nom_a":null,"nom_de":null,"slug_ville":"saint-pierremont","departement_id":0,"code_postal":"88700","population":153,"superficie_km2":"552.83","latitude_centre":"48.4398","longitude_centre":"6.5813","distance_km":6.9},{"id":24699,"code_insee":"54331","nom_standard":"Magnières","nom_a":null,"nom_de":null,"slug_ville":"magnieres","departement_id":0,"code_postal":"54129","population":290,"superficie_km2":"1165.44","latitude_centre":"48.4433","longitude_centre":"6.5653","distance_km":7.12},{"id":24718,"code_insee":"54356","nom_standard":"Mattexey","nom_a":null,"nom_de":null,"slug_ville":"mattexey","departement_id":0,"code_postal":"54830","population":62,"superficie_km2":"499.45","latitude_centre":"48.4389","longitude_centre":"6.523","distance_km":7.16},{"id":24622,"code_insee":"54228","nom_standard":"Giriviller","nom_a":null,"nom_de":null,"slug_ville":"giriviller","departement_id":0,"code_postal":"54830","population":71,"superficie_km2":"773.12","latitude_centre":"48.4343","longitude_centre":"6.4955","distance_km":7.75},{"id":34264,"code_insee":"88027","nom_standard":"Badménil-aux-Bois","nom_a":null,"nom_de":null,"slug_ville":"badmenil-aux-bois","departement_id":0,"code_postal":"88330","population":135,"superficie_km2":"931.03","latitude_centre":"48.3115","longitude_centre":"6.5285","distance_km":7.9},{"id":0,"code_insee":"88521","nom_standard":"Vomécourt","nom_a":null,"nom_de":null,"slug_ville":"vomecourt","departement_id":0,"code_postal":"88700","population":267,"superficie_km2":"706.61","latitude_centre":"48.3144","longitude_centre":"6.6128","distance_km":8.21},{"id":24860,"code_insee":"54543","nom_standard":"Vallois","nom_a":null,"nom_de":null,"slug_ville":"vallois","departement_id":0,"code_postal":"54830","population":121,"superficie_km2":"732.69","latitude_centre":"48.4594","longitude_centre":"6.5462","distance_km":8.95}]}