{"ville":{"id":31834,"code_insee":"76350","nom_standard":"Hautot-sur-Seine","nom_a":null,"nom_de":null,"slug_ville":"hautot-sur-seine","departement_id":0,"code_postal":"76113","population":399,"superficie_km2":"214.10","latitude_centre":"49.3633","longitude_centre":"0.9797","dep_code":"76","dep_nom":"Seine-Maritime","dep_slug":"seine-maritime","reg_code":"28","reg_nom":"Normandie","reg_slug":"normandie"},"departement":{"code":"76","nom":"Seine-Maritime","slug":"seine-maritime"},"region":{"code":"28","nom":"Normandie","slug":"normandie"},"villes_proches":[{"id":0,"code_insee":"76550","nom_standard":"Sahurs","nom_a":null,"nom_de":null,"slug_ville":"sahurs","departement_id":0,"code_postal":"76113","population":1216,"superficie_km2":"1113.99","latitude_centre":"49.3698","longitude_centre":"0.947","distance_km":2.48},{"id":0,"code_insee":"76319","nom_standard":"Grand-Couronne","nom_a":null,"nom_de":null,"slug_ville":"grand-couronne","departement_id":0,"code_postal":"76530","population":9768,"superficie_km2":"1690.66","latitude_centre":"49.3508","longitude_centre":"1.0097","distance_km":2.58},{"id":0,"code_insee":"76457","nom_standard":"Moulineaux","nom_a":null,"nom_de":null,"slug_ville":"moulineaux","departement_id":0,"code_postal":"76530","population":954,"superficie_km2":"349.23","latitude_centre":"49.342","longitude_centre":"0.9567","distance_km":2.9},{"id":0,"code_insee":"76717","nom_standard":"Val-de-la-Haye","nom_a":null,"nom_de":null,"slug_ville":"val-de-la-haye","departement_id":0,"code_postal":"76380","population":689,"superficie_km2":"1023.89","latitude_centre":"49.3885","longitude_centre":"0.9907","distance_km":2.91},{"id":31683,"code_insee":"76131","nom_standard":"La Bouille","nom_a":null,"nom_de":null,"slug_ville":"la-bouille","departement_id":0,"code_postal":"76530","population":706,"superficie_km2":"124.70","latitude_centre":"49.3513","longitude_centre":"0.9342","distance_km":3.56},{"id":0,"code_insee":"76634","nom_standard":"Saint-Pierre-de-Manneville","nom_a":null,"nom_de":null,"slug_ville":"saint-pierre-de-manneville","departement_id":0,"code_postal":"76113","population":881,"superficie_km2":"1024.71","latitude_centre":"49.3944","longitude_centre":"0.9459","distance_km":4.24},{"id":0,"code_insee":"76497","nom_standard":"Petit-Couronne","nom_a":null,"nom_de":null,"slug_ville":"petit-couronne","departement_id":0,"code_postal":"76650","population":8683,"superficie_km2":"1276.75","latitude_centre":"49.3817","longitude_centre":"1.0342","distance_km":4.44},{"id":0,"code_insee":"27133","nom_standard":"Caumont","nom_a":null,"nom_de":null,"slug_ville":"caumont","departement_id":0,"code_postal":"27310","population":1149,"superficie_km2":"606.90","latitude_centre":"49.3678","longitude_centre":"0.9078","distance_km":5.23},{"id":0,"code_insee":"76513","nom_standard":"Quevillon","nom_a":null,"nom_de":null,"slug_ville":"quevillon","departement_id":0,"code_postal":"76840","population":587,"superficie_km2":"1075.74","latitude_centre":"49.4107","longitude_centre":"0.9581","distance_km":5.5},{"id":0,"code_insee":"76486","nom_standard":"Orival","nom_a":null,"nom_de":null,"slug_ville":"orival","departement_id":0,"code_postal":"76500","population":818,"superficie_km2":"956.09","latitude_centre":"49.315","longitude_centre":"1.0027","distance_km":5.62},{"id":0,"code_insee":"27580","nom_standard":"Saint-Ouen-de-Thouberville","nom_a":null,"nom_de":null,"slug_ville":"saint-ouen-de-thouberville","departement_id":0,"code_postal":"27310","population":2419,"superficie_km2":"636.91","latitude_centre":"49.3497","longitude_centre":"0.8971","distance_km":6.17},{"id":0,"code_insee":"76178","nom_standard":"Cléon","nom_a":null,"nom_de":null,"slug_ville":"cleon","departement_id":0,"code_postal":"76410","population":4795,"superficie_km2":"651.30","latitude_centre":"49.3155","longitude_centre":"1.0393","distance_km":6.85},{"id":0,"code_insee":"76391","nom_standard":"La Londe","nom_a":null,"nom_de":null,"slug_ville":"la-londe","departement_id":0,"code_postal":"76500","population":2372,"superficie_km2":"3088.53","latitude_centre":"49.3193","longitude_centre":"0.913","distance_km":6.88},{"id":0,"code_insee":"76322","nom_standard":"Le Grand-Quevilly","nom_a":null,"nom_de":null,"slug_ville":"le-grand-quevilly","departement_id":0,"code_postal":"76120","population":25789,"superficie_km2":"1097.79","latitude_centre":"49.4118","longitude_centre":"1.0416","distance_km":7.01},{"id":0,"code_insee":"76561","nom_standard":"Saint-Aubin-lès-Elbeuf","nom_a":null,"nom_de":null,"slug_ville":"saint-aubin-les-elbeuf","departement_id":0,"code_postal":"76410","population":8443,"superficie_km2":"580.86","latitude_centre":"49.3058","longitude_centre":"1.0211","distance_km":7.06},{"id":0,"code_insee":"27582","nom_standard":"Saint-Ouen-du-Tilleul","nom_a":null,"nom_de":null,"slug_ville":"saint-ouen-du-tilleul","departement_id":0,"code_postal":"27670","population":1792,"superficie_km2":"403.32","latitude_centre":"49.3013","longitude_centre":"0.9485","distance_km":7.26},{"id":0,"code_insee":"76157","nom_standard":"Canteleu","nom_a":null,"nom_de":null,"slug_ville":"canteleu","departement_id":0,"code_postal":"76380","population":14402,"superficie_km2":"1761.38","latitude_centre":"49.4323","longitude_centre":"1.0173","distance_km":8.14},{"id":31629,"code_insee":"76056","nom_standard":"Bardouville","nom_a":null,"nom_de":null,"slug_ville":"bardouville","departement_id":0,"code_postal":"76480","population":597,"superficie_km2":"846.09","latitude_centre":"49.4293","longitude_centre":"0.9223","distance_km":8.43},{"id":0,"code_insee":"76614","nom_standard":"Saint-Martin-de-Boscherville","nom_a":null,"nom_de":null,"slug_ville":"saint-martin-de-boscherville","departement_id":0,"code_postal":"76840","population":1515,"superficie_km2":"1257.92","latitude_centre":"49.4473","longitude_centre":"0.9632","distance_km":9.42},{"id":0,"code_insee":"76231","nom_standard":"Elbeuf","nom_a":null,"nom_de":null,"slug_ville":"elbeuf","departement_id":0,"code_postal":"76500","population":15474,"superficie_km2":"1631.32","latitude_centre":"49.2773","longitude_centre":"0.9974","distance_km":9.65}]}