{"ville":{"id":33051,"code_insee":"80424","nom_standard":"Hébécourt","nom_a":null,"nom_de":null,"slug_ville":"hebecourt","departement_id":0,"code_postal":"80680","population":576,"superficie_km2":"486.51","latitude_centre":"49.8155","longitude_centre":"2.2589","dep_code":"80","dep_nom":"Somme","dep_slug":"somme","reg_code":"32","reg_nom":"Hauts-de-France","reg_slug":"hauts-de-france"},"departement":{"code":"80","nom":"Somme","slug":"somme"},"region":{"code":"32","nom":"Hauts-de-France","slug":"hauts-de-france"},"villes_proches":[{"id":0,"code_insee":"80690","nom_standard":"Rumigny","nom_a":null,"nom_de":null,"slug_ville":"rumigny","departement_id":0,"code_postal":"80680","population":613,"superficie_km2":"812.73","latitude_centre":"49.8037","longitude_centre":"2.2825","distance_km":2.14},{"id":0,"code_insee":"80627","nom_standard":"Plachy-Buyon","nom_a":null,"nom_de":null,"slug_ville":"plachy-buyon","departement_id":0,"code_postal":"80160","population":897,"superficie_km2":"1016.57","latitude_centre":"49.8093","longitude_centre":"2.2183","distance_km":2.99},{"id":0,"code_insee":"80717","nom_standard":"Saint-Sauflieu","nom_a":null,"nom_de":null,"slug_ville":"saint-sauflieu","departement_id":0,"code_postal":"80160","population":976,"superficie_km2":"786.03","latitude_centre":"49.7869","longitude_centre":"2.2558","distance_km":3.19},{"id":0,"code_insee":"80791","nom_standard":"Vers-sur-Selle","nom_a":null,"nom_de":null,"slug_ville":"vers-sur-selle","departement_id":0,"code_postal":"80480","population":929,"superficie_km2":"1133.15","latitude_centre":"49.8412","longitude_centre":"2.2234","distance_km":3.83},{"id":0,"code_insee":"80261","nom_standard":"Dury","nom_a":null,"nom_de":null,"slug_ville":"dury","departement_id":0,"code_postal":"80480","population":1441,"superficie_km2":"1103.26","latitude_centre":"49.8515","longitude_centre":"2.2788","distance_km":4.25},{"id":0,"code_insee":"80583","nom_standard":"Nampty","nom_a":null,"nom_de":null,"slug_ville":"nampty","departement_id":0,"code_postal":"80160","population":277,"superficie_km2":"526.87","latitude_centre":"49.7885","longitude_centre":"2.2131","distance_km":4.45},{"id":0,"code_insee":"80702","nom_standard":"Saint-Fuscien","nom_a":null,"nom_de":null,"slug_ville":"saint-fuscien","departement_id":0,"code_postal":"80680","population":1409,"superficie_km2":"1001.35","latitude_centre":"49.8415","longitude_centre":"2.3061","distance_km":4.45},{"id":33022,"code_insee":"80387","nom_standard":"Grattepanche","nom_a":null,"nom_de":null,"slug_ville":"grattepanche","departement_id":0,"code_postal":"80680","population":321,"superficie_km2":"640.13","latitude_centre":"49.7862","longitude_centre":"2.3046","distance_km":4.62},{"id":32737,"code_insee":"80050","nom_standard":"Bacouel-sur-Selle","nom_a":null,"nom_de":null,"slug_ville":"bacouel-sur-selle","departement_id":0,"code_postal":"80480","population":461,"superficie_km2":"631.06","latitude_centre":"49.8289","longitude_centre":"2.1958","distance_km":4.77},{"id":0,"code_insee":"80696","nom_standard":"Sains-en-Amiénois","nom_a":null,"nom_de":null,"slug_ville":"sains-en-amienois","departement_id":0,"code_postal":"80680","population":1187,"superficie_km2":"993.94","latitude_centre":"49.8132","longitude_centre":"2.3259","distance_km":4.81},{"id":0,"code_insee":"80643","nom_standard":"Prouzel","nom_a":null,"nom_de":null,"slug_ville":"prouzel","departement_id":0,"code_postal":"80160","population":572,"superficie_km2":"523.05","latitude_centre":"49.8133","longitude_centre":"2.1903","distance_km":4.93},{"id":32976,"code_insee":"80334","nom_standard":"Fossemanant","nom_a":null,"nom_de":null,"slug_ville":"fossemanant","departement_id":0,"code_postal":"80160","population":100,"superficie_km2":"273.10","latitude_centre":"49.8022","longitude_centre":"2.1901","distance_km":5.15},{"id":0,"code_insee":"80611","nom_standard":"Oresmaux","nom_a":null,"nom_de":null,"slug_ville":"oresmaux","departement_id":0,"code_postal":"80160","population":998,"superficie_km2":"1103.86","latitude_centre":"49.7684","longitude_centre":"2.269","distance_km":5.29},{"id":0,"code_insee":"80724","nom_standard":"Saleux","nom_a":null,"nom_de":null,"slug_ville":"saleux","departement_id":0,"code_postal":"80480","population":2739,"superficie_km2":"797.29","latitude_centre":"49.8622","longitude_centre":"2.2191","distance_km":5.93},{"id":0,"code_insee":"80725","nom_standard":"Salouël","nom_a":null,"nom_de":null,"slug_ville":"salouel","departement_id":0,"code_postal":"80480","population":4179,"superficie_km2":"433.39","latitude_centre":"49.8677","longitude_centre":"2.2385","distance_km":5.99},{"id":0,"code_insee":"80160","nom_standard":"Cagny","nom_a":null,"nom_de":null,"slug_ville":"cagny","departement_id":0,"code_postal":"80330","population":1191,"superficie_km2":"533.85","latitude_centre":"49.8504","longitude_centre":"2.3386","distance_km":6.91},{"id":0,"code_insee":"80485","nom_standard":"Ô-de-Selle","nom_a":null,"nom_de":null,"slug_ville":"o-de-selle","departement_id":0,"code_postal":"80160","population":1148,"superficie_km2":"2694.06","latitude_centre":"49.7672","longitude_centre":"2.1897","distance_km":7.32},{"id":0,"code_insee":"80452","nom_standard":"Jumel","nom_a":null,"nom_de":null,"slug_ville":"jumel","departement_id":0,"code_postal":"80250","population":532,"superficie_km2":"893.94","latitude_centre":"49.7622","longitude_centre":"2.322","distance_km":7.46},{"id":32936,"code_insee":"80285","nom_standard":"Essertaux","nom_a":null,"nom_de":null,"slug_ville":"essertaux","departement_id":0,"code_postal":"80160","population":270,"superficie_km2":"659.78","latitude_centre":"49.7475","longitude_centre":"2.2596","distance_km":7.56},{"id":0,"code_insee":"80632","nom_standard":"Pont-de-Metz","nom_a":null,"nom_de":null,"slug_ville":"pont-de-metz","departement_id":0,"code_postal":"80480","population":2425,"superficie_km2":"777.78","latitude_centre":"49.8843","longitude_centre":"2.2271","distance_km":7.98}]}