{"ville":{"id":29057,"code_insee":"65218","nom_standard":"Hèches","nom_a":null,"nom_de":null,"slug_ville":"heches","departement_id":0,"code_postal":"65250","population":577,"superficie_km2":"3549.46","latitude_centre":"42.998","longitude_centre":"0.3765","dep_code":"65","dep_nom":"Hautes-Pyrénées","dep_slug":"hautes-pyrenees","reg_code":"76","reg_nom":"Occitanie","reg_slug":"occitanie"},"departement":{"code":"65","nom":"Hautes-Pyrénées","slug":"hautes-pyrenees"},"region":{"code":"76","nom":"Occitanie","slug":"occitanie"},"villes_proches":[{"id":28922,"code_insee":"65076","nom_standard":"Bazus-Neste","nom_a":null,"nom_de":null,"slug_ville":"bazus-neste","departement_id":0,"code_postal":"65250","population":39,"superficie_km2":"248.87","latitude_centre":"43.0313","longitude_centre":"0.3876","distance_km":3.81},{"id":0,"code_insee":"65309","nom_standard":"Mazouau","nom_a":null,"nom_de":null,"slug_ville":"mazouau","departement_id":0,"code_postal":"65250","population":13,"superficie_km2":"140.39","latitude_centre":"43.0268","longitude_centre":"0.402","distance_km":3.81},{"id":0,"code_insee":"65228","nom_standard":"Ilhet","nom_a":null,"nom_de":null,"slug_ville":"ilhet","departement_id":0,"code_postal":"65410","population":122,"superficie_km2":"801.45","latitude_centre":"42.9644","longitude_centre":"0.4035","distance_km":4.33},{"id":0,"code_insee":"65279","nom_standard":"Lortet","nom_a":null,"nom_de":null,"slug_ville":"lortet","departement_id":0,"code_postal":"65250","population":210,"superficie_km2":"359.86","latitude_centre":"43.0378","longitude_centre":"0.3768","distance_km":4.43},{"id":0,"code_insee":"65239","nom_standard":"Labastide","nom_a":null,"nom_de":null,"slug_ville":"labastide","departement_id":0,"code_postal":"65130","population":147,"superficie_km2":"562.04","latitude_centre":"43.0371","longitude_centre":"0.3508","distance_km":4.82},{"id":0,"code_insee":"65408","nom_standard":"Sarrancolin","nom_a":null,"nom_de":null,"slug_ville":"sarrancolin","departement_id":0,"code_postal":"65410","population":546,"superficie_km2":"3243.02","latitude_centre":"42.9593","longitude_centre":"0.4043","distance_km":4.86},{"id":29030,"code_insee":"65190","nom_standard":"Gazave","nom_a":null,"nom_de":null,"slug_ville":"gazave","departement_id":0,"code_postal":"65250","population":72,"superficie_km2":"736.51","latitude_centre":"43.0294","longitude_centre":"0.4215","distance_km":5.06},{"id":29006,"code_insee":"65165","nom_standard":"Esparros","nom_a":null,"nom_de":null,"slug_ville":"esparros","departement_id":0,"code_postal":"65130","population":165,"superficie_km2":"3278.67","latitude_centre":"43.0109","longitude_centre":"0.3149","distance_km":5.21},{"id":28938,"code_insee":"65092","nom_standard":"Beyrède-Jumet-Camous","nom_a":null,"nom_de":null,"slug_ville":"beyrede-jumet-camous","departement_id":0,"code_postal":"65410","population":194,"superficie_km2":"1945.34","latitude_centre":"42.9547","longitude_centre":"0.349","distance_km":5.31},{"id":0,"code_insee":"65385","nom_standard":"Saint-Arroman","nom_a":null,"nom_de":null,"slug_ville":"saint-arroman","departement_id":0,"code_postal":"65250","population":98,"superficie_km2":"434.72","latitude_centre":"43.0445","longitude_centre":"0.4041","distance_km":5.64},{"id":0,"code_insee":"65231","nom_standard":"Izaux","nom_a":null,"nom_de":null,"slug_ville":"izaux","departement_id":0,"code_postal":"65250","population":210,"superficie_km2":"535.42","latitude_centre":"43.0577","longitude_centre":"0.3771","distance_km":6.64},{"id":0,"code_insee":"65329","nom_standard":"Nistos","nom_a":null,"nom_de":null,"slug_ville":"nistos","departement_id":0,"code_postal":"65150","population":212,"superficie_km2":"3265.78","latitude_centre":"42.9907","longitude_centre":"0.4589","distance_km":6.75},{"id":0,"code_insee":"65322","nom_standard":"Montoussé","nom_a":null,"nom_de":null,"slug_ville":"montousse","departement_id":0,"code_postal":"65250","population":250,"superficie_km2":"792.65","latitude_centre":"43.0605","longitude_centre":"0.4089","distance_km":7.43},{"id":0,"code_insee":"65323","nom_standard":"Montsérié","nom_a":null,"nom_de":null,"slug_ville":"montserie","departement_id":0,"code_postal":"65150","population":67,"superficie_km2":"227.77","latitude_centre":"43.0499","longitude_centre":"0.4367","distance_km":7.57},{"id":29021,"code_insee":"65180","nom_standard":"Fréchet-Aure","nom_a":null,"nom_de":null,"slug_ville":"frechet-aure","departement_id":0,"code_postal":"65240","population":16,"superficie_km2":"340.32","latitude_centre":"42.9296","longitude_centre":"0.3836","distance_km":7.63},{"id":28890,"code_insee":"65039","nom_standard":"Aspin-Aure","nom_a":null,"nom_de":null,"slug_ville":"aspin-aure","departement_id":0,"code_postal":"65240","population":43,"superficie_km2":"1219.18","latitude_centre":"42.9378","longitude_centre":"0.3303","distance_km":7.68},{"id":28877,"code_insee":"65023","nom_standard":"Ardengost","nom_a":null,"nom_de":null,"slug_ville":"ardengost","departement_id":0,"code_postal":"65240","population":12,"superficie_km2":"586.55","latitude_centre":"42.9273","longitude_centre":"0.4132","distance_km":8.41},{"id":28904,"code_insee":"65054","nom_standard":"Avezac-Prat-Lahitte","nom_a":null,"nom_de":null,"slug_ville":"avezac-prat-lahitte","departement_id":0,"code_postal":"65130","population":581,"superficie_km2":"1773.58","latitude_centre":"43.0673","longitude_centre":"0.3324","distance_km":8.5},{"id":0,"code_insee":"65069","nom_standard":"La Barthe-de-Neste","nom_a":null,"nom_de":null,"slug_ville":"la-barthe-de-neste","departement_id":0,"code_postal":"65250","population":1240,"superficie_km2":"763.92","latitude_centre":"43.0809","longitude_centre":"0.3815","distance_km":9.23},{"id":0,"code_insee":"65354","nom_standard":"Pailhac","nom_a":null,"nom_de":null,"slug_ville":"pailhac","departement_id":0,"code_postal":"65240","population":85,"superficie_km2":"96.84","latitude_centre":"42.9118","longitude_centre":"0.3677","distance_km":9.61}]}