{"ville":{"id":25681,"code_insee":"57313","nom_standard":"Hémilly","nom_a":null,"nom_de":null,"slug_ville":"hemilly","departement_id":0,"code_postal":"57690","population":136,"superficie_km2":"1409.87","latitude_centre":"49.0525","longitude_centre":"6.4891","dep_code":"57","dep_nom":"Moselle","dep_slug":"moselle","reg_code":"44","reg_nom":"Grand Est","reg_slug":"grand-est"},"departement":{"code":"57","nom":"Moselle","slug":"moselle"},"region":{"code":"44","nom":"Grand Est","slug":"grand-est"},"villes_proches":[{"id":25652,"code_insee":"57276","nom_standard":"Guinglange","nom_a":null,"nom_de":null,"slug_ville":"guinglange","departement_id":0,"code_postal":"57690","population":322,"superficie_km2":"1038.81","latitude_centre":"49.0686","longitude_centre":"6.5136","distance_km":2.53},{"id":0,"code_insee":"57718","nom_standard":"Villers-Stoncourt","nom_a":null,"nom_de":null,"slug_ville":"villers-stoncourt","departement_id":0,"code_postal":"57530","population":225,"superficie_km2":"1053.84","latitude_centre":"49.0572","longitude_centre":"6.4479","distance_km":3.05},{"id":25549,"code_insee":"57127","nom_standard":"Chanville","nom_a":null,"nom_de":null,"slug_ville":"chanville","departement_id":0,"code_postal":"57580","population":147,"superficie_km2":"387.17","latitude_centre":"49.0413","longitude_centre":"6.4365","distance_km":4.03},{"id":0,"code_insee":"57726","nom_standard":"Vittoncourt","nom_a":null,"nom_de":null,"slug_ville":"vittoncourt","departement_id":0,"code_postal":"57580","population":390,"superficie_km2":"950.44","latitude_centre":"49.0247","longitude_centre":"6.4525","distance_km":4.08},{"id":25475,"code_insee":"57029","nom_standard":"Arriance","nom_a":null,"nom_de":null,"slug_ville":"arriance","departement_id":0,"code_postal":"57580","population":213,"superficie_km2":"699.86","latitude_centre":"49.0162","longitude_centre":"6.5041","distance_km":4.18},{"id":0,"code_insee":"57563","nom_standard":"Raville","nom_a":null,"nom_de":null,"slug_ville":"raville","departement_id":0,"code_postal":"57530","population":330,"superficie_km2":"705.52","latitude_centre":"49.0892","longitude_centre":"6.4733","distance_km":4.24},{"id":25592,"code_insee":"57190","nom_standard":"Elvange","nom_a":null,"nom_de":null,"slug_ville":"elvange","departement_id":0,"code_postal":"57690","population":419,"superficie_km2":"718.35","latitude_centre":"49.0513","longitude_centre":"6.5474","distance_km":4.25},{"id":0,"code_insee":"57648","nom_standard":"Servigny-lès-Raville","nom_a":null,"nom_de":null,"slug_ville":"servigny-les-raville","departement_id":0,"code_postal":"57530","population":476,"superficie_km2":"1420.13","latitude_centre":"49.0806","longitude_centre":"6.4434","distance_km":4.57},{"id":0,"code_insee":"57319","nom_standard":"Herny","nom_a":null,"nom_de":null,"slug_ville":"herny","departement_id":0,"code_postal":"57580","population":515,"superficie_km2":"971.86","latitude_centre":"49.0109","longitude_centre":"6.4793","distance_km":4.68},{"id":25615,"code_insee":"57230","nom_standard":"Fouligny","nom_a":null,"nom_de":null,"slug_ville":"fouligny","departement_id":0,"code_postal":"57220","population":192,"superficie_km2":"602.83","latitude_centre":"49.0953","longitude_centre":"6.5154","distance_km":5.13},{"id":0,"code_insee":"57430","nom_standard":"Mainvillers","nom_a":null,"nom_de":null,"slug_ville":"mainvillers","departement_id":0,"code_postal":"57380","population":318,"superficie_km2":"676.10","latitude_centre":"49.0212","longitude_centre":"6.5431","distance_km":5.25},{"id":0,"code_insee":"57728","nom_standard":"Voimhaut","nom_a":null,"nom_de":null,"slug_ville":"voimhaut","departement_id":0,"code_postal":"57580","population":247,"superficie_km2":"400.91","latitude_centre":"49.0255","longitude_centre":"6.422","distance_km":5.74},{"id":25462,"code_insee":"57007","nom_standard":"Adaincourt","nom_a":null,"nom_de":null,"slug_ville":"adaincourt","departement_id":0,"code_postal":"57580","population":135,"superficie_km2":"341.41","latitude_centre":"49.0064","longitude_centre":"6.4445","distance_km":6.07},{"id":0,"code_insee":"57442","nom_standard":"Many","nom_a":null,"nom_de":null,"slug_ville":"many","departement_id":0,"code_postal":"57380","population":257,"superficie_km2":"823.26","latitude_centre":"49.0007","longitude_centre":"6.5306","distance_km":6.51},{"id":25518,"code_insee":"57085","nom_standard":"Bionville-sur-Nied","nom_a":null,"nom_de":null,"slug_ville":"bionville-sur-nied","departement_id":0,"code_postal":"57220","population":393,"superficie_km2":"849.39","latitude_centre":"49.1135","longitude_centre":"6.4768","distance_km":6.84},{"id":25488,"code_insee":"57048","nom_standard":"Bannay","nom_a":null,"nom_de":null,"slug_ville":"bannay","departement_id":0,"code_postal":"57220","population":78,"superficie_km2":"416.21","latitude_centre":"49.1195","longitude_centre":"6.4659","distance_km":7.64},{"id":25663,"code_insee":"57293","nom_standard":"Han-sur-Nied","nom_a":null,"nom_de":null,"slug_ville":"han-sur-nied","departement_id":0,"code_postal":"57580","population":249,"superficie_km2":"201.73","latitude_centre":"48.9888","longitude_centre":"6.4449","distance_km":7.78},{"id":0,"code_insee":"57328","nom_standard":"Holacourt","nom_a":null,"nom_de":null,"slug_ville":"holacourt","departement_id":0,"code_postal":"57380","population":87,"superficie_km2":"289.84","latitude_centre":"48.9788","longitude_centre":"6.5055","distance_km":8.28},{"id":0,"code_insee":"57698","nom_standard":"Vatimont","nom_a":null,"nom_de":null,"slug_ville":"vatimont","departement_id":0,"code_postal":"57580","population":306,"superficie_km2":"802.68","latitude_centre":"48.9775","longitude_centre":"6.4759","distance_km":8.39},{"id":25537,"code_insee":"57112","nom_standard":"Brouck","nom_a":null,"nom_de":null,"slug_ville":"brouck","departement_id":0,"code_postal":"57220","population":80,"superficie_km2":"301.63","latitude_centre":"49.1276","longitude_centre":"6.5086","distance_km":8.47}]}