{"ville":{"id":1531,"code_insee":"22076","nom_standard":"Hénanbihen","nom_a":null,"nom_de":null,"slug_ville":"henanbihen","departement_id":623,"code_postal":"22550","population":1378,"superficie_km2":"32.00","latitude_centre":"48.5579987","longitude_centre":"-2.3820000","dep_code":"22","dep_nom":"Côtes-d'Armor","dep_slug":"cotes-d-armor","reg_code":"03","reg_nom":"Bretagne","reg_slug":"bretagne"},"departement":{"code":"22","nom":"Côtes-d'Armor","slug":"cotes-d-armor"},"region":{"code":"03","nom":"Bretagne","slug":"bretagne"},"villes_proches":[{"id":1532,"code_insee":"22077","nom_standard":"Hénansal","nom_a":null,"nom_de":null,"slug_ville":"henansal","departement_id":623,"code_postal":"22400","population":1231,"superficie_km2":"29.00","latitude_centre":"48.5379982","longitude_centre":"-2.4480000","distance_km":5.34},{"id":1619,"code_insee":"22242","nom_standard":"Plurien","nom_a":null,"nom_de":null,"slug_ville":"plurien","departement_id":623,"code_postal":"22240","population":1528,"superficie_km2":"22.00","latitude_centre":"48.6100006","longitude_centre":"-2.4000001","distance_km":5.93},{"id":1555,"code_insee":"22143","nom_standard":"Matignon","nom_a":null,"nom_de":null,"slug_ville":"matignon","departement_id":623,"code_postal":"22550","population":1704,"superficie_km2":"15.00","latitude_centre":"48.6020012","longitude_centre":"-2.2900000","distance_km":8.35},{"id":1615,"code_insee":"22237","nom_standard":"Pluduno","nom_a":null,"nom_de":null,"slug_ville":"pluduno","departement_id":623,"code_postal":"22130","population":2208,"superficie_km2":"29.00","latitude_centre":"48.5229988","longitude_centre":"-2.2809999","distance_km":8.39},{"id":1573,"code_insee":"22179","nom_standard":"Fréhel","nom_a":null,"nom_de":null,"slug_ville":"frehel","departement_id":623,"code_postal":"22240","population":1608,"superficie_km2":"19.00","latitude_centre":"48.6349983","longitude_centre":"-2.3620000","distance_km":8.69},{"id":1523,"code_insee":"22054","nom_standard":"Erquy","nom_a":null,"nom_de":null,"slug_ville":"erquy","departement_id":623,"code_postal":"22430","population":3909,"superficie_km2":"27.00","latitude_centre":"48.6189995","longitude_centre":"-2.4590001","distance_km":8.84},{"id":1632,"code_insee":"22273","nom_standard":"Saint-Alban","nom_a":null,"nom_de":null,"slug_ville":"saint-alban","departement_id":623,"code_postal":"22400","population":2309,"superficie_km2":"30.00","latitude_centre":"48.5550003","longitude_centre":"-2.5090001","distance_km":9.35},{"id":1569,"code_insee":"22175","nom_standard":"Plédéliac","nom_a":null,"nom_de":null,"slug_ville":"pledeliac","departement_id":623,"code_postal":"22270","population":1541,"superficie_km2":"53.00","latitude_centre":"48.4690018","longitude_centre":"-2.3720000","distance_km":9.92},{"id":1639,"code_insee":"22282","nom_standard":"Saint-Cast-le-Guildo","nom_a":null,"nom_de":null,"slug_ville":"saint-cast-le-guildo","departement_id":623,"code_postal":"22380","population":3334,"superficie_km2":"23.00","latitude_centre":"48.6040001","longitude_centre":"-2.2490001","distance_km":11.04},{"id":1579,"code_insee":"22186","nom_standard":"Pléneuf-Val-André","nom_a":null,"nom_de":null,"slug_ville":"pleneuf-val-andre","departement_id":623,"code_postal":"22370","population":4063,"superficie_km2":"17.00","latitude_centre":"48.5839996","longitude_centre":"-2.5300000","distance_km":11.27},{"id":1568,"code_insee":"22172","nom_standard":"Plancoët","nom_a":null,"nom_de":null,"slug_ville":"plancoet","departement_id":623,"code_postal":"22130","population":3057,"superficie_km2":"12.00","latitude_centre":"48.5149994","longitude_centre":"-2.2190001","distance_km":12.92},{"id":1537,"code_insee":"22093","nom_standard":"Lamballe-Armor","nom_a":null,"nom_de":null,"slug_ville":"lamballe-armor","departement_id":623,"code_postal":"22400","population":16845,"superficie_km2":"77.00","latitude_centre":"48.4679985","longitude_centre":"-2.4949999","distance_km":13.02},{"id":1510,"code_insee":"22014","nom_standard":"Bourseul","nom_a":null,"nom_de":null,"slug_ville":"bourseul","departement_id":623,"code_postal":"22130","population":1218,"superficie_km2":"22.00","latitude_centre":"48.4669991","longitude_centre":"-2.2650001","distance_km":13.29},{"id":1521,"code_insee":"22049","nom_standard":"Créhen","nom_a":null,"nom_de":null,"slug_ville":"crehen","departement_id":623,"code_postal":"22130","population":1654,"superficie_km2":"18.00","latitude_centre":"48.5400009","longitude_centre":"-2.1910000","distance_km":14.2},{"id":1504,"code_insee":"22002","nom_standard":"Andel","nom_a":null,"nom_de":null,"slug_ville":"andel","departement_id":623,"code_postal":"22400","population":1156,"superficie_km2":"12.00","latitude_centre":"48.4939995","longitude_centre":"-2.5510001","distance_km":14.34},{"id":1535,"code_insee":"22084","nom_standard":"Jugon-les-Lacs","nom_a":null,"nom_de":null,"slug_ville":"jugon-les-lacs","departement_id":623,"code_postal":"22270","population":2529,"superficie_km2":"27.00","latitude_centre":"48.4169998","longitude_centre":"-2.3250000","distance_km":16.23},{"id":1583,"code_insee":"22193","nom_standard":"Plestan","nom_a":null,"nom_de":null,"slug_ville":"plestan","departement_id":623,"code_postal":"22640","population":1640,"superficie_km2":"33.00","latitude_centre":"48.4150009","longitude_centre":"-2.4410000","distance_km":16.48},{"id":1518,"code_insee":"22044","nom_standard":"Coëtmieux","nom_a":null,"nom_de":null,"slug_ville":"coetmieux","departement_id":623,"code_postal":"22400","population":1812,"superficie_km2":"8.00","latitude_centre":"48.4869995","longitude_centre":"-2.5920000","distance_km":17.36},{"id":1538,"code_insee":"22094","nom_standard":"Lancieux","nom_a":null,"nom_de":null,"slug_ville":"lancieux","departement_id":623,"code_postal":"22770","population":1584,"superficie_km2":"7.00","latitude_centre":"48.6010017","longitude_centre":"-2.1470001","distance_km":17.94},{"id":1520,"code_insee":"22048","nom_standard":"Corseul","nom_a":null,"nom_de":null,"slug_ville":"corseul","departement_id":623,"code_postal":"22130","population":2223,"superficie_km2":"42.00","latitude_centre":"48.4830017","longitude_centre":"-2.1659999","distance_km":17.96}]}