{"ville":{"id":27733,"code_insee":"62455","nom_standard":"Hocquinghen","nom_a":null,"nom_de":null,"slug_ville":"hocquinghen","departement_id":0,"code_postal":"62850","population":118,"superficie_km2":"196.68","latitude_centre":"50.7658","longitude_centre":"1.9328","dep_code":"62","dep_nom":"Pas-de-Calais","dep_slug":"pas-de-calais","reg_code":"32","reg_nom":"Hauts-de-France","reg_slug":"hauts-de-france"},"departement":{"code":"62","nom":"Pas-de-Calais","slug":"pas-de-calais"},"region":{"code":"32","nom":"Hauts-de-France","slug":"hauts-de-france"},"villes_proches":[{"id":0,"code_insee":"62692","nom_standard":"Rebergues","nom_a":null,"nom_de":null,"slug_ville":"rebergues","departement_id":0,"code_postal":"62850","population":403,"superficie_km2":"479.86","latitude_centre":"50.7526","longitude_centre":"1.9527","distance_km":2.03},{"id":0,"code_insee":"62803","nom_standard":"Surques","nom_a":null,"nom_de":null,"slug_ville":"surques","departement_id":0,"code_postal":"62850","population":624,"superficie_km2":"691.36","latitude_centre":"50.7444","longitude_centre":"1.9226","distance_km":2.49},{"id":27716,"code_insee":"62432","nom_standard":"Herbinghen","nom_a":null,"nom_de":null,"slug_ville":"herbinghen","departement_id":0,"code_postal":"62850","population":415,"superficie_km2":"436.43","latitude_centre":"50.7629","longitude_centre":"1.8973","distance_km":2.52},{"id":27466,"code_insee":"62076","nom_standard":"Bainghen","nom_a":null,"nom_de":null,"slug_ville":"bainghen","departement_id":0,"code_postal":"62850","population":208,"superficie_km2":"680.71","latitude_centre":"50.7518","longitude_centre":"1.9021","distance_km":2.66},{"id":0,"code_insee":"62775","nom_standard":"Sanghen","nom_a":null,"nom_de":null,"slug_ville":"sanghen","departement_id":0,"code_postal":"62850","population":315,"superficie_km2":"621.58","latitude_centre":"50.7722","longitude_centre":"1.892","distance_km":2.96},{"id":0,"code_insee":"62506","nom_standard":"Licques","nom_a":null,"nom_de":null,"slug_ville":"licques","departement_id":0,"code_postal":"62850","population":1679,"superficie_km2":"1845.83","latitude_centre":"50.7962","longitude_centre":"1.9296","distance_km":3.39},{"id":27451,"code_insee":"62055","nom_standard":"Audrehem","nom_a":null,"nom_de":null,"slug_ville":"audrehem","departement_id":0,"code_postal":"62890","population":521,"superficie_km2":"926.61","latitude_centre":"50.7713","longitude_centre":"1.983","distance_km":3.58},{"id":27707,"code_insee":"62419","nom_standard":"Haut-Loquin","nom_a":null,"nom_de":null,"slug_ville":"haut-loquin","departement_id":0,"code_postal":"62850","population":189,"superficie_km2":"544.44","latitude_centre":"50.7379","longitude_centre":"1.9649","distance_km":3.84},{"id":27629,"code_insee":"62308","nom_standard":"Escœuilles","nom_a":null,"nom_de":null,"slug_ville":"escoeuilles","departement_id":0,"code_postal":"62850","population":461,"superficie_km2":"589.04","latitude_centre":"50.7257","longitude_centre":"1.9376","distance_km":4.47},{"id":27433,"code_insee":"62020","nom_standard":"Alembon","nom_a":null,"nom_de":null,"slug_ville":"alembon","departement_id":0,"code_postal":"62850","population":624,"superficie_km2":"922.67","latitude_centre":"50.7805","longitude_centre":"1.8719","distance_km":4.58},{"id":27578,"code_insee":"62228","nom_standard":"Clerques","nom_a":null,"nom_de":null,"slug_ville":"clerques","departement_id":0,"code_postal":"62890","population":312,"superficie_km2":"640.62","latitude_centre":"50.7909","longitude_centre":"1.9858","distance_km":4.66},{"id":0,"code_insee":"62478","nom_standard":"Journy","nom_a":null,"nom_de":null,"slug_ville":"journy","departement_id":0,"code_postal":"62850","population":310,"superficie_km2":"337.35","latitude_centre":"50.7544","longitude_centre":"2.0027","distance_km":5.08},{"id":0,"code_insee":"62526","nom_standard":"Longueville","nom_a":null,"nom_de":null,"slug_ville":"longueville","departement_id":0,"code_postal":"62142","population":149,"superficie_km2":"353.30","latitude_centre":"50.7281","longitude_centre":"1.8811","distance_km":5.55},{"id":0,"code_insee":"62599","nom_standard":"Nabringhen","nom_a":null,"nom_de":null,"slug_ville":"nabringhen","departement_id":0,"code_postal":"62142","population":225,"superficie_km2":"416.74","latitude_centre":"50.7428","longitude_centre":"1.8612","distance_km":5.65},{"id":27436,"code_insee":"62024","nom_standard":"Alquines","nom_a":null,"nom_de":null,"slug_ville":"alquines","departement_id":0,"code_postal":"62850","population":973,"superficie_km2":"1054.11","latitude_centre":"50.7343","longitude_centre":"1.9964","distance_km":5.68},{"id":0,"code_insee":"62488","nom_standard":"Landrethun-lès-Ardres","nom_a":null,"nom_de":null,"slug_ville":"landrethun-les-ardres","departement_id":0,"code_postal":"62610","population":787,"superficie_km2":"578.38","latitude_centre":"50.8137","longitude_centre":"1.9636","distance_km":5.75},{"id":27533,"code_insee":"62161","nom_standard":"Bouquehault","nom_a":null,"nom_de":null,"slug_ville":"bouquehault","departement_id":0,"code_postal":"62340","population":788,"superficie_km2":"810.08","latitude_centre":"50.8148","longitude_centre":"1.9005","distance_km":5.9},{"id":27546,"code_insee":"62179","nom_standard":"Brunembert","nom_a":null,"nom_de":null,"slug_ville":"brunembert","departement_id":0,"code_postal":"62240","population":387,"superficie_km2":"619.31","latitude_centre":"50.7165","longitude_centre":"1.8856","distance_km":6.41},{"id":0,"code_insee":"62678","nom_standard":"Quesques","nom_a":null,"nom_de":null,"slug_ville":"quesques","departement_id":0,"code_postal":"62240","population":720,"superficie_km2":"1397.44","latitude_centre":"50.7022","longitude_centre":"1.9433","distance_km":7.11},{"id":0,"code_insee":"62716","nom_standard":"Rodelinghem","nom_a":null,"nom_de":null,"slug_ville":"rodelinghem","departement_id":0,"code_postal":"62610","population":558,"superficie_km2":"437.03","latitude_centre":"50.8329","longitude_centre":"1.9304","distance_km":7.46}]}