{"ville":{"id":26815,"code_insee":"60316","nom_standard":"Hodenc-l'Évêque","nom_a":null,"nom_de":null,"slug_ville":"hodenc-l-eveque","departement_id":0,"code_postal":"60430","population":238,"superficie_km2":"347.00","latitude_centre":"49.336","longitude_centre":"2.1402","dep_code":"60","dep_nom":"Oise","dep_slug":"oise","reg_code":"32","reg_nom":"Hauts-de-France","reg_slug":"hauts-de-france"},"departement":{"code":"60","nom":"Oise","slug":"oise"},"region":{"code":"32","nom":"Hauts-de-France","slug":"hauts-de-france"},"villes_proches":[{"id":0,"code_insee":"60598","nom_standard":"Saint-Sulpice","nom_a":null,"nom_de":null,"slug_ville":"saint-sulpice","departement_id":0,"code_postal":"60430","population":1079,"superficie_km2":"890.14","latitude_centre":"49.3521","longitude_centre":"2.1247","distance_km":2.11},{"id":0,"code_insee":"60620","nom_standard":"Silly-Tillard","nom_a":null,"nom_de":null,"slug_ville":"silly-tillard","departement_id":0,"code_postal":"60430","population":450,"superficie_km2":"1121.59","latitude_centre":"49.3156","longitude_centre":"2.153","distance_km":2.45},{"id":26577,"code_insee":"60002","nom_standard":"Abbecourt","nom_a":null,"nom_de":null,"slug_ville":"abbecourt","departement_id":0,"code_postal":"60430","population":879,"superficie_km2":"746.05","latitude_centre":"49.3597","longitude_centre":"2.1561","distance_km":2.88},{"id":26690,"code_insee":"60165","nom_standard":"Le Coudray-sur-Thelle","nom_a":null,"nom_de":null,"slug_ville":"le-coudray-sur-thelle","departement_id":0,"code_postal":"60430","population":554,"superficie_km2":"377.85","latitude_centre":"49.3103","longitude_centre":"2.1239","distance_km":3.09},{"id":0,"code_insee":"60504","nom_standard":"Ponchon","nom_a":null,"nom_de":null,"slug_ville":"ponchon","departement_id":0,"code_postal":"60430","population":1163,"superficie_km2":"982.74","latitude_centre":"49.3484","longitude_centre":"2.1872","distance_km":3.67},{"id":26594,"code_insee":"60030","nom_standard":"Auteuil","nom_a":null,"nom_de":null,"slug_ville":"auteuil","departement_id":0,"code_postal":"60390","population":554,"superficie_km2":"1212.81","latitude_centre":"49.3458","longitude_centre":"2.0914","distance_km":3.7},{"id":0,"code_insee":"60462","nom_standard":"Noailles","nom_a":null,"nom_de":null,"slug_ville":"noailles","departement_id":0,"code_postal":"60430","population":2877,"superficie_km2":"1009.47","latitude_centre":"49.3219","longitude_centre":"2.1924","distance_km":4.09},{"id":0,"code_insee":"60196","nom_standard":"La Drenne","nom_a":null,"nom_de":null,"slug_ville":"la-drenne","departement_id":0,"code_postal":"60790","population":1080,"superficie_km2":"1397.26","latitude_centre":"49.303","longitude_centre":"2.0989","distance_km":4.74},{"id":0,"code_insee":"60330","nom_standard":"Laboissière-en-Thelle","nom_a":null,"nom_de":null,"slug_ville":"laboissiere-en-thelle","departement_id":0,"code_postal":"60570","population":1326,"superficie_km2":"967.80","latitude_centre":"49.2869","longitude_centre":"2.1511","distance_km":5.52},{"id":0,"code_insee":"60700","nom_standard":"Warluis","nom_a":null,"nom_de":null,"slug_ville":"warluis","departement_id":0,"code_postal":"60430","population":1218,"superficie_km2":"1149.10","latitude_centre":"49.3872","longitude_centre":"2.1584","distance_km":5.84},{"id":0,"code_insee":"60065","nom_standard":"Berthecourt","nom_a":null,"nom_de":null,"slug_ville":"berthecourt","departement_id":0,"code_postal":"60370","population":1564,"superficie_km2":"703.98","latitude_centre":"49.3433","longitude_centre":"2.2234","distance_km":6.08},{"id":0,"code_insee":"60685","nom_standard":"Villers-Saint-Sépulcre","nom_a":null,"nom_de":null,"slug_ville":"villers-saint-sepulcre","departement_id":0,"code_postal":"60134","population":951,"superficie_km2":"734.43","latitude_centre":"49.37","longitude_centre":"2.21","distance_km":6.31},{"id":0,"code_insee":"60426","nom_standard":"Montreuil-sur-Thérain","nom_a":null,"nom_de":null,"slug_ville":"montreuil-sur-therain","departement_id":0,"code_postal":"60134","population":239,"superficie_km2":"148.78","latitude_centre":"49.381","longitude_centre":"2.1945","distance_km":6.36},{"id":26771,"code_insee":"60264","nom_standard":"Frocourt","nom_a":null,"nom_de":null,"slug_ville":"frocourt","departement_id":0,"code_postal":"60000","population":528,"superficie_km2":"645.90","latitude_centre":"49.3796","longitude_centre":"2.0827","distance_km":6.39},{"id":0,"code_insee":"60009","nom_standard":"Allonne","nom_a":null,"nom_de":null,"slug_ville":"allonne","departement_id":0,"code_postal":"60000","population":1767,"superficie_km2":"1536.77","latitude_centre":"49.3952","longitude_centre":"2.1157","distance_km":6.82},{"id":26687,"code_insee":"60162","nom_standard":"Corbeil-Cerf","nom_a":null,"nom_de":null,"slug_ville":"corbeil-cerf","departement_id":0,"code_postal":"60110","population":357,"superficie_km2":"394.23","latitude_centre":"49.2767","longitude_centre":"2.1118","distance_km":6.91},{"id":0,"code_insee":"60575","nom_standard":"Sainte-Geneviève","nom_a":null,"nom_de":null,"slug_ville":"sainte-genevieve","departement_id":0,"code_postal":"60730","population":3505,"superficie_km2":"799.11","latitude_centre":"49.2871","longitude_centre":"2.2008","distance_km":6.99},{"id":0,"code_insee":"60433","nom_standard":"Mortefontaine-en-Thelle","nom_a":null,"nom_de":null,"slug_ville":"mortefontaine-en-thelle","departement_id":0,"code_postal":"60570","population":958,"superficie_km2":"601.68","latitude_centre":"49.2677","longitude_centre":"2.19","distance_km":8.41},{"id":0,"code_insee":"60542","nom_standard":"Rochy-Condé","nom_a":null,"nom_de":null,"slug_ville":"rochy-conde","departement_id":0,"code_postal":"60510","population":995,"superficie_km2":"640.78","latitude_centre":"49.4063","longitude_centre":"2.191","distance_km":8.64},{"id":0,"code_insee":"60012","nom_standard":"Andeville","nom_a":null,"nom_de":null,"slug_ville":"andeville","departement_id":0,"code_postal":"60570","population":3434,"superficie_km2":"420.99","latitude_centre":"49.2584","longitude_centre":"2.1669","distance_km":8.84}]}