{"ville":{"id":27734,"code_insee":"62456","nom_standard":"Houchin","nom_a":null,"nom_de":null,"slug_ville":"houchin","departement_id":0,"code_postal":"62620","population":738,"superficie_km2":"448.92","latitude_centre":"50.4798","longitude_centre":"2.6192","dep_code":"62","dep_nom":"Pas-de-Calais","dep_slug":"pas-de-calais","reg_code":"32","reg_nom":"Hauts-de-France","reg_slug":"hauts-de-france"},"departement":{"code":"62","nom":"Pas-de-Calais","slug":"pas-de-calais"},"region":{"code":"32","nom":"Hauts-de-France","slug":"hauts-de-france"},"villes_proches":[{"id":27609,"code_insee":"62278","nom_standard":"Drouvin-le-Marais","nom_a":null,"nom_de":null,"slug_ville":"drouvin-le-marais","departement_id":0,"code_postal":"62131","population":622,"superficie_km2":"211.44","latitude_centre":"50.49","longitude_centre":"2.6335","distance_km":1.52},{"id":0,"code_insee":"62836","nom_standard":"Vaudricourt","nom_a":null,"nom_de":null,"slug_ville":"vaudricourt","departement_id":0,"code_postal":"62131","population":1138,"superficie_km2":"298.24","latitude_centre":"50.5003","longitude_centre":"2.6191","distance_km":2.28},{"id":27727,"code_insee":"62445","nom_standard":"Hesdigneul-lès-Béthune","nom_a":null,"nom_de":null,"slug_ville":"hesdigneul-les-bethune","departement_id":0,"code_postal":"62196","population":828,"superficie_km2":"260.23","latitude_centre":"50.4962","longitude_centre":"2.5975","distance_km":2.38},{"id":0,"code_insee":"62727","nom_standard":"Ruitz","nom_a":null,"nom_de":null,"slug_ville":"ruitz","departement_id":0,"code_postal":"62620","population":1478,"superficie_km2":"487.97","latitude_centre":"50.4672","longitude_centre":"2.586","distance_km":2.74},{"id":0,"code_insee":"62083","nom_standard":"Barlin","nom_a":null,"nom_de":null,"slug_ville":"barlin","departement_id":0,"code_postal":"62620","population":7331,"superficie_km2":"629.10","latitude_centre":"50.4551","longitude_centre":"2.6148","distance_km":2.76},{"id":0,"code_insee":"62400","nom_standard":"Haillicourt","nom_a":null,"nom_de":null,"slug_ville":"haillicourt","departement_id":0,"code_postal":"62940","population":5064,"superficie_km2":"446.47","latitude_centre":"50.4747","longitude_centre":"2.5796","distance_km":2.86},{"id":0,"code_insee":"62848","nom_standard":"Verquin","nom_a":null,"nom_de":null,"slug_ville":"verquin","departement_id":0,"code_postal":"62131","population":3445,"superficie_km2":"367.45","latitude_centre":"50.5013","longitude_centre":"2.6419","distance_km":2.88},{"id":0,"code_insee":"62617","nom_standard":"Nœux-les-Mines","nom_a":null,"nom_de":null,"slug_ville":"noeux-les-mines","departement_id":0,"code_postal":"62290","population":11590,"superficie_km2":"884.80","latitude_centre":"50.4757","longitude_centre":"2.6645","distance_km":3.24},{"id":0,"code_insee":"62350","nom_standard":"Fouquières-lès-Béthune","nom_a":null,"nom_de":null,"slug_ville":"fouquieres-les-bethune","departement_id":0,"code_postal":"62232","population":1108,"superficie_km2":"241.65","latitude_centre":"50.5126","longitude_centre":"2.6127","distance_km":3.68},{"id":27679,"code_insee":"62377","nom_standard":"Gosnay","nom_a":null,"nom_de":null,"slug_ville":"gosnay","departement_id":0,"code_postal":"62199","population":941,"superficie_km2":"223.00","latitude_centre":"50.5088","longitude_centre":"2.5867","distance_km":3.96},{"id":0,"code_insee":"62847","nom_standard":"Verquigneul","nom_a":null,"nom_de":null,"slug_ville":"verquigneul","departement_id":0,"code_postal":"62113","population":1978,"superficie_km2":"358.84","latitude_centre":"50.5029","longitude_centre":"2.6627","distance_km":4.01},{"id":0,"code_insee":"62443","nom_standard":"Hersin-Coupigny","nom_a":null,"nom_de":null,"slug_ville":"hersin-coupigny","departement_id":0,"code_postal":"62530","population":6082,"superficie_km2":"1263.94","latitude_centre":"50.4449","longitude_centre":"2.6433","distance_km":4.24},{"id":0,"code_insee":"62540","nom_standard":"Maisnil-lès-Ruitz","nom_a":null,"nom_de":null,"slug_ville":"maisnil-les-ruitz","departement_id":0,"code_postal":"62620","population":1678,"superficie_km2":"555.00","latitude_centre":"50.4471","longitude_centre":"2.5784","distance_km":4.64},{"id":0,"code_insee":"62349","nom_standard":"Fouquereuil","nom_a":null,"nom_de":null,"slug_ville":"fouquereuil","departement_id":0,"code_postal":"62232","population":1632,"superficie_km2":"199.24","latitude_centre":"50.5212","longitude_centre":"2.6021","distance_km":4.76},{"id":0,"code_insee":"62480","nom_standard":"Labourse","nom_a":null,"nom_de":null,"slug_ville":"labourse","departement_id":0,"code_postal":"62113","population":2858,"superficie_km2":"464.93","latitude_centre":"50.4934","longitude_centre":"2.6851","distance_km":4.9},{"id":0,"code_insee":"62119","nom_standard":"Béthune","nom_a":null,"nom_de":null,"slug_ville":"bethune","departement_id":0,"code_postal":"62400","population":25224,"superficie_km2":"945.65","latitude_centre":"50.5299","longitude_centre":"2.6438","distance_km":5.84},{"id":0,"code_insee":"62479","nom_standard":"Labeuvrière","nom_a":null,"nom_de":null,"slug_ville":"labeuvriere","departement_id":0,"code_postal":"62122","population":1648,"superficie_km2":"593.98","latitude_centre":"50.5228","longitude_centre":"2.5688","distance_km":5.96},{"id":27664,"code_insee":"62356","nom_standard":"Fresnicourt-le-Dolmen","nom_a":null,"nom_de":null,"slug_ville":"fresnicourt-le-dolmen","departement_id":0,"code_postal":"62150","population":791,"superficie_km2":"803.27","latitude_centre":"50.4255","longitude_centre":"2.6029","distance_km":6.15},{"id":0,"code_insee":"62035","nom_standard":"Annezin","nom_a":null,"nom_de":null,"slug_ville":"annezin","departement_id":0,"code_postal":"62232","population":5825,"superficie_km2":"604.03","latitude_centre":"50.5422","longitude_centre":"2.6166","distance_km":6.94},{"id":0,"code_insee":"62841","nom_standard":"Vendin-lès-Béthune","nom_a":null,"nom_de":null,"slug_ville":"vendin-les-bethune","departement_id":0,"code_postal":"62232","population":2374,"superficie_km2":"364.71","latitude_centre":"50.5473","longitude_centre":"2.6062","distance_km":7.56}]}