{"ville":{"id":29063,"code_insee":"65225","nom_standard":"Hourc","nom_a":null,"nom_de":null,"slug_ville":"hourc","departement_id":0,"code_postal":"65350","population":109,"superficie_km2":"201.09","latitude_centre":"43.251","longitude_centre":"0.1724","dep_code":"65","dep_nom":"Hautes-Pyrénées","dep_slug":"hautes-pyrenees","reg_code":"76","reg_nom":"Occitanie","reg_slug":"occitanie"},"departement":{"code":"65","nom":"Hautes-Pyrénées","slug":"hautes-pyrenees"},"region":{"code":"76","nom":"Occitanie","slug":"occitanie"},"villes_proches":[{"id":0,"code_insee":"65436","nom_standard":"Souyeaux","nom_a":null,"nom_de":null,"slug_ville":"souyeaux","departement_id":0,"code_postal":"65350","population":296,"superficie_km2":"615.32","latitude_centre":"43.2412","longitude_centre":"0.164","distance_km":1.28},{"id":0,"code_insee":"65369","nom_standard":"Pouyastruc","nom_a":null,"nom_de":null,"slug_ville":"pouyastruc","departement_id":0,"code_postal":"65350","population":664,"superficie_km2":"1183.97","latitude_centre":"43.2693","longitude_centre":"0.1715","distance_km":2.04},{"id":0,"code_insee":"65276","nom_standard":"Lizos","nom_a":null,"nom_de":null,"slug_ville":"lizos","departement_id":0,"code_postal":"65350","population":109,"superficie_km2":"174.57","latitude_centre":"43.2589","longitude_centre":"0.1447","distance_km":2.41},{"id":0,"code_insee":"65265","nom_standard":"Laslades","nom_a":null,"nom_de":null,"slug_ville":"laslades","departement_id":0,"code_postal":"65350","population":357,"superficie_km2":"528.85","latitude_centre":"43.2293","longitude_centre":"0.1687","distance_km":2.43},{"id":28994,"code_insee":"65153","nom_standard":"Coussan","nom_a":null,"nom_de":null,"slug_ville":"coussan","departement_id":0,"code_postal":"65350","population":104,"superficie_km2":"318.37","latitude_centre":"43.2442","longitude_centre":"0.2055","distance_km":2.79},{"id":28949,"code_insee":"65104","nom_standard":"Boulin","nom_a":null,"nom_de":null,"slug_ville":"boulin","departement_id":0,"code_postal":"65350","population":311,"superficie_km2":"251.69","latitude_centre":"43.2543","longitude_centre":"0.1351","distance_km":3.04},{"id":0,"code_insee":"65259","nom_standard":"Lansac","nom_a":null,"nom_de":null,"slug_ville":"lansac","departement_id":0,"code_postal":"65350","population":185,"superficie_km2":"391.88","latitude_centre":"43.2217","longitude_centre":"0.1734","distance_km":3.26},{"id":0,"code_insee":"65298","nom_standard":"Marquerie","nom_a":null,"nom_de":null,"slug_ville":"marquerie","departement_id":0,"code_postal":"65350","population":82,"superficie_km2":"353.37","latitude_centre":"43.26","longitude_centre":"0.2107","distance_km":3.26},{"id":0,"code_insee":"65332","nom_standard":"Oléac-Debat","nom_a":null,"nom_de":null,"slug_ville":"oleac-debat","departement_id":0,"code_postal":"65350","population":189,"superficie_km2":"197.69","latitude_centre":"43.2721","longitude_centre":"0.1411","distance_km":3.45},{"id":29043,"code_insee":"65204","nom_standard":"Gonez","nom_a":null,"nom_de":null,"slug_ville":"gonez","departement_id":0,"code_postal":"65350","population":26,"superficie_km2":"112.52","latitude_centre":"43.2329","longitude_centre":"0.2109","distance_km":3.71},{"id":0,"code_insee":"65410","nom_standard":"Sarrouilles","nom_a":null,"nom_de":null,"slug_ville":"sarrouilles","departement_id":0,"code_postal":"65600","population":551,"superficie_km2":"435.92","latitude_centre":"43.2316","longitude_centre":"0.1314","distance_km":3.96},{"id":28973,"code_insee":"65131","nom_standard":"Castelvieilh","nom_a":null,"nom_de":null,"slug_ville":"castelvieilh","departement_id":0,"code_postal":"65350","population":249,"superficie_km2":"533.75","latitude_centre":"43.2795","longitude_centre":"0.2023","distance_km":3.99},{"id":28993,"code_insee":"65151","nom_standard":"Collongues","nom_a":null,"nom_de":null,"slug_ville":"collongues","departement_id":0,"code_postal":"65350","population":153,"superficie_km2":"217.63","latitude_centre":"43.289","longitude_centre":"0.1681","distance_km":4.24},{"id":0,"code_insee":"65270","nom_standard":"Lespouey","nom_a":null,"nom_de":null,"slug_ville":"lespouey","departement_id":0,"code_postal":"65190","population":210,"superficie_km2":"298.41","latitude_centre":"43.2123","longitude_centre":"0.1713","distance_km":4.3},{"id":0,"code_insee":"65380","nom_standard":"Sabalos","nom_a":null,"nom_de":null,"slug_ville":"sabalos","departement_id":0,"code_postal":"65350","population":148,"superficie_km2":"219.31","latitude_centre":"43.2841","longitude_centre":"0.1448","distance_km":4.31},{"id":0,"code_insee":"65426","nom_standard":"Sinzos","nom_a":null,"nom_de":null,"slug_ville":"sinzos","departement_id":0,"code_postal":"65190","population":141,"superficie_km2":"419.04","latitude_centre":"43.2209","longitude_centre":"0.2115","distance_km":4.61},{"id":28965,"code_insee":"65120","nom_standard":"Calavanté","nom_a":null,"nom_de":null,"slug_ville":"calavante","departement_id":0,"code_postal":"65190","population":329,"superficie_km2":"210.26","latitude_centre":"43.2041","longitude_centre":"0.1661","distance_km":5.24},{"id":0,"code_insee":"65285","nom_standard":"Louit","nom_a":null,"nom_de":null,"slug_ville":"louit","departement_id":0,"code_postal":"65350","population":194,"superficie_km2":"498.04","latitude_centre":"43.3003","longitude_centre":"0.1622","distance_km":5.54},{"id":0,"code_insee":"65272","nom_standard":"Lhez","nom_a":null,"nom_de":null,"slug_ville":"lhez","departement_id":0,"code_postal":"65190","population":76,"superficie_km2":"87.10","latitude_centre":"43.2025","longitude_centre":"0.1962","distance_km":5.73},{"id":28864,"code_insee":"65010","nom_standard":"Angos","nom_a":null,"nom_de":null,"slug_ville":"angos","departement_id":0,"code_postal":"65690","population":230,"superficie_km2":"299.97","latitude_centre":"43.199","longitude_centre":"0.1661","distance_km":5.8}]}