{"ville":{"id":33070,"code_insee":"80446","nom_standard":"Huppy","nom_a":null,"nom_de":null,"slug_ville":"huppy","departement_id":0,"code_postal":"80140","population":749,"superficie_km2":"1080.13","latitude_centre":"50.0257","longitude_centre":"1.7636","dep_code":"80","dep_nom":"Somme","dep_slug":"somme","reg_code":"32","reg_nom":"Hauts-de-France","reg_slug":"hauts-de-france"},"departement":{"code":"80","nom":"Somme","slug":"somme"},"region":{"code":"32","nom":"Hauts-de-France","slug":"hauts-de-france"},"villes_proches":[{"id":32758,"code_insee":"80076","nom_standard":"Béhen","nom_a":null,"nom_de":null,"slug_ville":"behen","departement_id":0,"code_postal":"80870","population":500,"superficie_km2":"982.84","latitude_centre":"50.0494","longitude_centre":"1.7636","distance_km":2.64},{"id":32911,"code_insee":"80251","nom_standard":"Doudelainville","nom_a":null,"nom_de":null,"slug_ville":"doudelainville","departement_id":0,"code_postal":"80140","population":363,"superficie_km2":"500.34","latitude_centre":"49.9999","longitude_centre":"1.766","distance_km":2.87},{"id":33023,"code_insee":"80388","nom_standard":"Grébault-Mesnil","nom_a":null,"nom_de":null,"slug_ville":"grebault-mesnil","departement_id":0,"code_postal":"80140","population":204,"superficie_km2":"259.90","latitude_centre":"50.0237","longitude_centre":"1.7215","distance_km":3.02},{"id":0,"code_insee":"80482","nom_standard":"Limeux","nom_a":null,"nom_de":null,"slug_ville":"limeux","departement_id":0,"code_postal":"80490","population":142,"superficie_km2":"862.03","latitude_centre":"50.0171","longitude_centre":"1.8086","distance_km":3.35},{"id":32931,"code_insee":"80280","nom_standard":"Ercourt","nom_a":null,"nom_de":null,"slug_ville":"ercourt","departement_id":0,"code_postal":"80210","population":132,"superficie_km2":"420.79","latitude_centre":"50.0413","longitude_centre":"1.7231","distance_km":3.37},{"id":33068,"code_insee":"80444","nom_standard":"Huchenneville","nom_a":null,"nom_de":null,"slug_ville":"huchenneville","departement_id":0,"code_postal":"80132","population":679,"superficie_km2":"1150.71","latitude_centre":"50.0498","longitude_centre":"1.8025","distance_km":3.86},{"id":0,"code_insee":"80710","nom_standard":"Saint-Maxent","nom_a":null,"nom_de":null,"slug_ville":"saint-maxent","departement_id":0,"code_postal":"80140","population":390,"superficie_km2":"638.88","latitude_centre":"49.9967","longitude_centre":"1.7318","distance_km":3.94},{"id":0,"code_insee":"80783","nom_standard":"Vaux-Marquenneville","nom_a":null,"nom_de":null,"slug_ville":"vaux-marquenneville","departement_id":0,"code_postal":"80140","population":79,"superficie_km2":"399.28","latitude_centre":"49.9893","longitude_centre":"1.7837","distance_km":4.29},{"id":33009,"code_insee":"80372","nom_standard":"Frucourt","nom_a":null,"nom_de":null,"slug_ville":"frucourt","departement_id":0,"code_postal":"80490","population":121,"superficie_km2":"519.86","latitude_centre":"49.9988","longitude_centre":"1.8125","distance_km":4.6},{"id":32995,"code_insee":"80354","nom_standard":"Fresnes-Tilloloy","nom_a":null,"nom_de":null,"slug_ville":"fresnes-tilloloy","departement_id":0,"code_postal":"80140","population":211,"superficie_km2":"353.15","latitude_centre":"49.9821","longitude_centre":"1.7597","distance_km":4.86},{"id":0,"code_insee":"80518","nom_standard":"Martainneville","nom_a":null,"nom_de":null,"slug_ville":"martainneville","departement_id":0,"code_postal":"80140","population":410,"superficie_km2":"748.01","latitude_centre":"49.9987","longitude_centre":"1.7075","distance_km":5.01},{"id":0,"code_insee":"80764","nom_standard":"Tœufles","nom_a":null,"nom_de":null,"slug_ville":"toeufles","departement_id":0,"code_postal":"80870","population":308,"superficie_km2":"885.98","latitude_centre":"50.0612","longitude_centre":"1.7142","distance_km":5.29},{"id":0,"code_insee":"80578","nom_standard":"Moyenneville","nom_a":null,"nom_de":null,"slug_ville":"moyenneville","departement_id":0,"code_postal":"80870","population":693,"superficie_km2":"1410.75","latitude_centre":"50.0764","longitude_centre":"1.7521","distance_km":5.7},{"id":32853,"code_insee":"80183","nom_standard":"Cerisy-Buleux","nom_a":null,"nom_de":null,"slug_ville":"cerisy-buleux","departement_id":0,"code_postal":"80140","population":278,"superficie_km2":"560.65","latitude_centre":"49.9733","longitude_centre":"1.7367","distance_km":6.14},{"id":32864,"code_insee":"80196","nom_standard":"Citerne","nom_a":null,"nom_de":null,"slug_ville":"citerne","departement_id":0,"code_postal":"80490","population":240,"superficie_km2":"644.86","latitude_centre":"49.9788","longitude_centre":"1.8153","distance_km":6.39},{"id":0,"code_insee":"80591","nom_standard":"Neuville-au-Bois","nom_a":null,"nom_de":null,"slug_ville":"neuville-au-bois","departement_id":0,"code_postal":"80140","population":144,"superficie_km2":"294.71","latitude_centre":"49.9681","longitude_centre":"1.7853","distance_km":6.59},{"id":0,"code_insee":"80836","nom_standard":"Yonval","nom_a":null,"nom_de":null,"slug_ville":"yonval","departement_id":0,"code_postal":"80132","population":243,"superficie_km2":"398.73","latitude_centre":"50.0902","longitude_centre":"1.7855","distance_km":7.34},{"id":0,"code_insee":"80662","nom_standard":"Ramburelles","nom_a":null,"nom_de":null,"slug_ville":"ramburelles","departement_id":0,"code_postal":"80140","population":262,"superficie_km2":"460.98","latitude_centre":"49.9682","longitude_centre":"1.7095","distance_km":7.47},{"id":32973,"code_insee":"80330","nom_standard":"Forceville-en-Vimeu","nom_a":null,"nom_de":null,"slug_ville":"forceville-en-vimeu","departement_id":0,"code_postal":"80140","population":226,"superficie_km2":"298.25","latitude_centre":"49.962","longitude_centre":"1.7999","distance_km":7.54},{"id":0,"code_insee":"80606","nom_standard":"Oisemont","nom_a":null,"nom_de":null,"slug_ville":"oisemont","departement_id":0,"code_postal":"80140","population":1127,"superficie_km2":"808.98","latitude_centre":"49.955","longitude_centre":"1.7614","distance_km":7.86}]}