{"ville":{"id":29064,"code_insee":"65228","nom_standard":"Ilhet","nom_a":null,"nom_de":null,"slug_ville":"ilhet","departement_id":0,"code_postal":"65410","population":122,"superficie_km2":"801.45","latitude_centre":"42.9644","longitude_centre":"0.4035","dep_code":"65","dep_nom":"Hautes-Pyrénées","dep_slug":"hautes-pyrenees","reg_code":"76","reg_nom":"Occitanie","reg_slug":"occitanie"},"departement":{"code":"65","nom":"Hautes-Pyrénées","slug":"hautes-pyrenees"},"region":{"code":"76","nom":"Occitanie","slug":"occitanie"},"villes_proches":[{"id":0,"code_insee":"65408","nom_standard":"Sarrancolin","nom_a":null,"nom_de":null,"slug_ville":"sarrancolin","departement_id":0,"code_postal":"65410","population":546,"superficie_km2":"3243.02","latitude_centre":"42.9593","longitude_centre":"0.4043","distance_km":0.57},{"id":29021,"code_insee":"65180","nom_standard":"Fréchet-Aure","nom_a":null,"nom_de":null,"slug_ville":"frechet-aure","departement_id":0,"code_postal":"65240","population":16,"superficie_km2":"340.32","latitude_centre":"42.9296","longitude_centre":"0.3836","distance_km":4.19},{"id":28877,"code_insee":"65023","nom_standard":"Ardengost","nom_a":null,"nom_de":null,"slug_ville":"ardengost","departement_id":0,"code_postal":"65240","population":12,"superficie_km2":"586.55","latitude_centre":"42.9273","longitude_centre":"0.4132","distance_km":4.2},{"id":29057,"code_insee":"65218","nom_standard":"Hèches","nom_a":null,"nom_de":null,"slug_ville":"heches","departement_id":0,"code_postal":"65250","population":577,"superficie_km2":"3549.46","latitude_centre":"42.998","longitude_centre":"0.3765","distance_km":4.33},{"id":28938,"code_insee":"65092","nom_standard":"Beyrède-Jumet-Camous","nom_a":null,"nom_de":null,"slug_ville":"beyrede-jumet-camous","departement_id":0,"code_postal":"65410","population":194,"superficie_km2":"1945.34","latitude_centre":"42.9547","longitude_centre":"0.349","distance_km":4.56},{"id":0,"code_insee":"65329","nom_standard":"Nistos","nom_a":null,"nom_de":null,"slug_ville":"nistos","departement_id":0,"code_postal":"65150","population":212,"superficie_km2":"3265.78","latitude_centre":"42.9907","longitude_centre":"0.4589","distance_km":5.37},{"id":0,"code_insee":"65234","nom_standard":"Jézeau","nom_a":null,"nom_de":null,"slug_ville":"jezeau","departement_id":0,"code_postal":"65240","population":108,"superficie_km2":"1221.81","latitude_centre":"42.9098","longitude_centre":"0.4096","distance_km":6.09},{"id":0,"code_insee":"65354","nom_standard":"Pailhac","nom_a":null,"nom_de":null,"slug_ville":"pailhac","departement_id":0,"code_postal":"65240","population":85,"superficie_km2":"96.84","latitude_centre":"42.9118","longitude_centre":"0.3677","distance_km":6.53},{"id":28890,"code_insee":"65039","nom_standard":"Aspin-Aure","nom_a":null,"nom_de":null,"slug_ville":"aspin-aure","departement_id":0,"code_postal":"65240","population":43,"superficie_km2":"1219.18","latitude_centre":"42.9378","longitude_centre":"0.3303","distance_km":6.65},{"id":0,"code_insee":"65309","nom_standard":"Mazouau","nom_a":null,"nom_de":null,"slug_ville":"mazouau","departement_id":0,"code_postal":"65250","population":13,"superficie_km2":"140.39","latitude_centre":"43.0268","longitude_centre":"0.402","distance_km":6.94},{"id":29030,"code_insee":"65190","nom_standard":"Gazave","nom_a":null,"nom_de":null,"slug_ville":"gazave","departement_id":0,"code_postal":"65250","population":72,"superficie_km2":"736.51","latitude_centre":"43.0294","longitude_centre":"0.4215","distance_km":7.37},{"id":28922,"code_insee":"65076","nom_standard":"Bazus-Neste","nom_a":null,"nom_de":null,"slug_ville":"bazus-neste","departement_id":0,"code_postal":"65250","population":39,"superficie_km2":"248.87","latitude_centre":"43.0313","longitude_centre":"0.3876","distance_km":7.55},{"id":28882,"code_insee":"65031","nom_standard":"Arreau","nom_a":null,"nom_de":null,"slug_ville":"arreau","departement_id":0,"code_postal":"65240","population":725,"superficie_km2":"1109.37","latitude_centre":"42.9154","longitude_centre":"0.3337","distance_km":7.87},{"id":0,"code_insee":"65279","nom_standard":"Lortet","nom_a":null,"nom_de":null,"slug_ville":"lortet","departement_id":0,"code_postal":"65250","population":210,"superficie_km2":"359.86","latitude_centre":"43.0378","longitude_centre":"0.3768","distance_km":8.45},{"id":0,"code_insee":"65379","nom_standard":"Ris","nom_a":null,"nom_de":null,"slug_ville":"ris","departement_id":0,"code_postal":"65590","population":13,"superficie_km2":"186.29","latitude_centre":"42.8858","longitude_centre":"0.4039","distance_km":8.74},{"id":28982,"code_insee":"65140","nom_standard":"Cazaux-Debat","nom_a":null,"nom_de":null,"slug_ville":"cazaux-debat","departement_id":0,"code_postal":"65590","population":34,"superficie_km2":"159.11","latitude_centre":"42.8871","longitude_centre":"0.3819","distance_km":8.77},{"id":0,"code_insee":"65385","nom_standard":"Saint-Arroman","nom_a":null,"nom_de":null,"slug_ville":"saint-arroman","departement_id":0,"code_postal":"65250","population":98,"superficie_km2":"434.72","latitude_centre":"43.0445","longitude_centre":"0.4041","distance_km":8.91},{"id":28912,"code_insee":"65064","nom_standard":"Bareilles","nom_a":null,"nom_de":null,"slug_ville":"bareilles","departement_id":0,"code_postal":"65240","population":39,"superficie_km2":"2113.55","latitude_centre":"42.8861","longitude_centre":"0.4307","distance_km":8.98},{"id":0,"code_insee":"65239","nom_standard":"Labastide","nom_a":null,"nom_de":null,"slug_ville":"labastide","departement_id":0,"code_postal":"65130","population":147,"superficie_km2":"562.04","latitude_centre":"43.0371","longitude_centre":"0.3508","distance_km":9.15},{"id":0,"code_insee":"65255","nom_standard":"Lançon","nom_a":null,"nom_de":null,"slug_ville":"lancon","departement_id":0,"code_postal":"65240","population":34,"superficie_km2":"284.54","latitude_centre":"42.8827","longitude_centre":"0.3683","distance_km":9.53}]}