{"ville":{"id":23569,"code_insee":"51300","nom_standard":"Isle-sur-Marne","nom_a":null,"nom_de":null,"slug_ville":"isle-sur-marne","departement_id":0,"code_postal":"51290","population":96,"superficie_km2":"541.86","latitude_centre":"48.6471","longitude_centre":"4.686","dep_code":"51","dep_nom":"Marne","dep_slug":"marne","reg_code":"44","reg_nom":"Grand Est","reg_slug":"grand-est"},"departement":{"code":"51","nom":"Marne","slug":"marne"},"region":{"code":"44","nom":"Grand Est","slug":"grand-est"},"villes_proches":[{"id":0,"code_insee":"51373","nom_standard":"Moncetz-l'Abbaye","nom_a":null,"nom_de":null,"slug_ville":"moncetz-l-abbaye","departement_id":0,"code_postal":"51290","population":88,"superficie_km2":"696.20","latitude_centre":"48.6489","longitude_centre":"4.6619","distance_km":1.78},{"id":0,"code_insee":"51356","nom_standard":"Matignicourt-Goncourt","nom_a":null,"nom_de":null,"slug_ville":"matignicourt-goncourt","departement_id":0,"code_postal":"51300","population":158,"superficie_km2":"933.77","latitude_centre":"48.675","longitude_centre":"4.6764","distance_km":3.18},{"id":23453,"code_insee":"51156","nom_standard":"Cloyes-sur-Marne","nom_a":null,"nom_de":null,"slug_ville":"cloyes-sur-marne","departement_id":0,"code_postal":"51300","population":125,"superficie_km2":"628.29","latitude_centre":"48.66","longitude_centre":"4.6437","distance_km":3.42},{"id":0,"code_insee":"51316","nom_standard":"Larzicourt","nom_a":null,"nom_de":null,"slug_ville":"larzicourt","departement_id":0,"code_postal":"51290","population":269,"superficie_km2":"1683.60","latitude_centre":"48.6247","longitude_centre":"4.7351","distance_km":4.38},{"id":0,"code_insee":"51417","nom_standard":"Orconte","nom_a":null,"nom_de":null,"slug_ville":"orconte","departement_id":0,"code_postal":"51300","population":365,"superficie_km2":"1373.39","latitude_centre":"48.6701","longitude_centre":"4.738","distance_km":4.6},{"id":23336,"code_insee":"51016","nom_standard":"Arrigny","nom_a":null,"nom_de":null,"slug_ville":"arrigny","departement_id":0,"code_postal":"51290","population":227,"superficie_km2":"1607.77","latitude_centre":"48.6036","longitude_centre":"4.6936","distance_km":4.87},{"id":23505,"code_insee":"51224","nom_standard":"Écriennes","nom_a":null,"nom_de":null,"slug_ville":"ecriennes","departement_id":0,"code_postal":"51300","population":165,"superficie_km2":"636.07","latitude_centre":"48.6925","longitude_centre":"4.6854","distance_km":5.05},{"id":0,"code_insee":"51513","nom_standard":"Saint-Remy-en-Bouzemont-Saint-Genest-et-Isson","nom_a":null,"nom_de":null,"slug_ville":"saint-remy-en-bouzemont-saint-genest-et-isson","departement_id":0,"code_postal":"51290","population":470,"superficie_km2":"2196.92","latitude_centre":"48.6101","longitude_centre":"4.6426","distance_km":5.21},{"id":0,"code_insee":"51406","nom_standard":"Norrois","nom_a":null,"nom_de":null,"slug_ville":"norrois","departement_id":0,"code_postal":"51300","population":151,"superficie_km2":"415.26","latitude_centre":"48.6708","longitude_centre":"4.6247","distance_km":5.22},{"id":23504,"code_insee":"51223","nom_standard":"Écollemont","nom_a":null,"nom_de":null,"slug_ville":"ecollemont","departement_id":0,"code_postal":"51290","population":64,"superficie_km2":"281.93","latitude_centre":"48.6149","longitude_centre":"4.7405","distance_km":5.37},{"id":23337,"code_insee":"51017","nom_standard":"Arzillières-Neuville","nom_a":null,"nom_de":null,"slug_ville":"arzillieres-neuville","departement_id":0,"code_postal":"51290","population":322,"superficie_km2":"1224.71","latitude_centre":"48.6419","longitude_centre":"4.6041","distance_km":6.04},{"id":0,"code_insee":"51567","nom_standard":"Thiéblemont-Farémont","nom_a":null,"nom_de":null,"slug_ville":"thieblemont-faremont","departement_id":0,"code_postal":"51300","population":513,"superficie_km2":"919.61","latitude_centre":"48.6931","longitude_centre":"4.7316","distance_km":6.11},{"id":23557,"code_insee":"51286","nom_standard":"Hauteville","nom_a":null,"nom_de":null,"slug_ville":"hauteville","departement_id":0,"code_postal":"51290","population":230,"superficie_km2":"1084.69","latitude_centre":"48.6357","longitude_centre":"4.7703","distance_km":6.32},{"id":0,"code_insee":"51598","nom_standard":"Vauclerc","nom_a":null,"nom_de":null,"slug_ville":"vauclerc","departement_id":0,"code_postal":"51300","population":497,"superficie_km2":"613.62","latitude_centre":"48.7057","longitude_centre":"4.6758","distance_km":6.56},{"id":23369,"code_insee":"51059","nom_standard":"Bignicourt-sur-Marne","nom_a":null,"nom_de":null,"slug_ville":"bignicourt-sur-marne","departement_id":0,"code_postal":"51300","population":381,"superficie_km2":"284.08","latitude_centre":"48.6804","longitude_centre":"4.6084","distance_km":6.8},{"id":0,"code_insee":"51334","nom_standard":"Luxémont-et-Villotte","nom_a":null,"nom_de":null,"slug_ville":"luxemont-et-villotte","departement_id":0,"code_postal":"51300","population":448,"superficie_km2":"921.65","latitude_centre":"48.7018","longitude_centre":"4.6369","distance_km":7.07},{"id":23549,"code_insee":"51277","nom_standard":"Sainte-Marie-du-Lac-Nuisement","nom_a":null,"nom_de":null,"slug_ville":"sainte-marie-du-lac-nuisement","departement_id":0,"code_postal":"51290","population":277,"superficie_km2":"1753.55","latitude_centre":"48.6004","longitude_centre":"4.7656","distance_km":7.82},{"id":0,"code_insee":"51455","nom_standard":"Reims-la-Brûlée","nom_a":null,"nom_de":null,"slug_ville":"reims-la-brulee","departement_id":0,"code_postal":"51300","population":214,"superficie_km2":"648.07","latitude_centre":"48.7212","longitude_centre":"4.672","distance_km":8.3},{"id":23524,"code_insee":"51246","nom_standard":"Favresse","nom_a":null,"nom_de":null,"slug_ville":"favresse","departement_id":0,"code_postal":"51300","population":217,"superficie_km2":"1030.36","latitude_centre":"48.7196","longitude_centre":"4.7159","distance_km":8.36},{"id":0,"code_insee":"51419","nom_standard":"Outines","nom_a":null,"nom_de":null,"slug_ville":"outines","departement_id":0,"code_postal":"51290","population":130,"superficie_km2":"1544.43","latitude_centre":"48.5582","longitude_centre":"4.6647","distance_km":10.01}]}