{"ville":{"id":15462,"code_insee":"21324","nom_standard":"Jeux-lès-Bard","nom_a":null,"nom_de":null,"slug_ville":"jeux-les-bard","departement_id":0,"code_postal":"21460","population":52,"superficie_km2":"324.85","latitude_centre":"47.5302","longitude_centre":"4.2556","dep_code":"21","dep_nom":"Côte-d'Or","dep_slug":"cote-d-or","reg_code":"27","reg_nom":"Bourgogne-Franche-Comté","reg_slug":"bourgogne-franche-comte"},"departement":{"code":"21","nom":"Côte-d'Or","slug":"cote-d-or"},"region":{"code":"27","nom":"Bourgogne-Franche-Comté","slug":"bourgogne-franche-comte"},"villes_proches":[{"id":15211,"code_insee":"21047","nom_standard":"Bard-lès-Époisses","nom_a":null,"nom_de":null,"slug_ville":"bard-les-epoisses","departement_id":0,"code_postal":"21460","population":72,"superficie_km2":"358.26","latitude_centre":"47.5291","longitude_centre":"4.2252","distance_km":2.29},{"id":15434,"code_insee":"21291","nom_standard":"Genay","nom_a":null,"nom_de":null,"slug_ville":"genay","departement_id":0,"code_postal":"21140","population":370,"superficie_km2":"1383.79","latitude_centre":"47.5216","longitude_centre":"4.2868","distance_km":2.53},{"id":15194,"code_insee":"21029","nom_standard":"Athie","nom_a":null,"nom_de":null,"slug_ville":"athie","departement_id":0,"code_postal":"21500","population":82,"superficie_km2":"591.66","latitude_centre":"47.5592","longitude_centre":"4.26","distance_km":3.24},{"id":0,"code_insee":"21640","nom_standard":"Torcy-et-Pouligny","nom_a":null,"nom_de":null,"slug_ville":"torcy-et-pouligny","departement_id":0,"code_postal":"21460","population":202,"superficie_km2":"1033.39","latitude_centre":"47.498","longitude_centre":"4.2383","distance_km":3.81},{"id":15350,"code_insee":"21198","nom_standard":"Corrombles","nom_a":null,"nom_de":null,"slug_ville":"corrombles","departement_id":0,"code_postal":"21460","population":241,"superficie_km2":"1145.60","latitude_centre":"47.5192","longitude_centre":"4.2024","distance_km":4.18},{"id":0,"code_insee":"21446","nom_standard":"Moutiers-Saint-Jean","nom_a":null,"nom_de":null,"slug_ville":"moutiers-saint-jean","departement_id":0,"code_postal":"21500","population":254,"superficie_km2":"504.74","latitude_centre":"47.5629","longitude_centre":"4.227","distance_km":4.22},{"id":0,"code_insee":"21709","nom_standard":"Viserny","nom_a":null,"nom_de":null,"slug_ville":"viserny","departement_id":0,"code_postal":"21500","population":182,"superficie_km2":"681.41","latitude_centre":"47.5633","longitude_centre":"4.2836","distance_km":4.24},{"id":0,"code_insee":"21686","nom_standard":"Villaines-les-Prévôtes","nom_a":null,"nom_de":null,"slug_ville":"villaines-les-prevotes","departement_id":0,"code_postal":"21500","population":140,"superficie_km2":"1060.51","latitude_centre":"47.5572","longitude_centre":"4.3006","distance_km":4.52},{"id":15351,"code_insee":"21199","nom_standard":"Corsaint","nom_a":null,"nom_de":null,"slug_ville":"corsaint","departement_id":0,"code_postal":"21460","population":129,"superficie_km2":"2052.94","latitude_centre":"47.5515","longitude_centre":"4.2038","distance_km":4.55},{"id":0,"code_insee":"21413","nom_standard":"Millery","nom_a":null,"nom_de":null,"slug_ville":"millery","departement_id":0,"code_postal":"21140","population":410,"superficie_km2":"2092.81","latitude_centre":"47.5155","longitude_centre":"4.3124","distance_km":4.57},{"id":0,"code_insee":"21604","nom_standard":"Senailly","nom_a":null,"nom_de":null,"slug_ville":"senailly","departement_id":0,"code_postal":"21500","population":132,"superficie_km2":"946.30","latitude_centre":"47.5828","longitude_centre":"4.2662","distance_km":5.9},{"id":0,"code_insee":"21676","nom_standard":"Vic-de-Chassenay","nom_a":null,"nom_de":null,"slug_ville":"vic-de-chassenay","departement_id":0,"code_postal":"21140","population":207,"superficie_km2":"2646.49","latitude_centre":"47.4719","longitude_centre":"4.2666","distance_km":6.54},{"id":15393,"code_insee":"21247","nom_standard":"Époisses","nom_a":null,"nom_de":null,"slug_ville":"epoisses","departement_id":0,"code_postal":"21460","population":715,"superficie_km2":"2170.81","latitude_centre":"47.506","longitude_centre":"4.1762","distance_km":6.54},{"id":15406,"code_insee":"21260","nom_standard":"Fain-lès-Moutiers","nom_a":null,"nom_de":null,"slug_ville":"fain-les-moutiers","departement_id":0,"code_postal":"21500","population":152,"superficie_km2":"977.36","latitude_centre":"47.5861","longitude_centre":"4.2153","distance_km":6.91},{"id":0,"code_insee":"21603","nom_standard":"Semur-en-Auxois","nom_a":null,"nom_de":null,"slug_ville":"semur-en-auxois","departement_id":0,"code_postal":"21140","population":3986,"superficie_km2":"1916.55","latitude_centre":"47.494","longitude_centre":"4.3396","distance_km":7.48},{"id":15425,"code_insee":"21282","nom_standard":"Forléans","nom_a":null,"nom_de":null,"slug_ville":"forleans","departement_id":0,"code_postal":"21460","population":112,"superficie_km2":"714.53","latitude_centre":"47.4702","longitude_centre":"4.2051","distance_km":7.67},{"id":0,"code_insee":"21550","nom_standard":"Saint-Germain-lès-Senailly","nom_a":null,"nom_de":null,"slug_ville":"saint-germain-les-senailly","departement_id":0,"code_postal":"21500","population":111,"superficie_km2":"501.26","latitude_centre":"47.5988","longitude_centre":"4.2828","distance_km":7.9},{"id":15356,"code_insee":"21205","nom_standard":"Courcelles-lès-Semur","nom_a":null,"nom_de":null,"slug_ville":"courcelles-les-semur","departement_id":0,"code_postal":"21140","population":221,"superficie_km2":"1205.82","latitude_centre":"47.4489","longitude_centre":"4.2918","distance_km":9.44},{"id":0,"code_insee":"21518","nom_standard":"Quincy-le-Vicomte","nom_a":null,"nom_de":null,"slug_ville":"quincy-le-vicomte","departement_id":0,"code_postal":"21500","population":207,"superficie_km2":"1905.62","latitude_centre":"47.6174","longitude_centre":"4.2398","distance_km":9.77},{"id":0,"code_insee":"21516","nom_standard":"Quincerot","nom_a":null,"nom_de":null,"slug_ville":"quincerot","departement_id":0,"code_postal":"21500","population":77,"superficie_km2":"439.43","latitude_centre":"47.6193","longitude_centre":"4.2747","distance_km":10.01}]}