{"ville":{"id":8929,"code_insee":"84056","nom_standard":"Jonquières","nom_a":null,"nom_de":null,"slug_ville":"jonquieres","departement_id":685,"code_postal":"84150","population":5298,"superficie_km2":"24.00","latitude_centre":"44.1320000","longitude_centre":"4.9130001","dep_code":"84","dep_nom":"Vaucluse","dep_slug":"vaucluse","reg_code":"18","reg_nom":"Provence-Alpes-Côte d'Azur","reg_slug":"provence-alpes-cote-d-azur"},"departement":{"code":"84","nom":"Vaucluse","slug":"vaucluse"},"region":{"code":"18","nom":"Provence-Alpes-Côte d'Azur","slug":"provence-alpes-cote-d-azur"},"villes_proches":[{"id":8910,"code_insee":"84029","nom_standard":"Camaret-sur-Aigues","nom_a":null,"nom_de":null,"slug_ville":"camaret-sur-aigues","departement_id":685,"code_postal":"84850","population":4547,"superficie_km2":"18.00","latitude_centre":"44.1599999","longitude_centre":"4.8839998","distance_km":3.88},{"id":8961,"code_insee":"84122","nom_standard":"Sarrians","nom_a":null,"nom_de":null,"slug_ville":"sarrians","departement_id":685,"code_postal":"84260","population":5932,"superficie_km2":"38.00","latitude_centre":"44.0989990","longitude_centre":"4.9569998","distance_km":5.08},{"id":8969,"code_insee":"84136","nom_standard":"Vacqueyras","nom_a":null,"nom_de":null,"slug_ville":"vacqueyras","departement_id":685,"code_postal":"84190","population":1209,"superficie_km2":"9.00","latitude_centre":"44.1450005","longitude_centre":"4.9790001","distance_km":5.46},{"id":8918,"code_insee":"84039","nom_standard":"Courthézon","nom_a":null,"nom_de":null,"slug_ville":"courthezon","departement_id":685,"code_postal":"84350","population":6064,"superficie_km2":"33.00","latitude_centre":"44.0870018","longitude_centre":"4.8820000","distance_km":5.58},{"id":8977,"code_insee":"84149","nom_standard":"Violès","nom_a":null,"nom_de":null,"slug_ville":"violes","departement_id":685,"code_postal":"84150","population":1736,"superficie_km2":"15.00","latitude_centre":"44.1769981","longitude_centre":"4.9510002","distance_km":5.85},{"id":8948,"code_insee":"84087","nom_standard":"Orange","nom_a":null,"nom_de":null,"slug_ville":"orange","departement_id":685,"code_postal":"84100","population":28949,"superficie_km2":"74.00","latitude_centre":"44.1290016","longitude_centre":"4.8099999","distance_km":8.23},{"id":8963,"code_insee":"84127","nom_standard":"Sérignan-du-Comtat","nom_a":null,"nom_de":null,"slug_ville":"serignan-du-comtat","departement_id":685,"code_postal":"84830","population":2866,"superficie_km2":"20.00","latitude_centre":"44.1940002","longitude_centre":"4.8480001","distance_km":8.63},{"id":8900,"code_insee":"84012","nom_standard":"Beaumes-de-Venise","nom_a":null,"nom_de":null,"slug_ville":"beaumes-de-venise","departement_id":685,"code_postal":"84190","population":2389,"superficie_km2":"19.00","latitude_centre":"44.1230011","longitude_centre":"5.0289998","distance_km":9.31},{"id":8902,"code_insee":"84016","nom_standard":"Bédarrides","nom_a":null,"nom_de":null,"slug_ville":"bedarrides","departement_id":685,"code_postal":"84370","population":5410,"superficie_km2":"25.00","latitude_centre":"44.0480003","longitude_centre":"4.9080000","distance_km":9.35},{"id":8933,"code_insee":"84067","nom_standard":"Loriol-du-Comtat","nom_a":null,"nom_de":null,"slug_ville":"loriol-du-comtat","departement_id":685,"code_postal":"84870","population":2471,"superficie_km2":"11.00","latitude_centre":"44.0750008","longitude_centre":"5.0050001","distance_km":9.7},{"id":8955,"code_insee":"84104","nom_standard":"Sablet","nom_a":null,"nom_de":null,"slug_ville":"sablet","departement_id":685,"code_postal":"84110","population":1391,"superficie_km2":"11.00","latitude_centre":"44.1949997","longitude_centre":"5.0009999","distance_km":9.92},{"id":8897,"code_insee":"84004","nom_standard":"Aubignan","nom_a":null,"nom_de":null,"slug_ville":"aubignan","departement_id":685,"code_postal":"84810","population":5894,"superficie_km2":"16.00","latitude_centre":"44.0979996","longitude_centre":"5.0320001","distance_km":10.22},{"id":8916,"code_insee":"84037","nom_standard":"Châteauneuf-du-Pape","nom_a":null,"nom_de":null,"slug_ville":"chateauneuf-du-pape","departement_id":685,"code_postal":"84230","population":2040,"superficie_km2":"25.00","latitude_centre":"44.0600014","longitude_centre":"4.8270001","distance_km":10.55},{"id":8909,"code_insee":"84028","nom_standard":"Cairanne","nom_a":null,"nom_de":null,"slug_ville":"cairanne","departement_id":685,"code_postal":"84290","population":1104,"superficie_km2":"23.00","latitude_centre":"44.2299995","longitude_centre":"4.9330001","distance_km":11.01},{"id":8956,"code_insee":"84106","nom_standard":"Sainte-Cécile-les-Vignes","nom_a":null,"nom_de":null,"slug_ville":"sainte-cecile-les-vignes","departement_id":685,"code_postal":"84290","population":2637,"superficie_km2":"20.00","latitude_centre":"44.2360001","longitude_centre":"4.8889999","distance_km":11.72},{"id":8942,"code_insee":"84080","nom_standard":"Monteux","nom_a":null,"nom_de":null,"slug_ville":"monteux","departement_id":685,"code_postal":"84170","population":13129,"superficie_km2":"39.00","latitude_centre":"44.0340004","longitude_centre":"4.9850001","distance_km":12.32},{"id":8951,"code_insee":"84091","nom_standard":"Piolenc","nom_a":null,"nom_de":null,"slug_ville":"piolenc","departement_id":685,"code_postal":"84420","population":5536,"superficie_km2":"25.00","latitude_centre":"44.1780014","longitude_centre":"4.7659998","distance_km":12.79},{"id":8968,"code_insee":"84135","nom_standard":"Uchaux","nom_a":null,"nom_de":null,"slug_ville":"uchaux","departement_id":685,"code_postal":"84100","population":1688,"superficie_km2":"19.00","latitude_centre":"44.2159996","longitude_centre":"4.8020000","distance_km":12.87},{"id":8964,"code_insee":"84129","nom_standard":"Sorgues","nom_a":null,"nom_de":null,"slug_ville":"sorgues","departement_id":685,"code_postal":"84700","population":19117,"superficie_km2":"34.00","latitude_centre":"44.0149994","longitude_centre":"4.8670001","distance_km":13.52},{"id":8908,"code_insee":"84027","nom_standard":"Caderousse","nom_a":null,"nom_de":null,"slug_ville":"caderousse","departement_id":685,"code_postal":"84860","population":2590,"superficie_km2":"32.00","latitude_centre":"44.1100006","longitude_centre":"4.7440000","distance_km":13.71}]}