{"ville":{"id":25116,"code_insee":"55256","nom_standard":"Jonville-en-Woëvre","nom_a":null,"nom_de":null,"slug_ville":"jonville-en-woevre","departement_id":0,"code_postal":"55160","population":143,"superficie_km2":"1087.50","latitude_centre":"49.0646","longitude_centre":"5.7767","dep_code":"55","dep_nom":"Meuse","dep_slug":"meuse","reg_code":"44","reg_nom":"Grand Est","reg_slug":"grand-est"},"departement":{"code":"55","nom":"Meuse","slug":"meuse"},"region":{"code":"44","nom":"Grand Est","slug":"grand-est"},"villes_proches":[{"id":0,"code_insee":"55265","nom_standard":"Labeuville","nom_a":null,"nom_de":null,"slug_ville":"labeuville","departement_id":0,"code_postal":"55160","population":139,"superficie_km2":"958.58","latitude_centre":"49.0881","longitude_centre":"5.7728","distance_km":2.63},{"id":0,"code_insee":"55281","nom_standard":"Latour-en-Woëvre","nom_a":null,"nom_de":null,"slug_ville":"latour-en-woevre","departement_id":0,"code_postal":"55160","population":84,"superficie_km2":"677.84","latitude_centre":"49.092","longitude_centre":"5.8016","distance_km":3.55},{"id":0,"code_insee":"55583","nom_standard":"Woël","nom_a":null,"nom_de":null,"slug_ville":"woel","departement_id":0,"code_postal":"55210","population":209,"superficie_km2":"1332.74","latitude_centre":"49.0389","longitude_centre":"5.7459","distance_km":3.63},{"id":0,"code_insee":"55267","nom_standard":"Lachaussée","nom_a":null,"nom_de":null,"slug_ville":"lachaussee","departement_id":0,"code_postal":"55210","population":271,"superficie_km2":"3074.50","latitude_centre":"49.0322","longitude_centre":"5.7984","distance_km":3.93},{"id":25046,"code_insee":"55163","nom_standard":"Doncourt-aux-Templiers","nom_a":null,"nom_de":null,"slug_ville":"doncourt-aux-templiers","departement_id":0,"code_postal":"55160","population":74,"superficie_km2":"615.81","latitude_centre":"49.0601","longitude_centre":"5.7206","distance_km":4.12},{"id":24835,"code_insee":"54511","nom_standard":"Sponville","nom_a":null,"nom_de":null,"slug_ville":"sponville","departement_id":0,"code_postal":"54800","population":108,"superficie_km2":"721.91","latitude_centre":"49.0737","longitude_centre":"5.8346","distance_km":4.34},{"id":0,"code_insee":"55363","nom_standard":"Moulotte","nom_a":null,"nom_de":null,"slug_ville":"moulotte","departement_id":0,"code_postal":"55160","population":87,"superficie_km2":"548.28","latitude_centre":"49.1009","longitude_centre":"5.7505","distance_km":4.46},{"id":25098,"code_insee":"55232","nom_standard":"Harville","nom_a":null,"nom_de":null,"slug_ville":"harville","departement_id":0,"code_postal":"55160","population":112,"superficie_km2":"557.23","latitude_centre":"49.0945","longitude_centre":"5.7273","distance_km":4.9},{"id":0,"code_insee":"55457","nom_standard":"Saint-Hilaire-en-Woëvre","nom_a":null,"nom_de":null,"slug_ville":"saint-hilaire-en-woevre","departement_id":0,"code_postal":"55160","population":179,"superficie_km2":"1111.72","latitude_centre":"49.075","longitude_centre":"5.7022","distance_km":5.55},{"id":24912,"code_insee":"54599","nom_standard":"Xonville","nom_a":null,"nom_de":null,"slug_ville":"xonville","departement_id":0,"code_postal":"54800","population":108,"superficie_km2":"727.80","latitude_centre":"49.0559","longitude_centre":"5.8556","distance_km":5.83},{"id":24641,"code_insee":"54249","nom_standard":"Hannonville-Suzémont","nom_a":null,"nom_de":null,"slug_ville":"hannonville-suzemont","departement_id":0,"code_postal":"54800","population":262,"superficie_km2":"860.83","latitude_centre":"49.0995","longitude_centre":"5.8369","distance_km":5.86},{"id":24930,"code_insee":"55021","nom_standard":"Avillers-Sainte-Croix","nom_a":null,"nom_de":null,"slug_ville":"avillers-sainte-croix","departement_id":0,"code_postal":"55210","population":80,"superficie_km2":"548.09","latitude_centre":"49.0337","longitude_centre":"5.702","distance_km":6.44},{"id":24450,"code_insee":"54009","nom_standard":"Allamont","nom_a":null,"nom_de":null,"slug_ville":"allamont","departement_id":0,"code_postal":"54800","population":156,"superficie_km2":"927.41","latitude_centre":"49.1266","longitude_centre":"5.7815","distance_km":6.9},{"id":0,"code_insee":"55311","nom_standard":"Maizeray","nom_a":null,"nom_de":null,"slug_ville":"maizeray","departement_id":0,"code_postal":"55160","population":26,"superficie_km2":"387.02","latitude_centre":"49.1037","longitude_centre":"5.7009","distance_km":7.03},{"id":24636,"code_insee":"54244","nom_standard":"Hagéville","nom_a":null,"nom_de":null,"slug_ville":"hageville","departement_id":0,"code_postal":"54470","population":111,"superficie_km2":"888.89","latitude_centre":"49.0323","longitude_centre":"5.8602","distance_km":7.07},{"id":24517,"code_insee":"54093","nom_standard":"Brainville","nom_a":null,"nom_de":null,"slug_ville":"brainville","departement_id":0,"code_postal":"54800","population":167,"superficie_km2":"1002.97","latitude_centre":"49.1251","longitude_centre":"5.809","distance_km":7.13},{"id":0,"code_insee":"55565","nom_standard":"Villers-sous-Pareid","nom_a":null,"nom_de":null,"slug_ville":"villers-sous-pareid","departement_id":0,"code_postal":"55160","population":77,"superficie_km2":"615.14","latitude_centre":"49.127","longitude_centre":"5.7456","distance_km":7.3},{"id":24563,"code_insee":"54153","nom_standard":"Dampvitoux","nom_a":null,"nom_de":null,"slug_ville":"dampvitoux","departement_id":0,"code_postal":"54470","population":55,"superficie_km2":"915.28","latitude_centre":"49.0037","longitude_centre":"5.8333","distance_km":7.93},{"id":0,"code_insee":"55551","nom_standard":"Vigneulles-lès-Hattonchâtel","nom_a":null,"nom_de":null,"slug_ville":"vigneulles-les-hattonchatel","departement_id":0,"code_postal":"55210","population":1579,"superficie_km2":"6384.55","latitude_centre":"48.9863","longitude_centre":"5.7346","distance_km":9.23},{"id":24778,"code_insee":"54440","nom_standard":"Puxe","nom_a":null,"nom_de":null,"slug_ville":"puxe","departement_id":0,"code_postal":"54800","population":107,"superficie_km2":"601.13","latitude_centre":"49.1513","longitude_centre":"5.7872","distance_km":9.67}]}