{"ville":{"id":14220,"code_insee":"16171","nom_standard":"Juillac-le-Coq","nom_a":null,"nom_de":null,"slug_ville":"juillac-le-coq","departement_id":0,"code_postal":"16130","population":653,"superficie_km2":"1458.74","latitude_centre":"45.589","longitude_centre":"-0.2532","dep_code":"16","dep_nom":"Charente","dep_slug":"charente","reg_code":"75","reg_nom":"Nouvelle-Aquitaine","reg_slug":"nouvelle-aquitaine"},"departement":{"code":"16","nom":"Charente","slug":"charente"},"region":{"code":"75","nom":"Nouvelle-Aquitaine","slug":"nouvelle-aquitaine"},"villes_proches":[{"id":0,"code_insee":"16399","nom_standard":"Verrières","nom_a":null,"nom_de":null,"slug_ville":"verrieres","departement_id":0,"code_postal":"16130","population":310,"superficie_km2":"1340.63","latitude_centre":"45.5605","longitude_centre":"-0.2619","distance_km":3.24},{"id":14111,"code_insee":"16012","nom_standard":"Angeac-Champagne","nom_a":null,"nom_de":null,"slug_ville":"angeac-champagne","departement_id":0,"code_postal":"16130","population":495,"superficie_km2":"1435.85","latitude_centre":"45.6131","longitude_centre":"-0.2877","distance_km":3.79},{"id":0,"code_insee":"16366","nom_standard":"Segonzac","nom_a":null,"nom_de":null,"slug_ville":"segonzac","departement_id":0,"code_postal":"16130","population":2083,"superficie_km2":"3516.36","latitude_centre":"45.6142","longitude_centre":"-0.2124","distance_km":4.23},{"id":0,"code_insee":"16316","nom_standard":"Saint-Fort-sur-le-Né","nom_a":null,"nom_de":null,"slug_ville":"saint-fort-sur-le-ne","departement_id":0,"code_postal":"16130","population":386,"superficie_km2":"675.79","latitude_centre":"45.5817","longitude_centre":"-0.3072","distance_km":4.28},{"id":0,"code_insee":"16186","nom_standard":"Lignières-Ambleville","nom_a":null,"nom_de":null,"slug_ville":"lignieres-ambleville","departement_id":0,"code_postal":"16130","population":690,"superficie_km2":"2150.17","latitude_centre":"45.5652","longitude_centre":"-0.1963","distance_km":5.16},{"id":0,"code_insee":"17106","nom_standard":"Cierzac","nom_a":null,"nom_de":null,"slug_ville":"cierzac","departement_id":0,"code_postal":"17520","population":323,"superficie_km2":"543.14","latitude_centre":"45.561","longitude_centre":"-0.3118","distance_km":5.52},{"id":0,"code_insee":"16342","nom_standard":"Saint-Palais-du-Né","nom_a":null,"nom_de":null,"slug_ville":"saint-palais-du-ne","departement_id":0,"code_postal":"16300","population":305,"superficie_km2":"1367.00","latitude_centre":"45.542","longitude_centre":"-0.2852","distance_km":5.79},{"id":0,"code_insee":"16343","nom_standard":"Saint-Preuil","nom_a":null,"nom_de":null,"slug_ville":"saint-preuil","departement_id":0,"code_postal":"16130","population":306,"superficie_km2":"1253.97","latitude_centre":"45.6001","longitude_centre":"-0.1773","distance_km":6.03},{"id":14183,"code_insee":"16116","nom_standard":"Criteuil-la-Magdeleine","nom_a":null,"nom_de":null,"slug_ville":"criteuil-la-magdeleine","departement_id":0,"code_postal":"16300","population":405,"superficie_km2":"1522.01","latitude_centre":"45.5357","longitude_centre":"-0.215","distance_km":6.63},{"id":14207,"code_insee":"16151","nom_standard":"Genté","nom_a":null,"nom_de":null,"slug_ville":"gente","departement_id":0,"code_postal":"16130","population":924,"superficie_km2":"1160.24","latitude_centre":"45.6369","longitude_centre":"-0.3051","distance_km":6.68},{"id":0,"code_insee":"16150","nom_standard":"Gensac-la-Pallue","nom_a":null,"nom_de":null,"slug_ville":"gensac-la-pallue","departement_id":0,"code_postal":"16130","population":1627,"superficie_km2":"1912.79","latitude_centre":"45.6587","longitude_centre":"-0.2637","distance_km":7.79},{"id":0,"code_insee":"17175","nom_standard":"Germignac","nom_a":null,"nom_de":null,"slug_ville":"germignac","departement_id":0,"code_postal":"17520","population":653,"superficie_km2":"1435.57","latitude_centre":"45.5613","longitude_centre":"-0.3459","distance_km":7.85},{"id":0,"code_insee":"16359","nom_standard":"Salles-d'Angles","nom_a":null,"nom_de":null,"slug_ville":"salles-d-angles","departement_id":0,"code_postal":"16130","population":1011,"superficie_km2":"2173.85","latitude_centre":"45.621","longitude_centre":"-0.3481","distance_km":8.2},{"id":0,"code_insee":"16176","nom_standard":"Lachaise","nom_a":null,"nom_de":null,"slug_ville":"lachaise","departement_id":0,"code_postal":"16300","population":318,"superficie_km2":"949.83","latitude_centre":"45.5144","longitude_centre":"-0.2413","distance_km":8.35},{"id":0,"code_insee":"17016","nom_standard":"Archiac","nom_a":null,"nom_de":null,"slug_ville":"archiac","departement_id":0,"code_postal":"17520","population":773,"superficie_km2":"449.05","latitude_centre":"45.5214","longitude_centre":"-0.3016","distance_km":8.41},{"id":14143,"code_insee":"16056","nom_standard":"Bourg-Charente","nom_a":null,"nom_de":null,"slug_ville":"bourg-charente","departement_id":0,"code_postal":"16200","population":887,"superficie_km2":"1197.70","latitude_centre":"45.6644","longitude_centre":"-0.2243","distance_km":8.68},{"id":0,"code_insee":"16178","nom_standard":"Lagarde-sur-le-Né","nom_a":null,"nom_de":null,"slug_ville":"lagarde-sur-le-ne","departement_id":0,"code_postal":"16300","population":189,"superficie_km2":"413.68","latitude_centre":"45.5144","longitude_centre":"-0.2048","distance_km":9.11},{"id":0,"code_insee":"17326","nom_standard":"Saint-Eugène","nom_a":null,"nom_de":null,"slug_ville":"saint-eugene","departement_id":0,"code_postal":"17520","population":288,"superficie_km2":"1651.87","latitude_centre":"45.4982","longitude_centre":"-0.2722","distance_km":10.2},{"id":0,"code_insee":"16304","nom_standard":"Saint-Brice","nom_a":null,"nom_de":null,"slug_ville":"saint-brice","departement_id":0,"code_postal":"16100","population":982,"superficie_km2":"934.78","latitude_centre":"45.6891","longitude_centre":"-0.2674","distance_km":11.19},{"id":0,"code_insee":"16174","nom_standard":"Julienne","nom_a":null,"nom_de":null,"slug_ville":"julienne","departement_id":0,"code_postal":"16200","population":560,"superficie_km2":"637.94","latitude_centre":"45.6923","longitude_centre":"-0.2308","distance_km":11.62}]}