{"ville":{"id":6927,"code_insee":"67239","nom_standard":"Kintzheim","nom_a":null,"nom_de":null,"slug_ville":"kintzheim","departement_id":668,"code_postal":"67600","population":1680,"superficie_km2":"19.00","latitude_centre":"48.2589989","longitude_centre":"7.3740001","dep_code":"67","dep_nom":"Bas-Rhin","dep_slug":"bas-rhin","reg_code":"06","reg_nom":"Grand Est","reg_slug":"grand-est"},"departement":{"code":"67","nom":"Bas-Rhin","slug":"bas-rhin"},"region":{"code":"06","nom":"Grand Est","slug":"grand-est"},"villes_proches":[{"id":6863,"code_insee":"67073","nom_standard":"Châtenois","nom_a":null,"nom_de":null,"slug_ville":"chatenois","departement_id":668,"code_postal":"67730","population":4235,"superficie_km2":"15.00","latitude_centre":"48.2799988","longitude_centre":"7.3860002","distance_km":2.5},{"id":6997,"code_insee":"67445","nom_standard":"Scherwiller","nom_a":null,"nom_de":null,"slug_ville":"scherwiller","departement_id":668,"code_postal":"67750","population":3153,"superficie_km2":"19.00","latitude_centre":"48.2949982","longitude_centre":"7.4150000","distance_km":5.02},{"id":7051,"code_insee":"68028","nom_standard":"Bergheim","nom_a":null,"nom_de":null,"slug_ville":"bergheim","departement_id":669,"code_postal":"68750","population":2066,"superficie_km2":"19.00","latitude_centre":"48.2130013","longitude_centre":"7.3579998","distance_km":5.25},{"id":7005,"code_insee":"67462","nom_standard":"Sélestat","nom_a":null,"nom_de":null,"slug_ville":"selestat","departement_id":668,"code_postal":"67600","population":19300,"superficie_km2":"47.00","latitude_centre":"48.2480011","longitude_centre":"7.4619999","distance_km":6.63},{"id":7115,"code_insee":"68185","nom_standard":"Lièpvre","nom_a":null,"nom_de":null,"slug_ville":"liepvre","departement_id":669,"code_postal":"68660","population":1653,"superficie_km2":"12.00","latitude_centre":"48.2680016","longitude_centre":"7.2760000","distance_km":7.32},{"id":7082,"code_insee":"68113","nom_standard":"Guémar","nom_a":null,"nom_de":null,"slug_ville":"guemar","departement_id":669,"code_postal":"68970","population":1438,"superficie_km2":"18.00","latitude_centre":"48.1940002","longitude_centre":"7.4150000","distance_km":7.84},{"id":6866,"code_insee":"67084","nom_standard":"Dambach-la-Ville","nom_a":null,"nom_de":null,"slug_ville":"dambach-la-ville","departement_id":668,"code_postal":"67650","population":2207,"superficie_km2":"29.00","latitude_centre":"48.3230019","longitude_centre":"7.4270000","distance_km":8.13},{"id":7144,"code_insee":"68269","nom_standard":"Ribeauvillé","nom_a":null,"nom_de":null,"slug_ville":"ribeauville","departement_id":669,"code_postal":"68150","population":4682,"superficie_km2":"32.00","latitude_centre":"48.2060013","longitude_centre":"7.2870002","distance_km":8.73},{"id":6879,"code_insee":"67115","nom_standard":"Ebersheim","nom_a":null,"nom_de":null,"slug_ville":"ebersheim","departement_id":668,"code_postal":"67600","population":2291,"superficie_km2":"14.00","latitude_centre":"48.3019981","longitude_centre":"7.4980001","distance_km":10.35},{"id":7022,"code_insee":"67507","nom_standard":"Villé","nom_a":null,"nom_de":null,"slug_ville":"ville","departement_id":668,"code_postal":"67220","population":1775,"superficie_km2":"3.00","latitude_centre":"48.3429985","longitude_centre":"7.3030000","distance_km":10.72},{"id":6950,"code_insee":"67310","nom_standard":"Mussig","nom_a":null,"nom_de":null,"slug_ville":"mussig","departement_id":668,"code_postal":"67600","population":1139,"superficie_km2":"12.00","latitude_centre":"48.2270012","longitude_centre":"7.5180001","distance_km":11.24},{"id":7136,"code_insee":"68252","nom_standard":"Ostheim","nom_a":null,"nom_de":null,"slug_ville":"ostheim","departement_id":669,"code_postal":"68150","population":1658,"superficie_km2":"8.00","latitude_centre":"48.1570015","longitude_centre":"7.3730001","distance_km":11.34},{"id":7147,"code_insee":"68277","nom_standard":"Riquewihr","nom_a":null,"nom_de":null,"slug_ville":"riquewihr","departement_id":669,"code_postal":"68340","population":1032,"superficie_km2":"17.00","latitude_centre":"48.1790009","longitude_centre":"7.2729998","distance_km":11.62},{"id":6951,"code_insee":"67311","nom_standard":"Muttersholtz","nom_a":null,"nom_de":null,"slug_ville":"muttersholtz","departement_id":668,"code_postal":"67600","population":2228,"superficie_km2":"13.00","latitude_centre":"48.2690010","longitude_centre":"7.5330000","distance_km":11.82},{"id":6846,"code_insee":"67019","nom_standard":"Baldenheim","nom_a":null,"nom_de":null,"slug_ville":"baldenheim","departement_id":668,"code_postal":"67600","population":1205,"superficie_km2":"9.00","latitude_centre":"48.2439995","longitude_centre":"7.5359998","distance_km":12.11},{"id":7154,"code_insee":"68294","nom_standard":"Sainte-Croix-aux-Mines","nom_a":null,"nom_de":null,"slug_ville":"sainte-croix-aux-mines","departement_id":669,"code_postal":"68160","population":1807,"superficie_km2":"28.00","latitude_centre":"48.2680016","longitude_centre":"7.2080002","distance_km":12.33},{"id":6884,"code_insee":"67125","nom_standard":"Epfig","nom_a":null,"nom_de":null,"slug_ville":"epfig","departement_id":668,"code_postal":"67680","population":2246,"superficie_km2":"22.00","latitude_centre":"48.3510017","longitude_centre":"7.4710002","distance_km":12.5},{"id":6973,"code_insee":"67360","nom_standard":"Ohnenheim","nom_a":null,"nom_de":null,"slug_ville":"ohnenheim","departement_id":668,"code_postal":"67390","population":1147,"superficie_km2":"12.00","latitude_centre":"48.1870003","longitude_centre":"7.5040002","distance_km":12.52},{"id":7050,"code_insee":"68026","nom_standard":"Bennwihr","nom_a":null,"nom_de":null,"slug_ville":"bennwihr","departement_id":669,"code_postal":"68630","population":1354,"superficie_km2":"7.00","latitude_centre":"48.1389999","longitude_centre":"7.3400002","distance_km":13.58},{"id":7098,"code_insee":"68146","nom_standard":"Houssen","nom_a":null,"nom_de":null,"slug_ville":"houssen","departement_id":669,"code_postal":"68125","population":2394,"superficie_km2":"7.00","latitude_centre":"48.1320000","longitude_centre":"7.3750000","distance_km":14.12}]}