{"ville":{"id":9972,"code_insee":"01002","nom_standard":"L'Abergement-de-Varey","nom_a":null,"nom_de":null,"slug_ville":"l-abergement-de-varey","departement_id":0,"code_postal":"01640","population":270,"superficie_km2":"919.01","latitude_centre":"46.0071","longitude_centre":"5.4247","dep_code":"01","dep_nom":"Ain","dep_slug":"ain","reg_code":"84","reg_nom":"Auvergne-Rhône-Alpes","reg_slug":"auvergne-rhone-alpes"},"departement":{"code":"01","nom":"Ain","slug":"ain"},"region":{"code":"84","nom":"Auvergne-Rhône-Alpes","slug":"auvergne-rhone-alpes"},"villes_proches":[{"id":0,"code_insee":"01277","nom_standard":"Nivollet-Montgriffon","nom_a":null,"nom_de":null,"slug_ville":"nivollet-montgriffon","departement_id":0,"code_postal":"01230","population":122,"superficie_km2":"846.10","latitude_centre":"46.0002","longitude_centre":"5.4567","distance_km":2.59},{"id":0,"code_insee":"01363","nom_standard":"Saint-Jean-le-Vieux","nom_a":null,"nom_de":null,"slug_ville":"saint-jean-le-vieux","departement_id":0,"code_postal":"01640","population":1839,"superficie_km2":"1531.12","latitude_centre":"46.028","longitude_centre":"5.3799","distance_km":4.17},{"id":0,"code_insee":"01056","nom_standard":"Boyeux-Saint-Jérôme","nom_a":null,"nom_de":null,"slug_ville":"boyeux-saint-jerome","departement_id":0,"code_postal":"01640","population":367,"superficie_km2":"1671.47","latitude_centre":"46.0356","longitude_centre":"5.4616","distance_km":4.26},{"id":0,"code_insee":"01149","nom_standard":"Douvres","nom_a":null,"nom_de":null,"slug_ville":"douvres","departement_id":0,"code_postal":"01500","population":1104,"superficie_km2":"519.78","latitude_centre":"45.9847","longitude_centre":"5.3724","distance_km":4.75},{"id":0,"code_insee":"01007","nom_standard":"Ambronay","nom_a":null,"nom_de":null,"slug_ville":"ambronay","departement_id":0,"code_postal":"01500","population":2841,"superficie_km2":"3370.53","latitude_centre":"46.0099","longitude_centre":"5.3627","distance_km":4.8},{"id":0,"code_insee":"01199","nom_standard":"Jujurieux","nom_a":null,"nom_de":null,"slug_ville":"jujurieux","departement_id":0,"code_postal":"01640","population":2260,"superficie_km2":"1551.32","latitude_centre":"46.0503","longitude_centre":"5.4122","distance_km":4.9},{"id":0,"code_insee":"01279","nom_standard":"Oncieu","nom_a":null,"nom_de":null,"slug_ville":"oncieu","departement_id":0,"code_postal":"01230","population":72,"superficie_km2":"755.65","latitude_centre":"45.9685","longitude_centre":"5.4716","distance_km":5.62},{"id":0,"code_insee":"01384","nom_standard":"Saint-Rambert-en-Bugey","nom_a":null,"nom_de":null,"slug_ville":"saint-rambert-en-bugey","departement_id":0,"code_postal":"01230","population":2190,"superficie_km2":"2878.55","latitude_centre":"45.953","longitude_centre":"5.4418","distance_km":6.16},{"id":0,"code_insee":"01242","nom_standard":"Mérignat","nom_a":null,"nom_de":null,"slug_ville":"merignat","departement_id":0,"code_postal":"01450","population":129,"superficie_km2":"316.75","latitude_centre":"46.065","longitude_centre":"5.4425","distance_km":6.58},{"id":0,"code_insee":"01121","nom_standard":"Corlier","nom_a":null,"nom_de":null,"slug_ville":"corlier","departement_id":0,"code_postal":"01110","population":116,"superficie_km2":"554.59","latitude_centre":"46.0369","longitude_centre":"5.5003","distance_km":6.71},{"id":0,"code_insee":"01004","nom_standard":"Ambérieu-en-Bugey","nom_a":null,"nom_de":null,"slug_ville":"amberieu-en-bugey","departement_id":0,"code_postal":"01500","population":15934,"superficie_km2":"2454.80","latitude_centre":"45.9575","longitude_centre":"5.3706","distance_km":6.92},{"id":0,"code_insee":"01012","nom_standard":"Aranc","nom_a":null,"nom_de":null,"slug_ville":"aranc","departement_id":0,"code_postal":"01110","population":331,"superficie_km2":"2171.31","latitude_centre":"45.9972","longitude_centre":"5.514","distance_km":6.98},{"id":0,"code_insee":"01155","nom_standard":"Évosges","nom_a":null,"nom_de":null,"slug_ville":"evosges","departement_id":0,"code_postal":"01230","population":142,"superficie_km2":"1202.71","latitude_centre":"45.963","longitude_centre":"5.5008","distance_km":7.66},{"id":0,"code_insee":"01304","nom_standard":"Pont-d'Ain","nom_a":null,"nom_de":null,"slug_ville":"pont-d-ain","departement_id":0,"code_postal":"01160","population":2843,"superficie_km2":"1123.61","latitude_centre":"46.0556","longitude_centre":"5.3491","distance_km":7.95},{"id":0,"code_insee":"01068","nom_standard":"Cerdon","nom_a":null,"nom_de":null,"slug_ville":"cerdon","departement_id":0,"code_postal":"01450","population":747,"superficie_km2":"1209.81","latitude_centre":"46.075","longitude_centre":"5.4755","distance_km":8.51},{"id":0,"code_insee":"01041","nom_standard":"Bettant","nom_a":null,"nom_de":null,"slug_ville":"bettant","departement_id":0,"code_postal":"01500","population":774,"superficie_km2":"343.27","latitude_centre":"45.9366","longitude_centre":"5.3648","distance_km":9.1},{"id":0,"code_insee":"01017","nom_standard":"Argis","nom_a":null,"nom_de":null,"slug_ville":"argis","departement_id":0,"code_postal":"01230","population":419,"superficie_km2":"781.90","latitude_centre":"45.9322","longitude_centre":"5.4819","distance_km":9.43},{"id":0,"code_insee":"01303","nom_standard":"Poncin","nom_a":null,"nom_de":null,"slug_ville":"poncin","departement_id":0,"code_postal":"01450","population":1803,"superficie_km2":"1992.21","latitude_centre":"46.0918","longitude_centre":"5.4129","distance_km":9.46},{"id":0,"code_insee":"01421","nom_standard":"Torcieu","nom_a":null,"nom_de":null,"slug_ville":"torcieu","departement_id":0,"code_postal":"01230","population":739,"superficie_km2":"1095.67","latitude_centre":"45.9189","longitude_centre":"5.4056","distance_km":9.92},{"id":0,"code_insee":"01331","nom_standard":"Saint-Alban","nom_a":null,"nom_de":null,"slug_ville":"saint-alban","departement_id":0,"code_postal":"01450","population":195,"superficie_km2":"822.56","latitude_centre":"46.0968","longitude_centre":"5.4568","distance_km":10.28}]}