{"ville":{"id":18545,"code_insee":"30108","nom_standard":"L'Estréchure","nom_a":null,"nom_de":null,"slug_ville":"l-estrechure","departement_id":0,"code_postal":"30124","population":151,"superficie_km2":"1946.01","latitude_centre":"44.1016","longitude_centre":"3.7852","dep_code":"30","dep_nom":"Gard","dep_slug":"gard","reg_code":"76","reg_nom":"Occitanie","reg_slug":"occitanie"},"departement":{"code":"30","nom":"Gard","slug":"gard"},"region":{"code":"76","nom":"Occitanie","slug":"occitanie"},"villes_proches":[{"id":0,"code_insee":"30310","nom_standard":"Saumane","nom_a":null,"nom_de":null,"slug_ville":"saumane","departement_id":0,"code_postal":"30125","population":303,"superficie_km2":"1227.24","latitude_centre":"44.1178","longitude_centre":"3.7693","distance_km":2.2},{"id":0,"code_insee":"30195","nom_standard":"Peyrolles","nom_a":null,"nom_de":null,"slug_ville":"peyrolles","departement_id":0,"code_postal":"30124","population":30,"superficie_km2":"830.22","latitude_centre":"44.1065","longitude_centre":"3.8279","distance_km":3.45},{"id":0,"code_insee":"30322","nom_standard":"Soudorgues","nom_a":null,"nom_de":null,"slug_ville":"soudorgues","departement_id":0,"code_postal":"30460","population":269,"superficie_km2":"2587.47","latitude_centre":"44.0698","longitude_centre":"3.8043","distance_km":3.85},{"id":0,"code_insee":"30198","nom_standard":"Les Plantiers","nom_a":null,"nom_de":null,"slug_ville":"les-plantiers","departement_id":0,"code_postal":"30122","population":228,"superficie_km2":"3100.19","latitude_centre":"44.1055","longitude_centre":"3.7063","distance_km":6.31},{"id":0,"code_insee":"48097","nom_standard":"Moissac-Vallée-Française","nom_a":null,"nom_de":null,"slug_ville":"moissac-vallee-francaise","departement_id":0,"code_postal":"48110","population":216,"superficie_km2":"2701.25","latitude_centre":"44.1587","longitude_centre":"3.792","distance_km":6.37},{"id":0,"code_insee":"30269","nom_standard":"Saint-Jean-du-Gard","nom_a":null,"nom_de":null,"slug_ville":"saint-jean-du-gard","departement_id":0,"code_postal":"30270","population":2586,"superficie_km2":"4159.58","latitude_centre":"44.1098","longitude_centre":"3.8796","distance_km":7.59},{"id":0,"code_insee":"30283","nom_standard":"Saint-Martial","nom_a":null,"nom_de":null,"slug_ville":"saint-martial","departement_id":0,"code_postal":"30440","population":177,"superficie_km2":"1726.59","latitude_centre":"44.0388","longitude_centre":"3.7474","distance_km":7.61},{"id":0,"code_insee":"30246","nom_standard":"Sainte-Croix-de-Caderle","nom_a":null,"nom_de":null,"slug_ville":"sainte-croix-de-caderle","departement_id":0,"code_postal":"30460","population":97,"superficie_km2":"770.81","latitude_centre":"44.0666","longitude_centre":"3.8675","distance_km":7.64},{"id":18528,"code_insee":"30087","nom_standard":"Colognac","nom_a":null,"nom_de":null,"slug_ville":"colognac","departement_id":0,"code_postal":"30460","population":190,"superficie_km2":"1240.29","latitude_centre":"44.0328","longitude_centre":"3.8175","distance_km":8.07},{"id":0,"code_insee":"30140","nom_standard":"Lasalle","nom_a":null,"nom_de":null,"slug_ville":"lasalle","departement_id":0,"code_postal":"30460","population":1202,"superficie_km2":"1014.37","latitude_centre":"44.0403","longitude_centre":"3.85","distance_km":8.56},{"id":0,"code_insee":"30231","nom_standard":"Saint-André-de-Valborgne","nom_a":null,"nom_de":null,"slug_ville":"saint-andre-de-valborgne","departement_id":0,"code_postal":"30940","population":366,"superficie_km2":"4893.73","latitude_centre":"44.15","longitude_centre":"3.6998","distance_km":8.68},{"id":0,"code_insee":"48148","nom_standard":"Saint-Étienne-Vallée-Française","nom_a":null,"nom_de":null,"slug_ville":"saint-etienne-vallee-francaise","departement_id":0,"code_postal":"48330","population":493,"superficie_km2":"5064.30","latitude_centre":"44.1736","longitude_centre":"3.8492","distance_km":9.5},{"id":0,"code_insee":"30296","nom_standard":"Saint-Roman-de-Codières","nom_a":null,"nom_de":null,"slug_ville":"saint-roman-de-codieres","departement_id":0,"code_postal":"30440","population":166,"superficie_km2":"1865.97","latitude_centre":"44.0145","longitude_centre":"3.7766","distance_km":9.71},{"id":0,"code_insee":"48144","nom_standard":"Sainte-Croix-Vallée-Française","nom_a":null,"nom_de":null,"slug_ville":"sainte-croix-vallee-francaise","departement_id":0,"code_postal":"48110","population":303,"superficie_km2":"1874.92","latitude_centre":"44.1868","longitude_centre":"3.7452","distance_km":10.0},{"id":0,"code_insee":"30236","nom_standard":"Saint-Bonnet-de-Salendrinque","nom_a":null,"nom_de":null,"slug_ville":"saint-bonnet-de-salendrinque","departement_id":0,"code_postal":"30460","population":129,"superficie_km2":"359.54","latitude_centre":"44.0364","longitude_centre":"3.8735","distance_km":10.12},{"id":0,"code_insee":"48067","nom_standard":"Gabriac","nom_a":null,"nom_de":null,"slug_ville":"gabriac","departement_id":0,"code_postal":"48110","population":102,"superficie_km2":"847.40","latitude_centre":"44.1821","longitude_centre":"3.7104","distance_km":10.76},{"id":18536,"code_insee":"30099","nom_standard":"Cros","nom_a":null,"nom_de":null,"slug_ville":"cros","departement_id":0,"code_postal":"30170","population":265,"superficie_km2":"1677.90","latitude_centre":"44.0021","longitude_centre":"3.8204","distance_km":11.42},{"id":0,"code_insee":"30335","nom_standard":"Vabres","nom_a":null,"nom_de":null,"slug_ville":"vabres","departement_id":0,"code_postal":"30460","population":139,"superficie_km2":"482.22","latitude_centre":"44.0271","longitude_centre":"3.8849","distance_km":11.49},{"id":0,"code_insee":"30325","nom_standard":"Sumène","nom_a":null,"nom_de":null,"slug_ville":"sumene","departement_id":0,"code_postal":"30440","population":1222,"superficie_km2":"3676.19","latitude_centre":"43.9903","longitude_centre":"3.7407","distance_km":12.88},{"id":0,"code_insee":"48171","nom_standard":"Saint-Martin-de-Lansuscle","nom_a":null,"nom_de":null,"slug_ville":"saint-martin-de-lansuscle","departement_id":0,"code_postal":"48110","population":191,"superficie_km2":"1815.43","latitude_centre":"44.219","longitude_centre":"3.7493","distance_km":13.36}]}