{"ville":{"id":33898,"code_insee":"85167","nom_standard":"L'Orbrie","nom_a":null,"nom_de":null,"slug_ville":"l-orbrie","departement_id":0,"code_postal":"85200","population":808,"superficie_km2":"967.27","latitude_centre":"46.4988","longitude_centre":"-0.7742","dep_code":"85","dep_nom":"Vendée","dep_slug":"vendee","reg_code":"52","reg_nom":"Pays de la Loire","reg_slug":"pays-de-la-loire"},"departement":{"code":"85","nom":"Vendée","slug":"vendee"},"region":{"code":"52","nom":"Pays de la Loire","slug":"pays-de-la-loire"},"villes_proches":[{"id":0,"code_insee":"85256","nom_standard":"Saint-Michel-le-Cloucq","nom_a":null,"nom_de":null,"slug_ville":"saint-michel-le-cloucq","departement_id":0,"code_postal":"85200","population":1253,"superficie_km2":"1769.49","latitude_centre":"46.4907","longitude_centre":"-0.7468","distance_km":2.28},{"id":0,"code_insee":"85176","nom_standard":"Pissotte","nom_a":null,"nom_de":null,"slug_ville":"pissotte","departement_id":0,"code_postal":"85200","population":1132,"superficie_km2":"1201.08","latitude_centre":"46.5035","longitude_centre":"-0.8106","distance_km":2.83},{"id":0,"code_insee":"85143","nom_standard":"Mervent","nom_a":null,"nom_de":null,"slug_ville":"mervent","departement_id":0,"code_postal":"85200","population":1063,"superficie_km2":"2249.68","latitude_centre":"46.5335","longitude_centre":"-0.7529","distance_km":4.19},{"id":0,"code_insee":"85092","nom_standard":"Fontenay-le-Comte","nom_a":null,"nom_de":null,"slug_ville":"fontenay-le-comte","departement_id":0,"code_postal":"85200","population":14059,"superficie_km2":"3420.17","latitude_centre":"46.4587","longitude_centre":"-0.7887","distance_km":4.6},{"id":0,"code_insee":"85281","nom_standard":"Sérigné","nom_a":null,"nom_de":null,"slug_ville":"serigne","departement_id":0,"code_postal":"85200","population":1048,"superficie_km2":"1848.37","latitude_centre":"46.5077","longitude_centre":"-0.8497","distance_km":5.86},{"id":33866,"code_insee":"85033","nom_standard":"Bourneau","nom_a":null,"nom_de":null,"slug_ville":"bourneau","departement_id":0,"code_postal":"85200","population":710,"superficie_km2":"1637.57","latitude_centre":"46.5501","longitude_centre":"-0.811","distance_km":6.36},{"id":0,"code_insee":"85305","nom_standard":"Vouvant","nom_a":null,"nom_de":null,"slug_ville":"vouvant","departement_id":0,"code_postal":"85120","population":829,"superficie_km2":"2038.14","latitude_centre":"46.5554","longitude_centre":"-0.7614","distance_km":6.37},{"id":0,"code_insee":"85094","nom_standard":"Foussais-Payré","nom_a":null,"nom_de":null,"slug_ville":"foussais-payre","departement_id":0,"code_postal":"85240","population":1168,"superficie_km2":"3461.42","latitude_centre":"46.5192","longitude_centre":"-0.6873","distance_km":7.03},{"id":0,"code_insee":"85126","nom_standard":"Longèves","nom_a":null,"nom_de":null,"slug_ville":"longeves","departement_id":0,"code_postal":"85200","population":1369,"superficie_km2":"1184.56","latitude_centre":"46.4714","longitude_centre":"-0.861","distance_km":7.31},{"id":0,"code_insee":"85306","nom_standard":"Xanton-Chassenon","nom_a":null,"nom_de":null,"slug_ville":"xanton-chassenon","departement_id":0,"code_postal":"85240","population":743,"superficie_km2":"1939.46","latitude_centre":"46.453","longitude_centre":"-0.7027","distance_km":7.48},{"id":0,"code_insee":"85244","nom_standard":"Saint-Martin-de-Fraigneau","nom_a":null,"nom_de":null,"slug_ville":"saint-martin-de-fraigneau","departement_id":0,"code_postal":"85200","population":795,"superficie_km2":"1355.00","latitude_centre":"46.4308","longitude_centre":"-0.7623","distance_km":7.62},{"id":33890,"code_insee":"85137","nom_standard":"Marsais-Sainte-Radégonde","nom_a":null,"nom_de":null,"slug_ville":"marsais-sainte-radegonde","departement_id":0,"code_postal":"85570","population":553,"superficie_km2":"1477.42","latitude_centre":"46.5389","longitude_centre":"-0.8712","distance_km":8.66},{"id":0,"code_insee":"85184","nom_standard":"Puy-de-Serre","nom_a":null,"nom_de":null,"slug_ville":"puy-de-serre","departement_id":0,"code_postal":"85240","population":311,"superficie_km2":"1387.39","latitude_centre":"46.5637","longitude_centre":"-0.6796","distance_km":10.22},{"id":0,"code_insee":"85009","nom_standard":"Auchay-sur-Vendée","nom_a":null,"nom_de":null,"slug_ville":"auchay-sur-vendee","departement_id":0,"code_postal":"85200","population":1122,"superficie_km2":"2128.08","latitude_centre":"46.4366","longitude_centre":"-0.8739","distance_km":10.3},{"id":0,"code_insee":"85205","nom_standard":"Saint-Cyr-des-Gâts","nom_a":null,"nom_de":null,"slug_ville":"saint-cyr-des-gats","departement_id":0,"code_postal":"85410","population":533,"superficie_km2":"2102.54","latitude_centre":"46.5735","longitude_centre":"-0.864","distance_km":10.78},{"id":0,"code_insee":"85265","nom_standard":"Saint-Pierre-le-Vieux","nom_a":null,"nom_de":null,"slug_ville":"saint-pierre-le-vieux","departement_id":0,"code_postal":"85420","population":917,"superficie_km2":"2342.06","latitude_centre":"46.4006","longitude_centre":"-0.7417","distance_km":11.2},{"id":0,"code_insee":"85080","nom_standard":"Doix lès Fontaines","nom_a":null,"nom_de":null,"slug_ville":"doix-les-fontaines","departement_id":0,"code_postal":"85200","population":1779,"superficie_km2":"2399.41","latitude_centre":"46.3994","longitude_centre":"-0.8098","distance_km":11.38},{"id":0,"code_insee":"85251","nom_standard":"Saint-Maurice-des-Noues","nom_a":null,"nom_de":null,"slug_ville":"saint-maurice-des-noues","departement_id":0,"code_postal":"85120","population":642,"superficie_km2":"2157.98","latitude_centre":"46.5956","longitude_centre":"-0.7235","distance_km":11.44},{"id":33894,"code_insee":"85148","nom_standard":"Montreuil","nom_a":null,"nom_de":null,"slug_ville":"montreuil","departement_id":0,"code_postal":"85200","population":818,"superficie_km2":"1202.56","latitude_centre":"46.3975","longitude_centre":"-0.8407","distance_km":12.36},{"id":0,"code_insee":"85005","nom_standard":"Antigny","nom_a":null,"nom_de":null,"slug_ville":"antigny","departement_id":0,"code_postal":"85120","population":1027,"superficie_km2":"2237.89","latitude_centre":"46.6141","longitude_centre":"-0.7576","distance_km":12.88}]}