{"ville":{"id":8998,"code_insee":"85021","nom_standard":"La Bernardière","nom_a":null,"nom_de":null,"slug_ville":"la-bernardiere","departement_id":686,"code_postal":"85610","population":1880,"superficie_km2":"15.00","latitude_centre":"47.0359993","longitude_centre":"-1.2740000","dep_code":"85","dep_nom":"Vendée","dep_slug":"vendee","reg_code":"17","reg_nom":"Pays de la Loire","reg_slug":"pays-de-la-loire"},"departement":{"code":"85","nom":"Vendée","slug":"vendee"},"region":{"code":"17","nom":"Pays de la Loire","slug":"pays-de-la-loire"},"villes_proches":[{"id":9028,"code_insee":"85076","nom_standard":"Cugand","nom_a":null,"nom_de":null,"slug_ville":"cugand","departement_id":686,"code_postal":"85610","population":3685,"superficie_km2":"14.00","latitude_centre":"47.0600014","longitude_centre":"-1.2530000","distance_km":3.11},{"id":4405,"code_insee":"44165","nom_standard":"Saint-Hilaire-de-Clisson","nom_a":null,"nom_de":null,"slug_ville":"saint-hilaire-de-clisson","departement_id":645,"code_postal":"44190","population":2378,"superficie_km2":"19.00","latitude_centre":"47.0600014","longitude_centre":"-1.3170000","distance_km":4.21},{"id":9149,"code_insee":"85295","nom_standard":"Treize-Septiers","nom_a":null,"nom_de":null,"slug_ville":"treize-septiers","departement_id":686,"code_postal":"85600","population":3316,"superficie_km2":"23.00","latitude_centre":"46.9980011","longitude_centre":"-1.2320000","distance_km":5.29},{"id":4317,"code_insee":"44063","nom_standard":"Gétigné","nom_a":null,"nom_de":null,"slug_ville":"getigne","departement_id":645,"code_postal":"44190","population":3770,"superficie_km2":"24.00","latitude_centre":"47.0810013","longitude_centre":"-1.2180001","distance_km":6.56},{"id":4300,"code_insee":"44043","nom_standard":"Clisson","nom_a":null,"nom_de":null,"slug_ville":"clisson","departement_id":645,"code_postal":"44190","population":7465,"superficie_km2":"11.00","latitude_centre":"47.0979996","longitude_centre":"-1.2700000","distance_km":6.9},{"id":9008,"code_insee":"85039","nom_standard":"La Bruffière","nom_a":null,"nom_de":null,"slug_ville":"la-bruffiere","departement_id":686,"code_postal":"85530","population":4044,"superficie_km2":"41.00","latitude_centre":"47.0149994","longitude_centre":"-1.1830000","distance_km":7.28},{"id":9071,"code_insee":"85146","nom_standard":"Montaigu-Vendée","nom_a":null,"nom_de":null,"slug_ville":"montaigu-vendee","departement_id":686,"code_postal":"85600","population":20605,"superficie_km2":"3.00","latitude_centre":"46.9760017","longitude_centre":"-1.3140000","distance_km":7.33},{"id":4318,"code_insee":"44064","nom_standard":"Gorges","nom_a":null,"nom_de":null,"slug_ville":"gorges","departement_id":645,"code_postal":"44190","population":4976,"superficie_km2":"16.00","latitude_centre":"47.1040001","longitude_centre":"-1.3110000","distance_km":8.06},{"id":4411,"code_insee":"44173","nom_standard":"Saint-Lumine-de-Clisson","nom_a":null,"nom_de":null,"slug_ville":"saint-lumine-de-clisson","departement_id":645,"code_postal":"44190","population":2141,"superficie_km2":"18.00","latitude_centre":"47.0800018","longitude_centre":"-1.3630000","distance_km":8.33},{"id":4385,"code_insee":"44142","nom_standard":"Remouillé","nom_a":null,"nom_de":null,"slug_ville":"remouille","departement_id":645,"code_postal":"44140","population":1941,"superficie_km2":"22.00","latitude_centre":"47.0390015","longitude_centre":"-1.3880000","distance_km":8.65},{"id":4283,"code_insee":"44022","nom_standard":"Boussay","nom_a":null,"nom_de":null,"slug_ville":"boussay","departement_id":645,"code_postal":"44190","population":2773,"superficie_km2":"26.00","latitude_centre":"47.0540009","longitude_centre":"-1.1630000","distance_km":8.65},{"id":4354,"code_insee":"44108","nom_standard":"Mouzillon","nom_a":null,"nom_de":null,"slug_ville":"mouzillon","departement_id":645,"code_postal":"44330","population":2883,"superficie_km2":"16.00","latitude_centre":"47.1290016","longitude_centre":"-1.2740000","distance_km":10.34},{"id":4348,"code_insee":"44100","nom_standard":"Monnières","nom_a":null,"nom_de":null,"slug_ville":"monnieres","departement_id":645,"code_postal":"44690","population":2329,"superficie_km2":"10.00","latitude_centre":"47.1199989","longitude_centre":"-1.3490000","distance_km":10.93},{"id":4267,"code_insee":"44002","nom_standard":"Aigrefeuille-sur-Maine","nom_a":null,"nom_de":null,"slug_ville":"aigrefeuille-sur-maine","departement_id":645,"code_postal":"44140","population":4068,"superficie_km2":"15.00","latitude_centre":"47.0719986","longitude_centre":"-1.4160000","distance_km":11.48},{"id":9001,"code_insee":"85025","nom_standard":"La Boissière-de-Montaigu","nom_a":null,"nom_de":null,"slug_ville":"la-boissiere-de-montaigu","departement_id":686,"code_postal":"85600","population":2279,"superficie_km2":"29.00","latitude_centre":"46.9449997","longitude_centre":"-1.1920000","distance_km":11.88},{"id":4338,"code_insee":"44088","nom_standard":"Maisdon-sur-Sèvre","nom_a":null,"nom_de":null,"slug_ville":"maisdon-sur-sevre","departement_id":645,"code_postal":"44690","population":3047,"superficie_km2":"17.00","latitude_centre":"47.1160011","longitude_centre":"-1.3890001","distance_km":12.45},{"id":4370,"code_insee":"44127","nom_standard":"La Planche","nom_a":null,"nom_de":null,"slug_ville":"la-planche","departement_id":645,"code_postal":"44140","population":2799,"superficie_km2":"24.00","latitude_centre":"47.0200005","longitude_centre":"-1.4400001","distance_km":12.71},{"id":4362,"code_insee":"44117","nom_standard":"Le Pallet","nom_a":null,"nom_de":null,"slug_ville":"le-pallet","departement_id":645,"code_postal":"44330","population":3335,"superficie_km2":"11.00","latitude_centre":"47.1440010","longitude_centre":"-1.3450000","distance_km":13.16},{"id":4449,"code_insee":"44216","nom_standard":"Vieillevigne","nom_a":null,"nom_de":null,"slug_ville":"vieillevigne","departement_id":645,"code_postal":"44116","population":4070,"superficie_km2":"52.00","latitude_centre":"46.9710007","longitude_centre":"-1.4190000","distance_km":13.16},{"id":9056,"code_insee":"85119","nom_standard":"Les Landes-Genusson","nom_a":null,"nom_de":null,"slug_ville":"les-landes-genusson","departement_id":686,"code_postal":"85130","population":2506,"superficie_km2":"31.00","latitude_centre":"46.9659996","longitude_centre":"-1.1289999","distance_km":13.47}]}