{"ville":{"id":5682,"code_insee":"59051","nom_standard":"La Bassée","nom_a":null,"nom_de":null,"slug_ville":"la-bassee","departement_id":660,"code_postal":"59480","population":6622,"superficie_km2":"4.00","latitude_centre":"50.5400009","longitude_centre":"2.8090000","dep_code":"59","dep_nom":"Nord","dep_slug":"nord","reg_code":"09","reg_nom":"Hauts-de-France","reg_slug":"hauts-de-france"},"departement":{"code":"59","nom":"Nord","slug":"nord"},"region":{"code":"09","nom":"Hauts-de-France","slug":"hauts-de-france"},"villes_proches":[{"id":5952,"code_insee":"59550","nom_standard":"Salomé","nom_a":null,"nom_de":null,"slug_ville":"salome","departement_id":660,"code_postal":"59496","population":3051,"superficie_km2":"5.00","latitude_centre":"50.5359993","longitude_centre":"2.8369999","distance_km":2.03},{"id":6491,"code_insee":"62863","nom_standard":"Violaines","nom_a":null,"nom_de":null,"slug_ville":"violaines","departement_id":663,"code_postal":"62138","population":3831,"superficie_km2":"10.00","latitude_centre":"50.5379982","longitude_centre":"2.7800000","distance_km":2.06},{"id":5826,"code_insee":"59320","nom_standard":"Illies","nom_a":null,"nom_de":null,"slug_ville":"illies","departement_id":660,"code_postal":"59480","population":1664,"superficie_km2":"8.00","latitude_centre":"50.5629997","longitude_centre":"2.8280001","distance_km":2.89},{"id":6399,"code_insee":"62529","nom_standard":"Lorgies","nom_a":null,"nom_de":null,"slug_ville":"lorgies","departement_id":663,"code_postal":"62840","population":1609,"superficie_km2":"7.00","latitude_centre":"50.5670013","longitude_centre":"2.7980001","distance_km":3.1},{"id":6327,"code_insee":"62276","nom_standard":"Douvrin","nom_a":null,"nom_de":null,"slug_ville":"douvrin","departement_id":663,"code_postal":"62138","population":5795,"superficie_km2":"10.00","latitude_centre":"50.5120010","longitude_centre":"2.8260000","distance_km":3.34},{"id":6353,"code_insee":"62373","nom_standard":"Givenchy-lès-la-Bassée","nom_a":null,"nom_de":null,"slug_ville":"givenchy-les-la-bassee","departement_id":663,"code_postal":"62149","population":1006,"superficie_km2":"4.00","latitude_centre":"50.5320015","longitude_centre":"2.7600000","distance_km":3.58},{"id":5804,"code_insee":"59281","nom_standard":"Hantay","nom_a":null,"nom_de":null,"slug_ville":"hantay","departement_id":660,"code_postal":"59496","population":1259,"superficie_km2":"2.00","latitude_centre":"50.5379982","longitude_centre":"2.8680000","distance_km":4.18},{"id":6269,"code_insee":"62051","nom_standard":"Auchy-les-Mines","nom_a":null,"nom_de":null,"slug_ville":"auchy-les-mines","departement_id":663,"code_postal":"62138","population":4623,"superficie_km2":"5.00","latitude_centre":"50.5060005","longitude_centre":"2.7809999","distance_km":4.27},{"id":5869,"code_insee":"59388","nom_standard":"Marquillies","nom_a":null,"nom_de":null,"slug_ville":"marquillies","departement_id":660,"code_postal":"59274","population":1982,"superficie_km2":"7.00","latitude_centre":"50.5509987","longitude_centre":"2.8680000","distance_km":4.34},{"id":6362,"code_insee":"62401","nom_standard":"Haisnes","nom_a":null,"nom_de":null,"slug_ville":"haisnes","departement_id":663,"code_postal":"62138","population":4427,"superficie_km2":"6.00","latitude_centre":"50.5009995","longitude_centre":"2.7969999","distance_km":4.42},{"id":6286,"code_insee":"62132","nom_standard":"Billy-Berclau","nom_a":null,"nom_de":null,"slug_ville":"billy-berclau","departement_id":663,"code_postal":"62138","population":5059,"superficie_km2":"7.00","latitude_centre":"50.5200005","longitude_centre":"2.8670001","distance_km":4.66},{"id":6320,"code_insee":"62262","nom_standard":"Cuinchy","nom_a":null,"nom_de":null,"slug_ville":"cuinchy","departement_id":663,"code_postal":"62149","population":1754,"superficie_km2":"4.00","latitude_centre":"50.5190010","longitude_centre":"2.7460001","distance_km":5.03},{"id":6343,"code_insee":"62330","nom_standard":"Festubert","nom_a":null,"nom_de":null,"slug_ville":"festubert","departement_id":663,"code_postal":"62149","population":1266,"superficie_km2":"8.00","latitude_centre":"50.5449982","longitude_centre":"2.7360001","distance_km":5.19},{"id":6422,"code_insee":"62606","nom_standard":"Neuve-Chapelle","nom_a":null,"nom_de":null,"slug_ville":"neuve-chapelle","departement_id":663,"code_postal":"62840","population":1419,"superficie_km2":"2.00","latitude_centre":"50.5849991","longitude_centre":"2.7800000","distance_km":5.41},{"id":5818,"code_insee":"59303","nom_standard":"Herlies","nom_a":null,"nom_de":null,"slug_ville":"herlies","departement_id":660,"code_postal":"59134","population":2323,"superficie_km2":"7.00","latitude_centre":"50.5820007","longitude_centre":"2.8529999","distance_km":5.61},{"id":6303,"code_insee":"62200","nom_standard":"Cambrin","nom_a":null,"nom_de":null,"slug_ville":"cambrin","departement_id":663,"code_postal":"62149","population":1228,"superficie_km2":"2.00","latitude_centre":"50.5120010","longitude_centre":"2.7370000","distance_km":5.97},{"id":6499,"code_insee":"62895","nom_standard":"Wingles","nom_a":null,"nom_de":null,"slug_ville":"wingles","departement_id":663,"code_postal":"62410","population":8742,"superficie_km2":"6.00","latitude_centre":"50.4949989","longitude_centre":"2.8580000","distance_km":6.09},{"id":6443,"code_insee":"62706","nom_standard":"Richebourg","nom_a":null,"nom_de":null,"slug_ville":"richebourg","departement_id":663,"code_postal":"62136","population":2618,"superficie_km2":"17.00","latitude_centre":"50.5789986","longitude_centre":"2.7470000","distance_km":6.16},{"id":6377,"code_insee":"62464","nom_standard":"Hulluch","nom_a":null,"nom_de":null,"slug_ville":"hulluch","departement_id":663,"code_postal":"62410","population":3367,"superficie_km2":"6.00","latitude_centre":"50.4840012","longitude_centre":"2.8110001","distance_km":6.23},{"id":5666,"code_insee":"59025","nom_standard":"Aubers","nom_a":null,"nom_de":null,"slug_ville":"aubers","departement_id":660,"code_postal":"59249","population":1722,"superficie_km2":"10.00","latitude_centre":"50.5960007","longitude_centre":"2.8199999","distance_km":6.28}]}