{"ville":{"id":3046,"code_insee":"34035","nom_standard":"La Boissière","nom_a":null,"nom_de":null,"slug_ville":"la-boissiere","departement_id":635,"code_postal":"34150","population":1038,"superficie_km2":"24.00","latitude_centre":"43.6539993","longitude_centre":"3.6440001","dep_code":"34","dep_nom":"Hérault","dep_slug":"herault","reg_code":"16","reg_nom":"Occitanie","reg_slug":"occitanie"},"departement":{"code":"34","nom":"Hérault","slug":"herault"},"region":{"code":"16","nom":"Occitanie","slug":"occitanie"},"villes_proches":[{"id":3110,"code_insee":"34163","nom_standard":"Montarnaud","nom_a":null,"nom_de":null,"slug_ville":"montarnaud","departement_id":635,"code_postal":"34570","population":4164,"superficie_km2":"28.00","latitude_centre":"43.6469994","longitude_centre":"3.7000000","distance_km":4.57},{"id":3165,"code_insee":"34282","nom_standard":"Saint-Paul-et-Valmalle","nom_a":null,"nom_de":null,"slug_ville":"saint-paul-et-valmalle","departement_id":635,"code_postal":"34570","population":1342,"superficie_km2":"13.00","latitude_centre":"43.6150017","longitude_centre":"3.6789999","distance_km":5.17},{"id":3034,"code_insee":"34010","nom_standard":"Aniane","nom_a":null,"nom_de":null,"slug_ville":"aniane","departement_id":635,"code_postal":"34150","population":2943,"superficie_km2":"30.00","latitude_centre":"43.6839981","longitude_centre":"3.5929999","distance_km":5.29},{"id":3080,"code_insee":"34114","nom_standard":"Gignac","nom_a":null,"nom_de":null,"slug_ville":"gignac","departement_id":635,"code_postal":"34150","population":6650,"superficie_km2":"30.00","latitude_centre":"43.6389999","longitude_centre":"3.5739999","distance_km":5.87},{"id":3180,"code_insee":"34320","nom_standard":"Vailhauquès","nom_a":null,"nom_de":null,"slug_ville":"vailhauques","departement_id":635,"code_postal":"34570","population":2647,"superficie_km2":"16.00","latitude_centre":"43.6640015","longitude_centre":"3.7279999","distance_km":6.85},{"id":3159,"code_insee":"34267","nom_standard":"Saint-Jean-de-Fos","nom_a":null,"nom_de":null,"slug_ville":"saint-jean-de-fos","departement_id":635,"code_postal":"34150","population":1741,"superficie_km2":"14.00","latitude_centre":"43.6940002","longitude_centre":"3.5460000","distance_km":9.05},{"id":3119,"code_insee":"34179","nom_standard":"Murviel-lès-Montpellier","nom_a":null,"nom_de":null,"slug_ville":"murviel-les-montpellier","departement_id":635,"code_postal":"34570","population":1930,"superficie_km2":"10.00","latitude_centre":"43.6100006","longitude_centre":"3.7390001","distance_km":9.08},{"id":3193,"code_insee":"34343","nom_standard":"Viols-le-Fort","nom_a":null,"nom_de":null,"slug_ville":"viols-le-fort","departement_id":635,"code_postal":"34380","population":1226,"superficie_km2":"17.00","latitude_centre":"43.7369995","longitude_centre":"3.6919999","distance_km":10},{"id":3185,"code_insee":"34328","nom_standard":"Vendémian","nom_a":null,"nom_de":null,"slug_ville":"vendemian","departement_id":635,"code_postal":"34230","population":1151,"superficie_km2":"17.00","latitude_centre":"43.5789986","longitude_centre":"3.5620000","distance_km":10.64},{"id":3070,"code_insee":"34088","nom_standard":"Cournonterral","nom_a":null,"nom_de":null,"slug_ville":"cournonterral","departement_id":635,"code_postal":"34660","population":6654,"superficie_km2":"29.00","latitude_centre":"43.5690002","longitude_centre":"3.7060001","distance_km":10.69},{"id":3067,"code_insee":"34082","nom_standard":"Combaillaux","nom_a":null,"nom_de":null,"slug_ville":"combaillaux","departement_id":635,"code_postal":"34980","population":1909,"superficie_km2":"9.00","latitude_centre":"43.6720009","longitude_centre":"3.7800000","distance_km":11.12},{"id":3158,"code_insee":"34259","nom_standard":"Saint-Georges-d'Orques","nom_a":null,"nom_de":null,"slug_ville":"saint-georges-d-orques","departement_id":635,"code_postal":"34680","population":5600,"superficie_km2":"9.00","latitude_centre":"43.6170006","longitude_centre":"3.7739999","distance_km":11.24},{"id":3130,"code_insee":"34202","nom_standard":"Pignan","nom_a":null,"nom_de":null,"slug_ville":"pignan","departement_id":635,"code_postal":"34570","population":8221,"superficie_km2":"21.00","latitude_centre":"43.5859985","longitude_centre":"3.7490001","distance_km":11.34},{"id":3145,"code_insee":"34239","nom_standard":"Saint-André-de-Sangonis","nom_a":null,"nom_de":null,"slug_ville":"saint-andre-de-sangonis","departement_id":635,"code_postal":"34725","population":6344,"superficie_km2":"20.00","latitude_centre":"43.6500015","longitude_centre":"3.5030000","distance_km":11.35},{"id":3081,"code_insee":"34116","nom_standard":"Grabels","nom_a":null,"nom_de":null,"slug_ville":"grabels","departement_id":635,"code_postal":"34790","population":8973,"superficie_km2":"17.00","latitude_centre":"43.6510010","longitude_centre":"3.7939999","distance_km":12.07},{"id":3135,"code_insee":"34210","nom_standard":"Le Pouget","nom_a":null,"nom_de":null,"slug_ville":"le-pouget","departement_id":635,"code_postal":"34230","population":2099,"superficie_km2":"14.00","latitude_centre":"43.5919991","longitude_centre":"3.5170000","distance_km":12.33},{"id":3084,"code_insee":"34123","nom_standard":"Juvignac","nom_a":null,"nom_de":null,"slug_ville":"juvignac","departement_id":635,"code_postal":"34990","population":12783,"superficie_km2":"11.00","latitude_centre":"43.6240006","longitude_centre":"3.7960000","distance_km":12.68},{"id":3116,"code_insee":"34173","nom_standard":"Montpeyroux","nom_a":null,"nom_de":null,"slug_ville":"montpeyroux","departement_id":635,"code_postal":"34150","population":1386,"superficie_km2":"23.00","latitude_centre":"43.7109985","longitude_centre":"3.5020001","distance_km":13.06},{"id":3069,"code_insee":"34087","nom_standard":"Cournonsec","nom_a":null,"nom_de":null,"slug_ville":"cournonsec","departement_id":635,"code_postal":"34660","population":3550,"superficie_km2":"12.00","latitude_centre":"43.5400009","longitude_centre":"3.7030001","distance_km":13.54},{"id":3112,"code_insee":"34165","nom_standard":"Montbazin","nom_a":null,"nom_de":null,"slug_ville":"montbazin","departement_id":635,"code_postal":"34560","population":2928,"superficie_km2":"21.00","latitude_centre":"43.5330010","longitude_centre":"3.6719999","distance_km":13.64}]}