{"ville":{"id":32556,"code_insee":"79074","nom_standard":"La Chapelle-Pouilloux","nom_a":null,"nom_de":null,"slug_ville":"la-chapelle-pouilloux","departement_id":0,"code_postal":"79190","population":171,"superficie_km2":"793.67","latitude_centre":"46.139","longitude_centre":"0.051","dep_code":"79","dep_nom":"Deux-Sèvres","dep_slug":"deux-sevres","reg_code":"75","reg_nom":"Nouvelle-Aquitaine","reg_slug":"nouvelle-aquitaine"},"departement":{"code":"79","nom":"Deux-Sèvres","slug":"deux-sevres"},"region":{"code":"75","nom":"Nouvelle-Aquitaine","slug":"nouvelle-aquitaine"},"villes_proches":[{"id":0,"code_insee":"79163","nom_standard":"Mairé-Levescault","nom_a":null,"nom_de":null,"slug_ville":"maire-levescault","departement_id":0,"code_postal":"79190","population":582,"superficie_km2":"1757.65","latitude_centre":"46.1562","longitude_centre":"0.0748","distance_km":2.65},{"id":0,"code_insee":"79175","nom_standard":"Melleran","nom_a":null,"nom_de":null,"slug_ville":"melleran","departement_id":0,"code_postal":"79190","population":480,"superficie_km2":"2002.71","latitude_centre":"46.1315","longitude_centre":"0.0082","distance_km":3.4},{"id":0,"code_insee":"79152","nom_standard":"Lorigné","nom_a":null,"nom_de":null,"slug_ville":"lorigne","departement_id":0,"code_postal":"79190","population":303,"superficie_km2":"1108.93","latitude_centre":"46.1063","longitude_centre":"0.068","distance_km":3.86},{"id":0,"code_insee":"79095","nom_standard":"Clussais-la-Pommeraie","nom_a":null,"nom_de":null,"slug_ville":"clussais-la-pommeraie","departement_id":0,"code_postal":"79190","population":562,"superficie_km2":"3130.63","latitude_centre":"46.1866","longitude_centre":"0.0268","distance_km":5.61},{"id":0,"code_insee":"79307","nom_standard":"Sauzé-entre-Bois","nom_a":null,"nom_de":null,"slug_ville":"sauze-entre-bois","departement_id":0,"code_postal":"79190","population":2271,"superficie_km2":"6591.23","latitude_centre":"46.1625","longitude_centre":"0.1257","distance_km":6.32},{"id":0,"code_insee":"79136","nom_standard":"Alloinay","nom_a":null,"nom_de":null,"slug_ville":"alloinay","departement_id":0,"code_postal":"79110","population":914,"superficie_km2":"3280.43","latitude_centre":"46.1486","longitude_centre":"-0.035","distance_km":6.71},{"id":0,"code_insee":"79140","nom_standard":"Valdelaume","nom_a":null,"nom_de":null,"slug_ville":"valdelaume","departement_id":0,"code_postal":"79110","population":818,"superficie_km2":"5111.75","latitude_centre":"46.086","longitude_centre":"0.0009","distance_km":7.05},{"id":14202,"code_insee":"16142","nom_standard":"La Forêt-de-Tessé","nom_a":null,"nom_de":null,"slug_ville":"la-foret-de-tesse","departement_id":0,"code_postal":"16240","population":206,"superficie_km2":"1092.94","latitude_centre":"46.0755","longitude_centre":"0.0773","distance_km":7.35},{"id":14262,"code_insee":"16229","nom_standard":"Montjean","nom_a":null,"nom_de":null,"slug_ville":"montjean","departement_id":0,"code_postal":"16240","population":237,"superficie_km2":"813.61","latitude_centre":"46.0831","longitude_centre":"0.1122","distance_km":7.8},{"id":0,"code_insee":"79164","nom_standard":"Maisonnay","nom_a":null,"nom_de":null,"slug_ville":"maisonnay","departement_id":0,"code_postal":"79500","population":252,"superficie_km2":"519.78","latitude_centre":"46.1841","longitude_centre":"-0.0495","distance_km":9.22},{"id":14357,"code_insee":"16381","nom_standard":"Theil-Rabier","nom_a":null,"nom_de":null,"slug_ville":"theil-rabier","departement_id":0,"code_postal":"16240","population":164,"superficie_km2":"756.44","latitude_centre":"46.056","longitude_centre":"0.0418","distance_km":9.26},{"id":14234,"code_insee":"16189","nom_standard":"Londigny","nom_a":null,"nom_de":null,"slug_ville":"londigny","departement_id":0,"code_postal":"16700","population":237,"superficie_km2":"979.09","latitude_centre":"46.0854","longitude_centre":"0.1434","distance_km":9.29},{"id":0,"code_insee":"79243","nom_standard":"Saint-Coutant","nom_a":null,"nom_de":null,"slug_ville":"saint-coutant","departement_id":0,"code_postal":"79120","population":273,"superficie_km2":"1202.56","latitude_centre":"46.2203","longitude_centre":"0.0047","distance_km":9.72},{"id":14241,"code_insee":"16197","nom_standard":"La Magdeleine","nom_a":null,"nom_de":null,"slug_ville":"la-magdeleine","departement_id":0,"code_postal":"16240","population":118,"superficie_km2":"674.84","latitude_centre":"46.049","longitude_centre":"0.0788","distance_km":10.23},{"id":0,"code_insee":"79301","nom_standard":"Saint-Vincent-la-Châtre","nom_a":null,"nom_de":null,"slug_ville":"saint-vincent-la-chatre","departement_id":0,"code_postal":"79500","population":589,"superficie_km2":"2130.40","latitude_centre":"46.2073","longitude_centre":"-0.0395","distance_km":10.31},{"id":0,"code_insee":"79338","nom_standard":"Vanzay","nom_a":null,"nom_de":null,"slug_ville":"vanzay","departement_id":0,"code_postal":"79120","population":234,"superficie_km2":"1142.14","latitude_centre":"46.2284","longitude_centre":"0.1105","distance_km":10.95},{"id":14382,"code_insee":"16413","nom_standard":"Villiers-le-Roux","nom_a":null,"nom_de":null,"slug_ville":"villiers-le-roux","departement_id":0,"code_postal":"16240","population":171,"superficie_km2":"495.59","latitude_centre":"46.0497","longitude_centre":"0.1115","distance_km":10.97},{"id":0,"code_insee":"79297","nom_standard":"Sainte-Soline","nom_a":null,"nom_de":null,"slug_ville":"sainte-soline","departement_id":0,"code_postal":"79120","population":343,"superficie_km2":"2569.42","latitude_centre":"46.2489","longitude_centre":"0.0498","distance_km":12.22},{"id":14277,"code_insee":"16253","nom_standard":"Paizay-Naudouin-Embourie","nom_a":null,"nom_de":null,"slug_ville":"paizay-naudouin-embourie","departement_id":0,"code_postal":"16240","population":337,"superficie_km2":"2582.46","latitude_centre":"46.0318","longitude_centre":"0.0071","distance_km":12.39},{"id":14191,"code_insee":"16127","nom_standard":"Empuré","nom_a":null,"nom_de":null,"slug_ville":"empure","departement_id":0,"code_postal":"16240","population":100,"superficie_km2":"849.34","latitude_centre":"46.0252","longitude_centre":"0.0507","distance_km":12.65}]}