{"ville":{"id":17849,"code_insee":"28076","nom_standard":"La Chapelle-Forainvilliers","nom_a":null,"nom_de":null,"slug_ville":"la-chapelle-forainvilliers","departement_id":0,"code_postal":"28500","population":211,"superficie_km2":"542.84","latitude_centre":"48.7284","longitude_centre":"1.4916","dep_code":"28","dep_nom":"Eure-et-Loir","dep_slug":"eure-et-loir","reg_code":"24","reg_nom":"Centre-Val de Loire","reg_slug":"centre-val-de-loire"},"departement":{"code":"28","nom":"Eure-et-Loir","slug":"eure-et-loir"},"region":{"code":"24","nom":"Centre-Val de Loire","slug":"centre-val-de-loire"},"villes_proches":[{"id":0,"code_insee":"28292","nom_standard":"Ouerre","nom_a":null,"nom_de":null,"slug_ville":"ouerre","departement_id":0,"code_postal":"28500","population":785,"superficie_km2":"1273.23","latitude_centre":"48.7081","longitude_centre":"1.4938","distance_km":2.26},{"id":0,"code_insee":"28178","nom_standard":"Germainville","nom_a":null,"nom_de":null,"slug_ville":"germainville","departement_id":0,"code_postal":"28500","population":338,"superficie_km2":"879.27","latitude_centre":"48.7462","longitude_centre":"1.4735","distance_km":2.38},{"id":17841,"code_insee":"28062","nom_standard":"Broué","nom_a":null,"nom_de":null,"slug_ville":"broue","departement_id":0,"code_postal":"28410","population":837,"superficie_km2":"1219.41","latitude_centre":"48.752","longitude_centre":"1.5251","distance_km":3.59},{"id":0,"code_insee":"28251","nom_standard":"Mézières-en-Drouais","nom_a":null,"nom_de":null,"slug_ville":"mezieres-en-drouais","departement_id":0,"code_postal":"28500","population":1059,"superficie_km2":"850.82","latitude_centre":"48.7257","longitude_centre":"1.4419","distance_km":3.66},{"id":0,"code_insee":"28118","nom_standard":"Croisilles","nom_a":null,"nom_de":null,"slug_ville":"croisilles","departement_id":0,"code_postal":"28210","population":422,"superficie_km2":"574.46","latitude_centre":"48.6905","longitude_centre":"1.4984","distance_km":4.24},{"id":0,"code_insee":"28375","nom_standard":"Serville","nom_a":null,"nom_de":null,"slug_ville":"serville","departement_id":0,"code_postal":"28410","population":359,"superficie_km2":"564.93","latitude_centre":"48.7698","longitude_centre":"1.4889","distance_km":4.61},{"id":0,"code_insee":"28098","nom_standard":"Cherisy","nom_a":null,"nom_de":null,"slug_ville":"cherisy","departement_id":0,"code_postal":"28500","population":1842,"superficie_km2":"1244.66","latitude_centre":"48.7573","longitude_centre":"1.4359","distance_km":5.2},{"id":0,"code_insee":"28343","nom_standard":"Saint-Laurent-la-Gâtine","nom_a":null,"nom_de":null,"slug_ville":"saint-laurent-la-gatine","departement_id":0,"code_postal":"28210","population":470,"superficie_km2":"699.54","latitude_centre":"48.6924","longitude_centre":"1.54","distance_km":5.35},{"id":0,"code_insee":"28235","nom_standard":"Marchezais","nom_a":null,"nom_de":null,"slug_ville":"marchezais","departement_id":0,"code_postal":"28410","population":413,"superficie_km2":"222.21","latitude_centre":"48.775","longitude_centre":"1.5135","distance_km":5.42},{"id":0,"code_insee":"28136","nom_standard":"Écluzelles","nom_a":null,"nom_de":null,"slug_ville":"ecluzelles","departement_id":0,"code_postal":"28500","population":162,"superficie_km2":"326.48","latitude_centre":"48.7088","longitude_centre":"1.4218","distance_km":5.57},{"id":0,"code_insee":"28332","nom_standard":"Sainte-Gemme-Moronval","nom_a":null,"nom_de":null,"slug_ville":"sainte-gemme-moronval","departement_id":0,"code_postal":"28500","population":1114,"superficie_km2":"553.68","latitude_centre":"48.7357","longitude_centre":"1.416","distance_km":5.6},{"id":0,"code_insee":"28056","nom_standard":"Boutigny-Prouais","nom_a":null,"nom_de":null,"slug_ville":"boutigny-prouais","departement_id":0,"code_postal":"28410","population":1704,"superficie_km2":"3296.94","latitude_centre":"48.7363","longitude_centre":"1.5674","distance_km":5.63},{"id":0,"code_insee":"28082","nom_standard":"Charpont","nom_a":null,"nom_de":null,"slug_ville":"charpont","departement_id":0,"code_postal":"28500","population":622,"superficie_km2":"721.37","latitude_centre":"48.6945","longitude_centre":"1.4329","distance_km":5.72},{"id":0,"code_insee":"28299","nom_standard":"Les Pinthières","nom_a":null,"nom_de":null,"slug_ville":"les-pinthieres","departement_id":0,"code_postal":"28210","population":165,"superficie_km2":"404.30","latitude_centre":"48.7044","longitude_centre":"1.5748","distance_km":6.66},{"id":17839,"code_insee":"28058","nom_standard":"Bréchamps","nom_a":null,"nom_de":null,"slug_ville":"brechamps","departement_id":0,"code_postal":"28210","population":362,"superficie_km2":"550.70","latitude_centre":"48.6713","longitude_centre":"1.5193","distance_km":6.67},{"id":0,"code_insee":"28415","nom_standard":"Villemeux-sur-Eure","nom_a":null,"nom_de":null,"slug_ville":"villemeux-sur-eure","departement_id":0,"code_postal":"28210","population":1780,"superficie_km2":"1887.71","latitude_centre":"48.6678","longitude_centre":"1.4582","distance_km":7.17},{"id":0,"code_insee":"28193","nom_standard":"Havelu","nom_a":null,"nom_de":null,"slug_ville":"havelu","departement_id":0,"code_postal":"28410","population":127,"superficie_km2":"376.37","latitude_centre":"48.7873","longitude_centre":"1.5335","distance_km":7.23},{"id":0,"code_insee":"28185","nom_standard":"Goussainville","nom_a":null,"nom_de":null,"slug_ville":"goussainville","departement_id":0,"code_postal":"28410","population":1335,"superficie_km2":"1323.72","latitude_centre":"48.7831","longitude_centre":"1.5566","distance_km":7.73},{"id":0,"code_insee":"28094","nom_standard":"Chaudon","nom_a":null,"nom_de":null,"slug_ville":"chaudon","departement_id":0,"code_postal":"28210","population":1688,"superficie_km2":"1148.35","latitude_centre":"48.6561","longitude_centre":"1.496","distance_km":8.05},{"id":0,"code_insee":"28064","nom_standard":"Bû","nom_a":null,"nom_de":null,"slug_ville":"bu","departement_id":0,"code_postal":"28410","population":2077,"superficie_km2":"2303.52","latitude_centre":"48.8041","longitude_centre":"1.4888","distance_km":8.42}]}