{"ville":{"id":33872,"code_insee":"85074","nom_standard":"La Couture","nom_a":null,"nom_de":null,"slug_ville":"la-couture","departement_id":0,"code_postal":"85320","population":231,"superficie_km2":"713.42","latitude_centre":"46.5241","longitude_centre":"-1.2661","dep_code":"85","dep_nom":"Vendée","dep_slug":"vendee","reg_code":"52","reg_nom":"Pays de la Loire","reg_slug":"pays-de-la-loire"},"departement":{"code":"85","nom":"Vendée","slug":"vendee"},"region":{"code":"52","nom":"Pays de la Loire","slug":"pays-de-la-loire"},"villes_proches":[{"id":0,"code_insee":"85135","nom_standard":"Mareuil-sur-Lay-Dissais","nom_a":null,"nom_de":null,"slug_ville":"mareuil-sur-lay-dissais","departement_id":0,"code_postal":"85320","population":2808,"superficie_km2":"2590.34","latitude_centre":"46.5321","longitude_centre":"-1.2322","distance_km":2.74},{"id":0,"code_insee":"85193","nom_standard":"Rosnay","nom_a":null,"nom_de":null,"slug_ville":"rosnay","departement_id":0,"code_postal":"85320","population":672,"superficie_km2":"1421.04","latitude_centre":"46.5319","longitude_centre":"-1.3051","distance_km":3.11},{"id":33867,"code_insee":"85036","nom_standard":"La Bretonnière-la-Claye","nom_a":null,"nom_de":null,"slug_ville":"la-bretonniere-la-claye","departement_id":0,"code_postal":"85320","population":586,"superficie_km2":"1651.31","latitude_centre":"46.4917","longitude_centre":"-1.2624","distance_km":3.61},{"id":0,"code_insee":"85171","nom_standard":"Péault","nom_a":null,"nom_de":null,"slug_ville":"peault","departement_id":0,"code_postal":"85320","population":629,"superficie_km2":"911.50","latitude_centre":"46.5028","longitude_centre":"-1.2291","distance_km":3.69},{"id":0,"code_insee":"85061","nom_standard":"Château-Guibert","nom_a":null,"nom_de":null,"slug_ville":"chateau-guibert","departement_id":0,"code_postal":"85320","population":1584,"superficie_km2":"3524.64","latitude_centre":"46.575","longitude_centre":"-1.2638","distance_km":5.66},{"id":0,"code_insee":"85050","nom_standard":"Le Champ-Saint-Père","nom_a":null,"nom_de":null,"slug_ville":"le-champ-saint-pere","departement_id":0,"code_postal":"85540","population":2135,"superficie_km2":"2478.51","latitude_centre":"46.5121","longitude_centre":"-1.3396","distance_km":5.78},{"id":0,"code_insee":"85285","nom_standard":"Le Tablier","nom_a":null,"nom_de":null,"slug_ville":"le-tablier","departement_id":0,"code_postal":"85310","population":765,"superficie_km2":"926.69","latitude_centre":"46.5593","longitude_centre":"-1.327","distance_km":6.08},{"id":0,"code_insee":"85073","nom_standard":"Corpe","nom_a":null,"nom_de":null,"slug_ville":"corpe","departement_id":0,"code_postal":"85320","population":1024,"superficie_km2":"1711.34","latitude_centre":"46.5079","longitude_centre":"-1.1686","distance_km":7.67},{"id":33864,"code_insee":"85023","nom_standard":"Bessay","nom_a":null,"nom_de":null,"slug_ville":"bessay","departement_id":0,"code_postal":"85320","population":456,"superficie_km2":"1073.93","latitude_centre":"46.5418","longitude_centre":"-1.1679","distance_km":7.77},{"id":0,"code_insee":"85131","nom_standard":"Les Magnils-Reigniers","nom_a":null,"nom_de":null,"slug_ville":"les-magnils-reigniers","departement_id":0,"code_postal":"85400","population":1486,"superficie_km2":"1807.87","latitude_centre":"46.4585","longitude_centre":"-1.2134","distance_km":8.34},{"id":0,"code_insee":"85157","nom_standard":"Moutiers-sur-le-Lay","nom_a":null,"nom_de":null,"slug_ville":"moutiers-sur-le-lay","departement_id":0,"code_postal":"85320","population":843,"superficie_km2":"1843.36","latitude_centre":"46.5644","longitude_centre":"-1.1722","distance_km":8.46},{"id":0,"code_insee":"85117","nom_standard":"Lairoux","nom_a":null,"nom_de":null,"slug_ville":"lairoux","departement_id":0,"code_postal":"85400","population":602,"superficie_km2":"1332.63","latitude_centre":"46.4477","longitude_centre":"-1.2707","distance_km":8.5},{"id":0,"code_insee":"85206","nom_standard":"Saint-Cyr-en-Talmondais","nom_a":null,"nom_de":null,"slug_ville":"saint-cyr-en-talmondais","departement_id":0,"code_postal":"85540","population":403,"superficie_km2":"1396.86","latitude_centre":"46.4581","longitude_centre":"-1.3294","distance_km":8.79},{"id":0,"code_insee":"85077","nom_standard":"Curzon","nom_a":null,"nom_de":null,"slug_ville":"curzon","departement_id":0,"code_postal":"85540","population":481,"superficie_km2":"594.03","latitude_centre":"46.4494","longitude_centre":"-1.3051","distance_km":8.83},{"id":0,"code_insee":"85277","nom_standard":"Saint-Vincent-sur-Graon","nom_a":null,"nom_de":null,"slug_ville":"saint-vincent-sur-graon","departement_id":0,"code_postal":"85540","population":1615,"superficie_km2":"4900.71","latitude_centre":"46.5062","longitude_centre":"-1.3786","distance_km":8.84},{"id":0,"code_insee":"85213","nom_standard":"Rives de l'Yon","nom_a":null,"nom_de":null,"slug_ville":"rives-de-l-yon","departement_id":0,"code_postal":"85310","population":4335,"superficie_km2":"5456.55","latitude_centre":"46.5896","longitude_centre":"-1.3345","distance_km":8.97},{"id":33869,"code_insee":"85058","nom_standard":"Chasnais","nom_a":null,"nom_de":null,"slug_ville":"chasnais","departement_id":0,"code_postal":"85400","population":818,"superficie_km2":"1083.45","latitude_centre":"46.444","longitude_centre":"-1.2388","distance_km":9.15},{"id":0,"code_insee":"85291","nom_standard":"Thorigny","nom_a":null,"nom_de":null,"slug_ville":"thorigny","departement_id":0,"code_postal":"85480","population":1275,"superficie_km2":"3219.38","latitude_centre":"46.6153","longitude_centre":"-1.2441","distance_km":10.28},{"id":0,"code_insee":"85175","nom_standard":"Les Pineaux","nom_a":null,"nom_de":null,"slug_ville":"les-pineaux","departement_id":0,"code_postal":"85320","population":688,"superficie_km2":"1731.74","latitude_centre":"46.5988","longitude_centre":"-1.1739","distance_km":10.89},{"id":0,"code_insee":"85207","nom_standard":"Saint-Denis-du-Payré","nom_a":null,"nom_de":null,"slug_ville":"saint-denis-du-payre","departement_id":0,"code_postal":"85580","population":434,"superficie_km2":"1628.93","latitude_centre":"46.4085","longitude_centre":"-1.2769","distance_km":12.88}]}