{"ville":{"id":14202,"code_insee":"16142","nom_standard":"La Forêt-de-Tessé","nom_a":null,"nom_de":null,"slug_ville":"la-foret-de-tesse","departement_id":0,"code_postal":"16240","population":206,"superficie_km2":"1092.94","latitude_centre":"46.0755","longitude_centre":"0.0773","dep_code":"16","dep_nom":"Charente","dep_slug":"charente","reg_code":"75","reg_nom":"Nouvelle-Aquitaine","reg_slug":"nouvelle-aquitaine"},"departement":{"code":"16","nom":"Charente","slug":"charente"},"region":{"code":"75","nom":"Nouvelle-Aquitaine","slug":"nouvelle-aquitaine"},"villes_proches":[{"id":0,"code_insee":"16229","nom_standard":"Montjean","nom_a":null,"nom_de":null,"slug_ville":"montjean","departement_id":0,"code_postal":"16240","population":237,"superficie_km2":"813.61","latitude_centre":"46.0831","longitude_centre":"0.1122","distance_km":2.82},{"id":0,"code_insee":"16197","nom_standard":"La Magdeleine","nom_a":null,"nom_de":null,"slug_ville":"la-magdeleine","departement_id":0,"code_postal":"16240","population":118,"superficie_km2":"674.84","latitude_centre":"46.049","longitude_centre":"0.0788","distance_km":2.95},{"id":0,"code_insee":"16381","nom_standard":"Theil-Rabier","nom_a":null,"nom_de":null,"slug_ville":"theil-rabier","departement_id":0,"code_postal":"16240","population":164,"superficie_km2":"756.44","latitude_centre":"46.056","longitude_centre":"0.0418","distance_km":3.49},{"id":0,"code_insee":"79152","nom_standard":"Lorigné","nom_a":null,"nom_de":null,"slug_ville":"lorigne","departement_id":0,"code_postal":"79190","population":303,"superficie_km2":"1108.93","latitude_centre":"46.1063","longitude_centre":"0.068","distance_km":3.5},{"id":0,"code_insee":"16413","nom_standard":"Villiers-le-Roux","nom_a":null,"nom_de":null,"slug_ville":"villiers-le-roux","departement_id":0,"code_postal":"16240","population":171,"superficie_km2":"495.59","latitude_centre":"46.0497","longitude_centre":"0.1115","distance_km":3.9},{"id":0,"code_insee":"16189","nom_standard":"Londigny","nom_a":null,"nom_de":null,"slug_ville":"londigny","departement_id":0,"code_postal":"16700","population":237,"superficie_km2":"979.09","latitude_centre":"46.0854","longitude_centre":"0.1434","distance_km":5.22},{"id":0,"code_insee":"16335","nom_standard":"Saint-Martin-du-Clocher","nom_a":null,"nom_de":null,"slug_ville":"saint-martin-du-clocher","departement_id":0,"code_postal":"16700","population":126,"superficie_km2":"681.35","latitude_centre":"46.0678","longitude_centre":"0.1477","distance_km":5.5},{"id":14170,"code_insee":"16098","nom_standard":"La Chèvrerie","nom_a":null,"nom_de":null,"slug_ville":"la-chevrerie","departement_id":0,"code_postal":"16240","population":136,"superficie_km2":"468.55","latitude_centre":"46.0444","longitude_centre":"0.134","distance_km":5.58},{"id":14191,"code_insee":"16127","nom_standard":"Empuré","nom_a":null,"nom_de":null,"slug_ville":"empure","departement_id":0,"code_postal":"16240","population":100,"superficie_km2":"849.34","latitude_centre":"46.0252","longitude_centre":"0.0507","distance_km":5.96},{"id":0,"code_insee":"79140","nom_standard":"Valdelaume","nom_a":null,"nom_de":null,"slug_ville":"valdelaume","departement_id":0,"code_postal":"79110","population":818,"superficie_km2":"5111.75","latitude_centre":"46.086","longitude_centre":"0.0009","distance_km":6.01},{"id":0,"code_insee":"16253","nom_standard":"Paizay-Naudouin-Embourie","nom_a":null,"nom_de":null,"slug_ville":"paizay-naudouin-embourie","departement_id":0,"code_postal":"16240","population":337,"superficie_km2":"2582.46","latitude_centre":"46.0318","longitude_centre":"0.0071","distance_km":7.28},{"id":0,"code_insee":"79074","nom_standard":"La Chapelle-Pouilloux","nom_a":null,"nom_de":null,"slug_ville":"la-chapelle-pouilloux","departement_id":0,"code_postal":"79190","population":171,"superficie_km2":"793.67","latitude_centre":"46.139","longitude_centre":"0.051","distance_km":7.35},{"id":14128,"code_insee":"16039","nom_standard":"Bernac","nom_a":null,"nom_de":null,"slug_ville":"bernac","departement_id":0,"code_postal":"16700","population":465,"superficie_km2":"855.74","latitude_centre":"46.0543","longitude_centre":"0.1689","distance_km":7.45},{"id":0,"code_insee":"16409","nom_standard":"Villefagnan","nom_a":null,"nom_de":null,"slug_ville":"villefagnan","departement_id":0,"code_postal":"16240","population":972,"superficie_km2":"2400.16","latitude_centre":"46.0088","longitude_centre":"0.0939","distance_km":7.53},{"id":0,"code_insee":"79175","nom_standard":"Melleran","nom_a":null,"nom_de":null,"slug_ville":"melleran","departement_id":0,"code_postal":"79190","population":480,"superficie_km2":"2002.71","latitude_centre":"46.1315","longitude_centre":"0.0082","distance_km":8.19},{"id":0,"code_insee":"16273","nom_standard":"Raix","nom_a":null,"nom_de":null,"slug_ville":"raix","departement_id":0,"code_postal":"16240","population":134,"superficie_km2":"691.91","latitude_centre":"46.003","longitude_centre":"0.1167","distance_km":8.62},{"id":14198,"code_insee":"16136","nom_standard":"La Faye","nom_a":null,"nom_de":null,"slug_ville":"la-faye","departement_id":0,"code_postal":"16700","population":617,"superficie_km2":"1361.51","latitude_centre":"46.0198","longitude_centre":"0.1601","distance_km":8.9},{"id":0,"code_insee":"79163","nom_standard":"Mairé-Levescault","nom_a":null,"nom_de":null,"slug_ville":"maire-levescault","departement_id":0,"code_postal":"79190","population":582,"superficie_km2":"1757.65","latitude_centre":"46.1562","longitude_centre":"0.0748","distance_km":8.98},{"id":14145,"code_insee":"16059","nom_standard":"Brettes","nom_a":null,"nom_de":null,"slug_ville":"brettes","departement_id":0,"code_postal":"16240","population":162,"superficie_km2":"1241.02","latitude_centre":"45.9975","longitude_centre":"0.026","distance_km":9.53},{"id":0,"code_insee":"79307","nom_standard":"Sauzé-entre-Bois","nom_a":null,"nom_de":null,"slug_ville":"sauze-entre-bois","departement_id":0,"code_postal":"79190","population":2271,"superficie_km2":"6591.23","latitude_centre":"46.1625","longitude_centre":"0.1257","distance_km":10.37}]}