{"ville":{"id":31774,"code_insee":"76261","nom_standard":"La Ferté-Saint-Samson","nom_a":null,"nom_de":null,"slug_ville":"la-ferte-saint-samson","departement_id":0,"code_postal":"76440","population":449,"superficie_km2":"1902.75","latitude_centre":"49.5769","longitude_centre":"1.5389","dep_code":"76","dep_nom":"Seine-Maritime","dep_slug":"seine-maritime","reg_code":"28","reg_nom":"Normandie","reg_slug":"normandie"},"departement":{"code":"76","nom":"Seine-Maritime","slug":"seine-maritime"},"region":{"code":"28","nom":"Normandie","slug":"normandie"},"villes_proches":[{"id":0,"code_insee":"76426","nom_standard":"Mésangueville","nom_a":null,"nom_de":null,"slug_ville":"mesangueville","departement_id":0,"code_postal":"76780","population":154,"superficie_km2":"1062.60","latitude_centre":"49.5592","longitude_centre":"1.5668","distance_km":2.81},{"id":31610,"code_insee":"76025","nom_standard":"Argueil","nom_a":null,"nom_de":null,"slug_ville":"argueil","departement_id":0,"code_postal":"76780","population":349,"superficie_km2":"695.46","latitude_centre":"49.548","longitude_centre":"1.5331","distance_km":3.24},{"id":0,"code_insee":"76276","nom_standard":"Forges-les-Eaux","nom_a":null,"nom_de":null,"slug_ville":"forges-les-eaux","departement_id":0,"code_postal":"76440","population":3642,"superficie_km2":"1544.83","latitude_centre":"49.6104","longitude_centre":"1.5644","distance_km":4.15},{"id":0,"code_insee":"76544","nom_standard":"Rouvray-Catillon","nom_a":null,"nom_de":null,"slug_ville":"rouvray-catillon","departement_id":0,"code_postal":"76440","population":223,"superficie_km2":"1230.77","latitude_centre":"49.5788","longitude_centre":"1.4784","distance_km":4.37},{"id":31643,"code_insee":"76074","nom_standard":"La Bellière","nom_a":null,"nom_de":null,"slug_ville":"la-belliere","departement_id":0,"code_postal":"76440","population":50,"superficie_km2":"455.09","latitude_centre":"49.6062","longitude_centre":"1.6014","distance_km":5.56},{"id":0,"code_insee":"76672","nom_standard":"Serqueux","nom_a":null,"nom_de":null,"slug_ville":"serqueux","departement_id":0,"code_postal":"76440","population":943,"superficie_km2":"574.30","latitude_centre":"49.6281","longitude_centre":"1.541","distance_km":5.7},{"id":0,"code_insee":"76666","nom_standard":"Saumont-la-Poterie","nom_a":null,"nom_de":null,"slug_ville":"saumont-la-poterie","departement_id":0,"code_postal":"76440","population":412,"superficie_km2":"1611.35","latitude_centre":"49.5759","longitude_centre":"1.6188","distance_km":5.76},{"id":0,"code_insee":"76364","nom_standard":"Hodeng-Hodenger","nom_a":null,"nom_de":null,"slug_ville":"hodeng-hodenger","departement_id":0,"code_postal":"76780","population":294,"superficie_km2":"1162.96","latitude_centre":"49.5363","longitude_centre":"1.5892","distance_km":5.79},{"id":0,"code_insee":"76292","nom_standard":"Fry","nom_a":null,"nom_de":null,"slug_ville":"fry","departement_id":0,"code_postal":"76780","population":139,"superficie_km2":"802.69","latitude_centre":"49.5243","longitude_centre":"1.5388","distance_km":5.85},{"id":0,"code_insee":"76535","nom_standard":"Roncherolles-en-Bray","nom_a":null,"nom_de":null,"slug_ville":"roncherolles-en-bray","departement_id":0,"code_postal":"76440","population":477,"superficie_km2":"1453.58","latitude_centre":"49.6127","longitude_centre":"1.4793","distance_km":5.86},{"id":0,"code_insee":"76676","nom_standard":"Sigy-en-Bray","nom_a":null,"nom_de":null,"slug_ville":"sigy-en-bray","departement_id":0,"code_postal":"76780","population":490,"superficie_km2":"1823.22","latitude_centre":"49.5464","longitude_centre":"1.4706","distance_km":5.98},{"id":0,"code_insee":"76420","nom_standard":"Mauquenchy","nom_a":null,"nom_de":null,"slug_ville":"mauquenchy","departement_id":0,"code_postal":"76440","population":365,"superficie_km2":"1272.67","latitude_centre":"49.6002","longitude_centre":"1.4597","distance_km":6.27},{"id":0,"code_insee":"76431","nom_standard":"Le Mesnil-Lieubray","nom_a":null,"nom_de":null,"slug_ville":"le-mesnil-lieubray","departement_id":0,"code_postal":"76780","population":92,"superficie_km2":"591.64","latitude_centre":"49.5173","longitude_centre":"1.5061","distance_km":7.04},{"id":0,"code_insee":"76691","nom_standard":"Le Thil-Riberpré","nom_a":null,"nom_de":null,"slug_ville":"le-thil-riberpre","departement_id":0,"code_postal":"76440","population":241,"superficie_km2":"1008.65","latitude_centre":"49.634","longitude_centre":"1.5837","distance_km":7.12},{"id":0,"code_insee":"76393","nom_standard":"Longmesnil","nom_a":null,"nom_de":null,"slug_ville":"longmesnil","departement_id":0,"code_postal":"76440","population":45,"superficie_km2":"393.66","latitude_centre":"49.6218","longitude_centre":"1.6133","distance_km":7.33},{"id":0,"code_insee":"76505","nom_standard":"Pommereux","nom_a":null,"nom_de":null,"slug_ville":"pommereux","departement_id":0,"code_postal":"76440","population":94,"superficie_km2":"536.07","latitude_centre":"49.6112","longitude_centre":"1.6304","distance_km":7.62},{"id":0,"code_insee":"76338","nom_standard":"La Hallotière","nom_a":null,"nom_de":null,"slug_ville":"la-hallotiere","departement_id":0,"code_postal":"76780","population":200,"superficie_km2":"371.40","latitude_centre":"49.5212","longitude_centre":"1.4765","distance_km":7.66},{"id":31632,"code_insee":"76060","nom_standard":"Beaubec-la-Rosière","nom_a":null,"nom_de":null,"slug_ville":"beaubec-la-rosiere","departement_id":0,"code_postal":"76440","population":457,"superficie_km2":"1302.25","latitude_centre":"49.6471","longitude_centre":"1.5098","distance_km":8.08},{"id":31722,"code_insee":"76185","nom_standard":"Compainville","nom_a":null,"nom_de":null,"slug_ville":"compainville","departement_id":0,"code_postal":"76440","population":159,"superficie_km2":"643.41","latitude_centre":"49.6569","longitude_centre":"1.5636","distance_km":9.07},{"id":0,"code_insee":"76432","nom_standard":"Mesnil-Mauger","nom_a":null,"nom_de":null,"slug_ville":"mesnil-mauger","departement_id":0,"code_postal":"76440","population":243,"superficie_km2":"836.18","latitude_centre":"49.6708","longitude_centre":"1.5247","distance_km":10.49}]}