{"ville":{"id":28181,"code_insee":"63169","nom_standard":"La Godivelle","nom_a":null,"nom_de":null,"slug_ville":"la-godivelle","departement_id":0,"code_postal":"63850","population":19,"superficie_km2":"1546.04","latitude_centre":"45.3921","longitude_centre":"2.9205","dep_code":"63","dep_nom":"Puy-de-Dôme","dep_slug":"puy-de-dome","reg_code":"84","reg_nom":"Auvergne-Rhône-Alpes","reg_slug":"auvergne-rhone-alpes"},"departement":{"code":"63","nom":"Puy-de-Dôme","slug":"puy-de-dome"},"region":{"code":"84","nom":"Auvergne-Rhône-Alpes","slug":"auvergne-rhone-alpes"},"villes_proches":[{"id":28166,"code_insee":"63153","nom_standard":"Espinchal","nom_a":null,"nom_de":null,"slug_ville":"espinchal","departement_id":0,"code_postal":"63850","population":72,"superficie_km2":"891.14","latitude_centre":"45.3942","longitude_centre":"2.8789","distance_km":3.26},{"id":0,"code_insee":"63313","nom_standard":"Saint-Alyre-ès-Montagne","nom_a":null,"nom_de":null,"slug_ville":"saint-alyre-es-montagne","departement_id":0,"code_postal":"63420","population":102,"superficie_km2":"4127.29","latitude_centre":"45.3816","longitude_centre":"2.971","distance_km":4.11},{"id":13995,"code_insee":"15132","nom_standard":"Montgreleix","nom_a":null,"nom_de":null,"slug_ville":"montgreleix","departement_id":0,"code_postal":"15190","population":31,"superficie_km2":"1759.55","latitude_centre":"45.3571","longitude_centre":"2.8874","distance_km":4.67},{"id":28143,"code_insee":"63117","nom_standard":"Compains","nom_a":null,"nom_de":null,"slug_ville":"compains","departement_id":0,"code_postal":"63610","population":125,"superficie_km2":"5044.51","latitude_centre":"45.4357","longitude_centre":"2.925","distance_km":4.86},{"id":13915,"code_insee":"15040","nom_standard":"Chanterelle","nom_a":null,"nom_de":null,"slug_ville":"chanterelle","departement_id":0,"code_postal":"15190","population":99,"superficie_km2":"1945.78","latitude_centre":"45.3761","longitude_centre":"2.8308","distance_km":7.23},{"id":28160,"code_insee":"63144","nom_standard":"Égliseneuve-d'Entraigues","nom_a":null,"nom_de":null,"slug_ville":"egliseneuve-d-entraigues","departement_id":0,"code_postal":"63850","population":328,"superficie_km2":"5677.22","latitude_centre":"45.4264","longitude_centre":"2.8196","distance_km":8.75},{"id":0,"code_insee":"63303","nom_standard":"Roche-Charles-la-Mayrand","nom_a":null,"nom_de":null,"slug_ville":"roche-charles-la-mayrand","departement_id":0,"code_postal":"63420","population":39,"superficie_km2":"1636.54","latitude_centre":"45.4505","longitude_centre":"3.0182","distance_km":10.02},{"id":0,"code_insee":"63220","nom_standard":"Mazoires","nom_a":null,"nom_de":null,"slug_ville":"mazoires","departement_id":0,"code_postal":"63420","population":97,"superficie_km2":"4243.50","latitude_centre":"45.3955","longitude_centre":"3.0488","distance_km":10.03},{"id":28066,"code_insee":"63006","nom_standard":"Anzat-le-Luguet","nom_a":null,"nom_de":null,"slug_ville":"anzat-le-luguet","departement_id":0,"code_postal":"63420","population":167,"superficie_km2":"6663.16","latitude_centre":"45.3265","longitude_centre":"3.0104","distance_km":10.13},{"id":13981,"code_insee":"15114","nom_standard":"Marcenat","nom_a":null,"nom_de":null,"slug_ville":"marcenat","departement_id":0,"code_postal":"15190","population":508,"superficie_km2":"5120.25","latitude_centre":"45.3119","longitude_centre":"2.8569","distance_km":10.21},{"id":0,"code_insee":"63440","nom_standard":"Valbeleix","nom_a":null,"nom_de":null,"slug_ville":"valbeleix","departement_id":0,"code_postal":"63610","population":149,"superficie_km2":"2277.65","latitude_centre":"45.4763","longitude_centre":"2.9895","distance_km":10.8},{"id":13928,"code_insee":"15054","nom_standard":"Condat","nom_a":null,"nom_de":null,"slug_ville":"condat","departement_id":0,"code_postal":"15190","population":933,"superficie_km2":"4055.56","latitude_centre":"45.3493","longitude_centre":"2.7964","distance_km":10.8},{"id":0,"code_insee":"63038","nom_standard":"Besse-et-Saint-Anastaise","nom_a":null,"nom_de":null,"slug_ville":"besse-et-saint-anastaise","departement_id":0,"code_postal":"63610","population":1442,"superficie_km2":"7285.29","latitude_centre":"45.4984","longitude_centre":"2.9103","distance_km":11.85},{"id":14009,"code_insee":"15155","nom_standard":"Pradiers","nom_a":null,"nom_de":null,"slug_ville":"pradiers","departement_id":0,"code_postal":"15160","population":81,"superficie_km2":"2374.93","latitude_centre":"45.2834","longitude_centre":"2.9191","distance_km":12.09},{"id":14092,"code_insee":"15256","nom_standard":"Vèze","nom_a":null,"nom_de":null,"slug_ville":"veze","departement_id":0,"code_postal":"15160","population":65,"superficie_km2":"2601.13","latitude_centre":"45.2795","longitude_centre":"2.9804","distance_km":13.37},{"id":0,"code_insee":"63279","nom_standard":"Picherande","nom_a":null,"nom_de":null,"slug_ville":"picherande","departement_id":0,"code_postal":"63113","population":324,"superficie_km2":"4515.59","latitude_centre":"45.4741","longitude_centre":"2.7875","distance_km":13.81},{"id":13961,"code_insee":"15091","nom_standard":"Landeyrat","nom_a":null,"nom_de":null,"slug_ville":"landeyrat","departement_id":0,"code_postal":"15160","population":84,"superficie_km2":"2139.83","latitude_centre":"45.2734","longitude_centre":"2.8682","distance_km":13.82},{"id":0,"code_insee":"63383","nom_standard":"Saint-Pierre-Colamine","nom_a":null,"nom_de":null,"slug_ville":"saint-pierre-colamine","departement_id":0,"code_postal":"63610","population":247,"superficie_km2":"1750.96","latitude_centre":"45.5123","longitude_centre":"2.9752","distance_km":14.03},{"id":14024,"code_insee":"15173","nom_standard":"Saint-Bonnet-de-Condat","nom_a":null,"nom_de":null,"slug_ville":"saint-bonnet-de-condat","departement_id":0,"code_postal":"15190","population":113,"superficie_km2":"1735.53","latitude_centre":"45.2786","longitude_centre":"2.8094","distance_km":15.32},{"id":0,"code_insee":"63401","nom_standard":"Saint-Victor-la-Rivière","nom_a":null,"nom_de":null,"slug_ville":"saint-victor-la-riviere","departement_id":0,"code_postal":"63790","population":239,"superficie_km2":"1917.76","latitude_centre":"45.5464","longitude_centre":"2.9359","distance_km":17.2}]}