{"ville":{"id":5278,"code_insee":"56061","nom_standard":"La Gacilly","nom_a":null,"nom_de":null,"slug_ville":"la-gacilly","departement_id":657,"code_postal":"56200","population":3993,"superficie_km2":"17.00","latitude_centre":"47.7729988","longitude_centre":"-2.1559999","dep_code":"56","dep_nom":"Morbihan","dep_slug":"morbihan","reg_code":"03","reg_nom":"Bretagne","reg_slug":"bretagne"},"departement":{"code":"56","nom":"Morbihan","slug":"morbihan"},"region":{"code":"03","nom":"Bretagne","slug":"bretagne"},"villes_proches":[{"id":5263,"code_insee":"56033","nom_standard":"Carentoir","nom_a":null,"nom_de":null,"slug_ville":"carentoir","departement_id":657,"code_postal":"56910","population":3043,"superficie_km2":"59.00","latitude_centre":"47.8199997","longitude_centre":"-2.1459999","distance_km":5.28},{"id":5397,"code_insee":"56239","nom_standard":"Saint-Vincent-sur-Oust","nom_a":null,"nom_de":null,"slug_ville":"saint-vincent-sur-oust","departement_id":657,"code_postal":"56350","population":1616,"superficie_km2":"16.00","latitude_centre":"47.7019997","longitude_centre":"-2.1480000","distance_km":7.92},{"id":5341,"code_insee":"56154","nom_standard":"Peillac","nom_a":null,"nom_de":null,"slug_ville":"peillac","departement_id":657,"code_postal":"56220","population":1857,"superficie_km2":"25.00","latitude_centre":"47.7150002","longitude_centre":"-2.2190001","distance_km":7.99},{"id":3398,"code_insee":"35328","nom_standard":"Sixt-sur-Aff","nom_a":null,"nom_de":null,"slug_ville":"sixt-sur-aff","departement_id":636,"code_postal":"35550","population":2163,"superficie_km2":"43.00","latitude_centre":"47.7750015","longitude_centre":"-2.0490000","distance_km":8},{"id":5391,"code_insee":"56229","nom_standard":"Saint-Martin-sur-Oust","nom_a":null,"nom_de":null,"slug_ville":"saint-martin-sur-oust","departement_id":657,"code_postal":"56200","population":1298,"superficie_km2":"28.00","latitude_centre":"47.7630005","longitude_centre":"-2.2639999","distance_km":8.15},{"id":3202,"code_insee":"35013","nom_standard":"Bains-sur-Oust","nom_a":null,"nom_de":null,"slug_ville":"bains-sur-oust","departement_id":636,"code_postal":"35600","population":3502,"superficie_km2":"45.00","latitude_centre":"47.7120018","longitude_centre":"-2.0750000","distance_km":9.09},{"id":5378,"code_insee":"56200","nom_standard":"Ruffiac","nom_a":null,"nom_de":null,"slug_ville":"ruffiac","departement_id":657,"code_postal":"56140","population":1370,"superficie_km2":"37.00","latitude_centre":"47.8139992","longitude_centre":"-2.2850001","distance_km":10.66},{"id":5387,"code_insee":"56221","nom_standard":"Saint-Jacut-les-Pins","nom_a":null,"nom_de":null,"slug_ville":"saint-jacut-les-pins","departement_id":657,"code_postal":"56220","population":1734,"superficie_km2":"23.00","latitude_centre":"47.6780014","longitude_centre":"-2.2119999","distance_km":11.36},{"id":5393,"code_insee":"56232","nom_standard":"Saint-Perreux","nom_a":null,"nom_de":null,"slug_ville":"saint-perreux","departement_id":657,"code_postal":"56350","population":1065,"superficie_km2":"6.00","latitude_centre":"47.6720009","longitude_centre":"-2.1229999","distance_km":11.5},{"id":3344,"code_insee":"35236","nom_standard":"Redon","nom_a":null,"nom_de":null,"slug_ville":"redon","departement_id":636,"code_postal":"35600","population":9312,"superficie_km2":"15.00","latitude_centre":"47.6609993","longitude_centre":"-2.0799999","distance_km":13.69},{"id":3381,"code_insee":"35294","nom_standard":"Sainte-Marie","nom_a":null,"nom_de":null,"slug_ville":"sainte-marie","departement_id":636,"code_postal":"35600","population":2266,"superficie_km2":"25.00","latitude_centre":"47.6940002","longitude_centre":"-2.0130000","distance_km":13.84},{"id":3376,"code_insee":"35285","nom_standard":"Saint-Just","nom_a":null,"nom_de":null,"slug_ville":"saint-just","departement_id":636,"code_postal":"35550","population":1087,"superficie_km2":"28.00","latitude_centre":"47.7639999","longitude_centre":"-1.9690000","distance_km":14.01},{"id":5389,"code_insee":"56223","nom_standard":"Saint-Jean-la-Poterie","nom_a":null,"nom_de":null,"slug_ville":"saint-jean-la-poterie","departement_id":657,"code_postal":"56350","population":1444,"superficie_km2":"8.00","latitude_centre":"47.6450005","longitude_centre":"-2.1229999","distance_km":14.45},{"id":5316,"code_insee":"56123","nom_standard":"Malansac","nom_a":null,"nom_de":null,"slug_ville":"malansac","departement_id":657,"code_postal":"56220","population":2244,"superficie_km2":"36.00","latitude_centre":"47.6860008","longitude_centre":"-2.3000000","distance_km":14.48},{"id":5236,"code_insee":"56001","nom_standard":"Allaire","nom_a":null,"nom_de":null,"slug_ville":"allaire","departement_id":657,"code_postal":"56350","population":3875,"superficie_km2":"42.00","latitude_centre":"47.6389999","longitude_centre":"-2.1770000","distance_km":14.98},{"id":5286,"code_insee":"56075","nom_standard":"Guer","nom_a":null,"nom_de":null,"slug_ville":"guer","departement_id":657,"code_postal":"56380","population":6068,"superficie_km2":"52.00","latitude_centre":"47.9070015","longitude_centre":"-2.1289999","distance_km":15.04},{"id":3345,"code_insee":"35237","nom_standard":"Renac","nom_a":null,"nom_de":null,"slug_ville":"renac","departement_id":636,"code_postal":"35660","population":1036,"superficie_km2":"26.00","latitude_centre":"47.7280006","longitude_centre":"-1.9660000","distance_km":15.06},{"id":5326,"code_insee":"56133","nom_standard":"Missiriac","nom_a":null,"nom_de":null,"slug_ville":"missiriac","departement_id":657,"code_postal":"56140","population":1180,"superficie_km2":"13.00","latitude_centre":"47.8240013","longitude_centre":"-2.3559999","distance_km":15.98},{"id":5265,"code_insee":"56035","nom_standard":"Caro","nom_a":null,"nom_de":null,"slug_ville":"caro","departement_id":657,"code_postal":"56140","population":1138,"superficie_km2":"38.00","latitude_centre":"47.8619995","longitude_centre":"-2.3280001","distance_km":16.21},{"id":3330,"code_insee":"35219","nom_standard":"Pipriac","nom_a":null,"nom_de":null,"slug_ville":"pipriac","departement_id":636,"code_postal":"35550","population":3870,"superficie_km2":"49.00","latitude_centre":"47.8120003","longitude_centre":"-1.9380000","distance_km":16.85}]}