{"ville":{"id":17572,"code_insee":"27361","nom_standard":"La Lande-Saint-Léger","nom_a":null,"nom_de":null,"slug_ville":"la-lande-saint-leger","departement_id":0,"code_postal":"27210","population":405,"superficie_km2":"794.46","latitude_centre":"49.2946","longitude_centre":"0.339","dep_code":"27","dep_nom":"Eure","dep_slug":"eure","reg_code":"28","reg_nom":"Normandie","reg_slug":"normandie"},"departement":{"code":"27","nom":"Eure","slug":"eure"},"region":{"code":"28","nom":"Normandie","slug":"normandie"},"villes_proches":[{"id":13528,"code_insee":"14085","nom_standard":"Bonneville-la-Louvet","nom_a":null,"nom_de":null,"slug_ville":"bonneville-la-louvet","departement_id":0,"code_postal":"14130","population":825,"superficie_km2":"2088.98","latitude_centre":"49.2748","longitude_centre":"0.3364","distance_km":2.21},{"id":0,"code_insee":"27393","nom_standard":"Martainville","nom_a":null,"nom_de":null,"slug_ville":"martainville","departement_id":0,"code_postal":"27210","population":498,"superficie_km2":"892.03","latitude_centre":"49.3009","longitude_centre":"0.3835","distance_km":3.3},{"id":13770,"code_insee":"14555","nom_standard":"Saint-André-d'Hébertot","nom_a":null,"nom_de":null,"slug_ville":"saint-andre-d-hebertot","departement_id":0,"code_postal":"14130","population":451,"superficie_km2":"985.33","latitude_centre":"49.3005","longitude_centre":"0.2862","distance_km":3.88},{"id":17395,"code_insee":"27071","nom_standard":"Le Bois-Hellain","nom_a":null,"nom_de":null,"slug_ville":"le-bois-hellain","departement_id":0,"code_postal":"27260","population":219,"superficie_km2":"318.87","latitude_centre":"49.2761","longitude_centre":"0.3912","distance_km":4.31},{"id":13501,"code_insee":"14032","nom_standard":"Les Authieux-sur-Calonne","nom_a":null,"nom_de":null,"slug_ville":"les-authieux-sur-calonne","departement_id":0,"code_postal":"14130","population":278,"superficie_km2":"1027.94","latitude_centre":"49.2842","longitude_centre":"0.278","distance_km":4.57},{"id":17440,"code_insee":"27146","nom_standard":"La Chapelle-Bayvel","nom_a":null,"nom_de":null,"slug_ville":"la-chapelle-bayvel","departement_id":0,"code_postal":"27260","population":387,"superficie_km2":"499.63","latitude_centre":"49.2843","longitude_centre":"0.4033","distance_km":4.8},{"id":0,"code_insee":"27065","nom_standard":"Beuzeville","nom_a":null,"nom_de":null,"slug_ville":"beuzeville","departement_id":0,"code_postal":"27210","population":4704,"superficie_km2":"2330.41","latitude_centre":"49.3407","longitude_centre":"0.3387","distance_km":5.13},{"id":0,"code_insee":"27646","nom_standard":"Le Torpt","nom_a":null,"nom_de":null,"slug_ville":"le-torpt","departement_id":0,"code_postal":"27210","population":469,"superficie_km2":"661.79","latitude_centre":"49.3328","longitude_centre":"0.3846","distance_km":5.38},{"id":13772,"code_insee":"14563","nom_standard":"Saint-Benoît-d'Hébertot","nom_a":null,"nom_de":null,"slug_ville":"saint-benoit-d-hebertot","departement_id":0,"code_postal":"14130","population":446,"superficie_km2":"719.76","latitude_centre":"49.3245","longitude_centre":"0.2766","distance_km":5.61},{"id":0,"code_insee":"27170","nom_standard":"Cormeilles","nom_a":null,"nom_de":null,"slug_ville":"cormeilles","departement_id":0,"code_postal":"27260","population":1105,"superficie_km2":"308.59","latitude_centre":"49.251","longitude_centre":"0.384","distance_km":5.84},{"id":17509,"code_insee":"27258","nom_standard":"Fort-Moville","nom_a":null,"nom_de":null,"slug_ville":"fort-moville","departement_id":0,"code_postal":"27210","population":501,"superficie_km2":"927.60","latitude_centre":"49.3321","longitude_centre":"0.3974","distance_km":5.94},{"id":13619,"code_insee":"14261","nom_standard":"Le Faulq","nom_a":null,"nom_de":null,"slug_ville":"le-faulq","departement_id":0,"code_postal":"14130","population":319,"superficie_km2":"448.11","latitude_centre":"49.2398","longitude_centre":"0.3207","distance_km":6.24},{"id":13757,"code_insee":"14528","nom_standard":"Quetteville","nom_a":null,"nom_de":null,"slug_ville":"quetteville","departement_id":0,"code_postal":"14130","population":397,"superficie_km2":"1032.11","latitude_centre":"49.3449","longitude_centre":"0.3006","distance_km":6.25},{"id":0,"code_insee":"27591","nom_standard":"Saint-Pierre-de-Cormeilles","nom_a":null,"nom_de":null,"slug_ville":"saint-pierre-de-cormeilles","departement_id":0,"code_postal":"27260","population":592,"superficie_km2":"1746.76","latitude_centre":"49.2403","longitude_centre":"0.365","distance_km":6.33},{"id":13522,"code_insee":"14077","nom_standard":"Blangy-le-Château","nom_a":null,"nom_de":null,"slug_ville":"blangy-le-chateau","departement_id":0,"code_postal":"14130","population":828,"superficie_km2":"1065.45","latitude_centre":"49.2501","longitude_centre":"0.2813","distance_km":6.48},{"id":13704,"code_insee":"14426","nom_standard":"Le Mesnil-sur-Blangy","nom_a":null,"nom_de":null,"slug_ville":"le-mesnil-sur-blangy","departement_id":0,"code_postal":"14130","population":175,"superficie_km2":"739.45","latitude_centre":"49.2591","longitude_centre":"0.2637","distance_km":6.74},{"id":13540,"code_insee":"14104","nom_standard":"Le Brévedent","nom_a":null,"nom_de":null,"slug_ville":"le-brevedent","departement_id":0,"code_postal":"14130","population":201,"superficie_km2":"446.95","latitude_centre":"49.2278","longitude_centre":"0.2926","distance_km":8.16},{"id":13640,"code_insee":"14299","nom_standard":"Genneville","nom_a":null,"nom_de":null,"slug_ville":"genneville","departement_id":0,"code_postal":"14600","population":806,"superficie_km2":"949.06","latitude_centre":"49.3568","longitude_centre":"0.2762","distance_km":8.28},{"id":0,"code_insee":"27384","nom_standard":"Manneville-la-Raoult","nom_a":null,"nom_de":null,"slug_ville":"manneville-la-raoult","departement_id":0,"code_postal":"27210","population":474,"superficie_km2":"737.53","latitude_centre":"49.3728","longitude_centre":"0.3308","distance_km":8.72},{"id":13746,"code_insee":"14504","nom_standard":"Le Pin","nom_a":null,"nom_de":null,"slug_ville":"le-pin","departement_id":0,"code_postal":"14590","population":797,"superficie_km2":"1155.21","latitude_centre":"49.2124","longitude_centre":"0.3448","distance_km":9.15}]}