{"ville":{"id":23647,"code_insee":"51397","nom_standard":"La Neuville-aux-Bois","nom_a":null,"nom_de":null,"slug_ville":"la-neuville-aux-bois","departement_id":0,"code_postal":"51330","population":138,"superficie_km2":"1459.71","latitude_centre":"48.9681","longitude_centre":"4.8937","dep_code":"51","dep_nom":"Marne","dep_slug":"marne","reg_code":"44","reg_nom":"Grand Est","reg_slug":"grand-est"},"departement":{"code":"51","nom":"Marne","slug":"marne"},"region":{"code":"44","nom":"Grand Est","slug":"grand-est"},"villes_proches":[{"id":0,"code_insee":"51619","nom_standard":"Le Vieil-Dampierre","nom_a":null,"nom_de":null,"slug_ville":"le-vieil-dampierre","departement_id":0,"code_postal":"51330","population":102,"superficie_km2":"1382.19","latitude_centre":"48.98","longitude_centre":"4.9188","distance_km":2.26},{"id":23544,"code_insee":"51272","nom_standard":"Givry-en-Argonne","nom_a":null,"nom_de":null,"slug_ville":"givry-en-argonne","departement_id":0,"code_postal":"51330","population":448,"superficie_km2":"748.51","latitude_centre":"48.9482","longitude_centre":"4.9113","distance_km":2.56},{"id":0,"code_insee":"51456","nom_standard":"Remicourt","nom_a":null,"nom_de":null,"slug_ville":"remicourt","departement_id":0,"code_postal":"51330","population":58,"superficie_km2":"944.57","latitude_centre":"48.9494","longitude_centre":"4.8547","distance_km":3.53},{"id":23431,"code_insee":"51133","nom_standard":"Le Châtelier","nom_a":null,"nom_de":null,"slug_ville":"le-chatelier","departement_id":0,"code_postal":"51330","population":63,"superficie_km2":"1074.90","latitude_centre":"48.9411","longitude_centre":"4.9226","distance_km":3.67},{"id":0,"code_insee":"51537","nom_standard":"Sivry-Ante","nom_a":null,"nom_de":null,"slug_ville":"sivry-ante","departement_id":0,"code_postal":"51800","population":177,"superficie_km2":"2165.92","latitude_centre":"49.0025","longitude_centre":"4.9048","distance_km":3.91},{"id":23510,"code_insee":"51229","nom_standard":"Épense","nom_a":null,"nom_de":null,"slug_ville":"epense","departement_id":0,"code_postal":"51330","population":117,"superficie_km2":"1136.74","latitude_centre":"48.9737","longitude_centre":"4.8329","distance_km":4.48},{"id":0,"code_insee":"51500","nom_standard":"Saint-Mard-sur-le-Mont","nom_a":null,"nom_de":null,"slug_ville":"saint-mard-sur-le-mont","departement_id":0,"code_postal":"51330","population":114,"superficie_km2":"1371.37","latitude_centre":"48.9242","longitude_centre":"4.8543","distance_km":5.67},{"id":23388,"code_insee":"51083","nom_standard":"Braux-Saint-Remy","nom_a":null,"nom_de":null,"slug_ville":"braux-saint-remy","departement_id":0,"code_postal":"51800","population":80,"superficie_km2":"975.21","latitude_centre":"49.0234","longitude_centre":"4.8673","distance_km":6.44},{"id":0,"code_insee":"51632","nom_standard":"Villers-en-Argonne","nom_a":null,"nom_de":null,"slug_ville":"villers-en-argonne","departement_id":0,"code_postal":"51800","population":213,"superficie_km2":"956.98","latitude_centre":"49.0214","longitude_centre":"4.9394","distance_km":6.8},{"id":23360,"code_insee":"51047","nom_standard":"Belval-en-Argonne","nom_a":null,"nom_de":null,"slug_ville":"belval-en-argonne","departement_id":0,"code_postal":"51330","population":44,"superficie_km2":"1220.92","latitude_centre":"48.9439","longitude_centre":"4.9814","distance_km":6.95},{"id":23430,"code_insee":"51132","nom_standard":"Les Charmontois","nom_a":null,"nom_de":null,"slug_ville":"les-charmontois","departement_id":0,"code_postal":"51330","population":119,"superficie_km2":"1472.69","latitude_centre":"48.9645","longitude_centre":"4.9894","distance_km":7.0},{"id":23441,"code_insee":"51143","nom_standard":"Le Chemin","nom_a":null,"nom_de":null,"slug_ville":"le-chemin","departement_id":0,"code_postal":"51800","population":63,"superficie_km2":"627.46","latitude_centre":"48.9993","longitude_centre":"4.9782","distance_km":7.08},{"id":0,"code_insee":"51404","nom_standard":"Noirlieu","nom_a":null,"nom_de":null,"slug_ville":"noirlieu","departement_id":0,"code_postal":"51330","population":112,"superficie_km2":"1368.42","latitude_centre":"48.9397","longitude_centre":"4.8038","distance_km":7.28},{"id":0,"code_insee":"55493","nom_standard":"Sommeilles","nom_a":null,"nom_de":null,"slug_ville":"sommeilles","departement_id":0,"code_postal":"55800","population":181,"superficie_km2":"1870.73","latitude_centre":"48.9153","longitude_centre":"4.9659","distance_km":7.89},{"id":23509,"code_insee":"51228","nom_standard":"Élise-Daucourt","nom_a":null,"nom_de":null,"slug_ville":"elise-daucourt","departement_id":0,"code_postal":"51800","population":85,"superficie_km2":"1534.41","latitude_centre":"49.0425","longitude_centre":"4.8658","distance_km":8.52},{"id":23436,"code_insee":"51138","nom_standard":"Châtrices","nom_a":null,"nom_de":null,"slug_ville":"chatrices","departement_id":0,"code_postal":"51800","population":36,"superficie_km2":"1975.93","latitude_centre":"49.0388","longitude_centre":"4.9395","distance_km":8.54},{"id":0,"code_insee":"51442","nom_standard":"Possesse","nom_a":null,"nom_de":null,"slug_ville":"possesse","departement_id":0,"code_postal":"51330","population":135,"superficie_km2":"3613.79","latitude_centre":"48.8951","longitude_centre":"4.8564","distance_km":8.56},{"id":0,"code_insee":"51610","nom_standard":"Verrières","nom_a":null,"nom_de":null,"slug_ville":"verrieres","departement_id":0,"code_postal":"51800","population":423,"superficie_km2":"568.42","latitude_centre":"49.0634","longitude_centre":"4.9031","distance_km":10.62},{"id":23335,"code_insee":"51015","nom_standard":"Argers","nom_a":null,"nom_de":null,"slug_ville":"argers","departement_id":0,"code_postal":"51800","population":110,"superficie_km2":"698.61","latitude_centre":"49.0654","longitude_centre":"4.8597","distance_km":11.1},{"id":23429,"code_insee":"51130","nom_standard":"Charmont","nom_a":null,"nom_de":null,"slug_ville":"charmont","departement_id":0,"code_postal":"51330","population":232,"superficie_km2":"2281.55","latitude_centre":"48.8671","longitude_centre":"4.8733","distance_km":11.33}]}