{"ville":{"id":26916,"code_insee":"60456","nom_standard":"La Neuville-Roy","nom_a":null,"nom_de":null,"slug_ville":"la-neuville-roy","departement_id":0,"code_postal":"60190","population":897,"superficie_km2":"1259.55","latitude_centre":"49.4791","longitude_centre":"2.582","dep_code":"60","dep_nom":"Oise","dep_slug":"oise","reg_code":"32","reg_nom":"Hauts-de-France","reg_slug":"hauts-de-france"},"departement":{"code":"60","nom":"Oise","slug":"oise"},"region":{"code":"32","nom":"Hauts-de-France","slug":"hauts-de-france"},"villes_proches":[{"id":26788,"code_insee":"60285","nom_standard":"Grandvillers-aux-Bois","nom_a":null,"nom_de":null,"slug_ville":"grandvillers-aux-bois","departement_id":0,"code_postal":"60190","population":297,"superficie_km2":"665.38","latitude_centre":"49.4634","longitude_centre":"2.6079","distance_km":2.56},{"id":26887,"code_insee":"60418","nom_standard":"Montiers","nom_a":null,"nom_de":null,"slug_ville":"montiers","departement_id":0,"code_postal":"60190","population":392,"superficie_km2":"791.02","latitude_centre":"49.504","longitude_centre":"2.5741","distance_km":2.83},{"id":0,"code_insee":"60515","nom_standard":"Pronleroy","nom_a":null,"nom_de":null,"slug_ville":"pronleroy","departement_id":0,"code_postal":"60190","population":365,"superficie_km2":"907.48","latitude_centre":"49.4688","longitude_centre":"2.5358","distance_km":3.53},{"id":26698,"code_insee":"60177","nom_standard":"Cressonsacq","nom_a":null,"nom_de":null,"slug_ville":"cressonsacq","departement_id":0,"code_postal":"60190","population":435,"superficie_km2":"654.94","latitude_centre":"49.4468","longitude_centre":"2.5705","distance_km":3.69},{"id":26905,"code_insee":"60440","nom_standard":"Moyenneville","nom_a":null,"nom_de":null,"slug_ville":"moyenneville","departement_id":0,"code_postal":"60190","population":575,"superficie_km2":"722.07","latitude_centre":"49.4898","longitude_centre":"2.6345","distance_km":3.97},{"id":26845,"code_insee":"60357","nom_standard":"Léglantiers","nom_a":null,"nom_de":null,"slug_ville":"leglantiers","departement_id":0,"code_postal":"60420","population":548,"superficie_km2":"777.83","latitude_centre":"49.498","longitude_centre":"2.5308","distance_km":4.25},{"id":0,"code_insee":"60698","nom_standard":"Wacquemoulin","nom_a":null,"nom_de":null,"slug_ville":"wacquemoulin","departement_id":0,"code_postal":"60420","population":283,"superficie_km2":"666.27","latitude_centre":"49.5082","longitude_centre":"2.6217","distance_km":4.32},{"id":0,"code_insee":"60553","nom_standard":"Rouvillers","nom_a":null,"nom_de":null,"slug_ville":"rouvillers","departement_id":0,"code_postal":"60190","population":277,"superficie_km2":"1203.74","latitude_centre":"49.4557","longitude_centre":"2.6301","distance_km":4.34},{"id":26675,"code_insee":"60137","nom_standard":"Cernoy","nom_a":null,"nom_de":null,"slug_ville":"cernoy","departement_id":0,"code_postal":"60190","population":288,"superficie_km2":"495.28","latitude_centre":"49.4443","longitude_centre":"2.5413","distance_km":4.86},{"id":26872,"code_insee":"60394","nom_standard":"Ménévillers","nom_a":null,"nom_de":null,"slug_ville":"menevillers","departement_id":0,"code_postal":"60420","population":103,"superficie_km2":"488.85","latitude_centre":"49.5224","longitude_centre":"2.6042","distance_km":5.07},{"id":0,"code_insee":"60585","nom_standard":"Saint-Martin-aux-Bois","nom_a":null,"nom_de":null,"slug_ville":"saint-martin-aux-bois","departement_id":0,"code_postal":"60420","population":263,"superficie_km2":"938.31","latitude_centre":"49.5278","longitude_centre":"2.5603","distance_km":5.64},{"id":26583,"code_insee":"60014","nom_standard":"Angivillers","nom_a":null,"nom_de":null,"slug_ville":"angivillers","departement_id":0,"code_postal":"60130","population":155,"superficie_km2":"624.80","latitude_centre":"49.4893","longitude_centre":"2.5001","distance_km":6.02},{"id":26913,"code_insee":"60449","nom_standard":"Neufvy-sur-Aronde","nom_a":null,"nom_de":null,"slug_ville":"neufvy-sur-aronde","departement_id":0,"code_postal":"60190","population":280,"superficie_km2":"748.33","latitude_centre":"49.5107","longitude_centre":"2.6541","distance_km":6.28},{"id":26602,"code_insee":"60040","nom_standard":"Bailleul-le-Soc","nom_a":null,"nom_de":null,"slug_ville":"bailleul-le-soc","departement_id":0,"code_postal":"60190","population":645,"superficie_km2":"1437.73","latitude_centre":"49.4219","longitude_centre":"2.5828","distance_km":6.36},{"id":26886,"code_insee":"60416","nom_standard":"Montgérain","nom_a":null,"nom_de":null,"slug_ville":"montgerain","departement_id":0,"code_postal":"60420","population":166,"superficie_km2":"492.03","latitude_centre":"49.538","longitude_centre":"2.5822","distance_km":6.55},{"id":26755,"code_insee":"60247","nom_standard":"Fouilleuse","nom_a":null,"nom_de":null,"slug_ville":"fouilleuse","departement_id":0,"code_postal":"60190","population":143,"superficie_km2":"297.74","latitude_centre":"49.4261","longitude_centre":"2.5423","distance_km":6.55},{"id":0,"code_insee":"60466","nom_standard":"Noroy","nom_a":null,"nom_de":null,"slug_ville":"noroy","departement_id":0,"code_postal":"60130","population":247,"superficie_km2":"549.71","latitude_centre":"49.4427","longitude_centre":"2.5106","distance_km":6.56},{"id":0,"code_insee":"60223","nom_standard":"Estrées-Saint-Denis","nom_a":null,"nom_de":null,"slug_ville":"estrees-saint-denis","departement_id":0,"code_postal":"60190","population":3664,"superficie_km2":"811.18","latitude_centre":"49.426","longitude_centre":"2.6305","distance_km":6.87},{"id":26873,"code_insee":"60396","nom_standard":"Méry-la-Bataille","nom_a":null,"nom_de":null,"slug_ville":"mery-la-bataille","departement_id":0,"code_postal":"60420","population":604,"superficie_km2":"1131.13","latitude_centre":"49.5417","longitude_centre":"2.6302","distance_km":7.78},{"id":26684,"code_insee":"60158","nom_standard":"Coivrel","nom_a":null,"nom_de":null,"slug_ville":"coivrel","departement_id":0,"code_postal":"60420","population":249,"superficie_km2":"614.82","latitude_centre":"49.5542","longitude_centre":"2.5514","distance_km":8.64}]}