{"ville":{"id":23654,"code_insee":"51407","nom_standard":"La Noue","nom_a":null,"nom_de":null,"slug_ville":"la-noue","departement_id":0,"code_postal":"51310","population":371,"superficie_km2":"1334.10","latitude_centre":"48.7399","longitude_centre":"3.6255","dep_code":"51","dep_nom":"Marne","dep_slug":"marne","reg_code":"44","reg_nom":"Grand Est","reg_slug":"grand-est"},"departement":{"code":"51","nom":"Marne","slug":"marne"},"region":{"code":"44","nom":"Grand Est","slug":"grand-est"},"villes_proches":[{"id":23515,"code_insee":"51235","nom_standard":"Les Essarts-lès-Sézanne","nom_a":null,"nom_de":null,"slug_ville":"les-essarts-les-sezanne","departement_id":0,"code_postal":"51120","population":247,"superficie_km2":"1679.56","latitude_centre":"48.7649","longitude_centre":"3.6365","distance_km":2.89},{"id":0,"code_insee":"51237","nom_standard":"Esternay","nom_a":null,"nom_de":null,"slug_ville":"esternay","departement_id":0,"code_postal":"51310","population":1748,"superficie_km2":"3171.00","latitude_centre":"48.7281","longitude_centre":"3.5839","distance_km":3.32},{"id":23625,"code_insee":"51369","nom_standard":"Mœurs-Verdey","nom_a":null,"nom_de":null,"slug_ville":"moeurs-verdey","departement_id":0,"code_postal":"51120","population":317,"superficie_km2":"1327.38","latitude_centre":"48.7354","longitude_centre":"3.671","distance_km":3.37},{"id":23435,"code_insee":"51137","nom_standard":"Châtillon-sur-Morin","nom_a":null,"nom_de":null,"slug_ville":"chatillon-sur-morin","departement_id":0,"code_postal":"51310","population":210,"superficie_km2":"1806.68","latitude_centre":"48.7006","longitude_centre":"3.5968","distance_km":4.85},{"id":23417,"code_insee":"51116","nom_standard":"Champguyon","nom_a":null,"nom_de":null,"slug_ville":"champguyon","departement_id":0,"code_postal":"51310","population":298,"superficie_km2":"1677.07","latitude_centre":"48.7729","longitude_centre":"3.5639","distance_km":5.82},{"id":23618,"code_insee":"51360","nom_standard":"Le Meix-Saint-Epoing","nom_a":null,"nom_de":null,"slug_ville":"le-meix-saint-epoing","departement_id":0,"code_postal":"51120","population":286,"superficie_km2":"1135.84","latitude_centre":"48.6908","longitude_centre":"3.6544","distance_km":5.86},{"id":23581,"code_insee":"51313","nom_standard":"Lachy","nom_a":null,"nom_de":null,"slug_ville":"lachy","departement_id":0,"code_postal":"51120","population":345,"superficie_km2":"1698.10","latitude_centre":"48.771","longitude_centre":"3.6989","distance_km":6.4},{"id":23428,"code_insee":"51129","nom_standard":"Charleville","nom_a":null,"nom_de":null,"slug_ville":"charleville","departement_id":0,"code_postal":"51120","population":262,"superficie_km2":"1744.47","latitude_centre":"48.8028","longitude_centre":"3.6535","distance_km":7.29},{"id":0,"code_insee":"51535","nom_standard":"Sézanne","nom_a":null,"nom_de":null,"slug_ville":"sezanne","departement_id":0,"code_postal":"51120","population":4576,"superficie_km2":"2309.25","latitude_centre":"48.724","longitude_centre":"3.7244","distance_km":7.47},{"id":0,"code_insee":"51645","nom_standard":"Vindey","nom_a":null,"nom_de":null,"slug_ville":"vindey","departement_id":0,"code_postal":"51120","population":105,"superficie_km2":"800.35","latitude_centre":"48.7003","longitude_centre":"3.7106","distance_km":7.64},{"id":23537,"code_insee":"51264","nom_standard":"Le Gault-Soigny","nom_a":null,"nom_de":null,"slug_ville":"le-gault-soigny","departement_id":0,"code_postal":"51210","population":503,"superficie_km2":"2628.47","latitude_centre":"48.8093","longitude_centre":"3.6011","distance_km":7.92},{"id":0,"code_insee":"51526","nom_standard":"Saudoy","nom_a":null,"nom_de":null,"slug_ville":"saudoy","departement_id":0,"code_postal":"51120","population":377,"superficie_km2":"1286.34","latitude_centre":"48.6806","longitude_centre":"3.6969","distance_km":8.42},{"id":23639,"code_insee":"51386","nom_standard":"Morsains","nom_a":null,"nom_de":null,"slug_ville":"morsains","departement_id":0,"code_postal":"51210","population":150,"superficie_km2":"1440.38","latitude_centre":"48.8037","longitude_centre":"3.5601","distance_km":8.56},{"id":23513,"code_insee":"51233","nom_standard":"Escardes","nom_a":null,"nom_de":null,"slug_ville":"escardes","departement_id":0,"code_postal":"51310","population":61,"superficie_km2":"1443.46","latitude_centre":"48.6912","longitude_centre":"3.5309","distance_km":8.8},{"id":0,"code_insee":"51626","nom_standard":"La Villeneuve-lès-Charleville","nom_a":null,"nom_de":null,"slug_ville":"la-villeneuve-les-charleville","departement_id":0,"code_postal":"51120","population":117,"superficie_km2":"1111.08","latitude_centre":"48.7976","longitude_centre":"3.7115","distance_km":8.99},{"id":23533,"code_insee":"51258","nom_standard":"La Forestière","nom_a":null,"nom_de":null,"slug_ville":"la-forestiere","departement_id":0,"code_postal":"51120","population":209,"superficie_km2":"2266.29","latitude_centre":"48.6593","longitude_centre":"3.6066","distance_km":9.07},{"id":23516,"code_insee":"51236","nom_standard":"Les Essarts-le-Vicomte","nom_a":null,"nom_de":null,"slug_ville":"les-essarts-le-vicomte","departement_id":0,"code_postal":"51310","population":134,"superficie_km2":"1129.78","latitude_centre":"48.6653","longitude_centre":"3.5499","distance_km":9.98},{"id":23350,"code_insee":"51036","nom_standard":"Barbonne-Fayel","nom_a":null,"nom_de":null,"slug_ville":"barbonne-fayel","departement_id":0,"code_postal":"51120","population":482,"superficie_km2":"2439.00","latitude_centre":"48.6541","longitude_centre":"3.6885","distance_km":10.6},{"id":23377,"code_insee":"51070","nom_standard":"Boissy-le-Repos","nom_a":null,"nom_de":null,"slug_ville":"boissy-le-repos","departement_id":0,"code_postal":"51210","population":234,"superficie_km2":"1520.18","latitude_centre":"48.848","longitude_centre":"3.6408","distance_km":12.07},{"id":23363,"code_insee":"51050","nom_standard":"Bergères-sous-Montmirail","nom_a":null,"nom_de":null,"slug_ville":"bergeres-sous-montmirail","departement_id":0,"code_postal":"51210","population":137,"superficie_km2":"1061.90","latitude_centre":"48.8472","longitude_centre":"3.5965","distance_km":12.12}]}