{"ville":{"id":20634,"code_insee":"38303","nom_standard":"La Pierre","nom_a":null,"nom_de":null,"slug_ville":"la-pierre","departement_id":0,"code_postal":"38570","population":664,"superficie_km2":"333.92","latitude_centre":"45.2943","longitude_centre":"5.9428","dep_code":"38","dep_nom":"Isère","dep_slug":"isere","reg_code":"84","reg_nom":"Auvergne-Rhône-Alpes","reg_slug":"auvergne-rhone-alpes"},"departement":{"code":"38","nom":"Isère","slug":"isere"},"region":{"code":"84","nom":"Auvergne-Rhône-Alpes","slug":"auvergne-rhone-alpes"},"villes_proches":[{"id":0,"code_insee":"38070","nom_standard":"Le Champ-près-Froges","nom_a":null,"nom_de":null,"slug_ville":"le-champ-pres-froges","departement_id":0,"code_postal":"38190","population":1289,"superficie_km2":"489.82","latitude_centre":"45.2808","longitude_centre":"5.9391","distance_km":1.53},{"id":20573,"code_insee":"38192","nom_standard":"Hurtières","nom_a":null,"nom_de":null,"slug_ville":"hurtieres","departement_id":0,"code_postal":"38570","population":233,"superficie_km2":"340.44","latitude_centre":"45.2877","longitude_centre":"5.9678","distance_km":2.09},{"id":0,"code_insee":"38501","nom_standard":"Tencin","nom_a":null,"nom_de":null,"slug_ville":"tencin","departement_id":0,"code_postal":"38570","population":2180,"superficie_km2":"680.33","latitude_centre":"45.3103","longitude_centre":"5.9617","distance_km":2.31},{"id":0,"code_insee":"38214","nom_standard":"Lumbin","nom_a":null,"nom_de":null,"slug_ville":"lumbin","departement_id":0,"code_postal":"38660","population":2164,"superficie_km2":"662.12","latitude_centre":"45.3031","longitude_centre":"5.9104","distance_km":2.72},{"id":0,"code_insee":"38175","nom_standard":"Froges","nom_a":null,"nom_de":null,"slug_ville":"froges","departement_id":0,"code_postal":"38190","population":3285,"superficie_km2":"636.55","latitude_centre":"45.2684","longitude_centre":"5.9265","distance_km":3.15},{"id":0,"code_insee":"38503","nom_standard":"La Terrasse","nom_a":null,"nom_de":null,"slug_ville":"la-terrasse","departement_id":0,"code_postal":"38660","population":2470,"superficie_km2":"907.69","latitude_centre":"45.3237","longitude_centre":"5.9319","distance_km":3.38},{"id":0,"code_insee":"38140","nom_standard":"Crolles","nom_a":null,"nom_de":null,"slug_ville":"crolles","departement_id":0,"code_postal":"38920","population":8609,"superficie_km2":"1457.75","latitude_centre":"45.2816","longitude_centre":"5.8853","distance_km":4.71},{"id":0,"code_insee":"38504","nom_standard":"Theys","nom_a":null,"nom_de":null,"slug_ville":"theys","departement_id":0,"code_postal":"38570","population":2011,"superficie_km2":"3611.46","latitude_centre":"45.2958","longitude_centre":"6.0067","distance_km":5.0},{"id":0,"code_insee":"38002","nom_standard":"Les Adrets","nom_a":null,"nom_de":null,"slug_ville":"les-adrets","departement_id":0,"code_postal":"38190","population":1079,"superficie_km2":"1627.47","latitude_centre":"45.2571","longitude_centre":"5.9874","distance_km":5.41},{"id":0,"code_insee":"38181","nom_standard":"Goncelin","nom_a":null,"nom_de":null,"slug_ville":"goncelin","departement_id":0,"code_postal":"38570","population":2400,"superficie_km2":"1455.08","latitude_centre":"45.3365","longitude_centre":"5.9886","distance_km":5.9},{"id":0,"code_insee":"38511","nom_standard":"Le Touvet","nom_a":null,"nom_de":null,"slug_ville":"le-touvet","departement_id":0,"code_postal":"38660","population":3116,"superficie_km2":"1184.36","latitude_centre":"45.3512","longitude_centre":"5.9481","distance_km":6.34},{"id":0,"code_insee":"38395","nom_standard":"Plateau-des-Petites-Roches","nom_a":null,"nom_de":null,"slug_ville":"plateau-des-petites-roches","departement_id":0,"code_postal":"38660","population":2433,"superficie_km2":"3673.36","latitude_centre":"45.3343","longitude_centre":"5.8827","distance_km":6.47},{"id":0,"code_insee":"38547","nom_standard":"Villard-Bonnot","nom_a":null,"nom_de":null,"slug_ville":"villard-bonnot","departement_id":0,"code_postal":"38190","population":7509,"superficie_km2":"594.75","latitude_centre":"45.2455","longitude_centre":"5.8837","distance_km":7.13},{"id":0,"code_insee":"38039","nom_standard":"Bernin","nom_a":null,"nom_de":null,"slug_ville":"bernin","departement_id":0,"code_postal":"38190","population":3334,"superficie_km2":"777.61","latitude_centre":"45.2636","longitude_centre":"5.8624","distance_km":7.16},{"id":20577,"code_insee":"38206","nom_standard":"Laval-en-Belledonne","nom_a":null,"nom_de":null,"slug_ville":"laval-en-belledonne","departement_id":0,"code_postal":"38190","population":1029,"superficie_km2":"2573.17","latitude_centre":"45.2335","longitude_centre":"5.9745","distance_km":7.2},{"id":0,"code_insee":"38431","nom_standard":"Saint-Nazaire-les-Eymes","nom_a":null,"nom_de":null,"slug_ville":"saint-nazaire-les-eymes","departement_id":0,"code_postal":"38330","population":3016,"superficie_km2":"874.87","latitude_centre":"45.2648","longitude_centre":"5.8482","distance_km":8.1},{"id":0,"code_insee":"38466","nom_standard":"Saint-Vincent-de-Mercuze","nom_a":null,"nom_de":null,"slug_ville":"saint-vincent-de-mercuze","departement_id":0,"code_postal":"38660","population":1532,"superficie_km2":"782.32","latitude_centre":"45.374","longitude_centre":"5.957","distance_km":8.93},{"id":0,"code_insee":"38350","nom_standard":"Sainte-Agnès","nom_a":null,"nom_de":null,"slug_ville":"sainte-agnes","departement_id":0,"code_postal":"38190","population":548,"superficie_km2":"2663.13","latitude_centre":"45.2096","longitude_centre":"5.9503","distance_km":9.44},{"id":0,"code_insee":"38430","nom_standard":"Saint-Mury-Monteymond","nom_a":null,"nom_de":null,"slug_ville":"saint-mury-monteymond","departement_id":0,"code_postal":"38190","population":342,"superficie_km2":"1097.38","latitude_centre":"45.2091","longitude_centre":"5.9353","distance_km":9.49},{"id":0,"code_insee":"38417","nom_standard":"Sainte-Marie-d'Alloix","nom_a":null,"nom_de":null,"slug_ville":"sainte-marie-d-alloix","departement_id":0,"code_postal":"38660","population":486,"superficie_km2":"305.77","latitude_centre":"45.3853","longitude_centre":"5.9735","distance_km":10.4}]}