{"ville":{"id":12782,"code_insee":"10327","nom_standard":"La Rothière","nom_a":null,"nom_de":null,"slug_ville":"la-rothiere","departement_id":0,"code_postal":"10500","population":125,"superficie_km2":"722.06","latitude_centre":"48.3392","longitude_centre":"4.5869","dep_code":"10","dep_nom":"Aube","dep_slug":"aube","reg_code":"44","reg_nom":"Grand Est","reg_slug":"grand-est"},"departement":{"code":"10","nom":"Aube","slug":"aube"},"region":{"code":"44","nom":"Grand Est","slug":"grand-est"},"villes_proches":[{"id":12658,"code_insee":"10183","nom_standard":"Juvanzé","nom_a":null,"nom_de":null,"slug_ville":"juvanze","departement_id":0,"code_postal":"10140","population":36,"superficie_km2":"497.48","latitude_centre":"48.3237","longitude_centre":"4.5865","distance_km":1.72},{"id":12751,"code_insee":"10286","nom_standard":"Petit-Mesnil","nom_a":null,"nom_de":null,"slug_ville":"petit-mesnil","departement_id":0,"code_postal":"10500","population":203,"superficie_km2":"1475.48","latitude_centre":"48.3416","longitude_centre":"4.6152","distance_km":2.11},{"id":12573,"code_insee":"10093","nom_standard":"Chaumesnil","nom_a":null,"nom_de":null,"slug_ville":"chaumesnil","departement_id":0,"code_postal":"10500","population":112,"superficie_km2":"1108.91","latitude_centre":"48.3594","longitude_centre":"4.6162","distance_km":3.12},{"id":0,"code_insee":"10389","nom_standard":"Unienville","nom_a":null,"nom_de":null,"slug_ville":"unienville","departement_id":0,"code_postal":"10140","population":109,"superficie_km2":"1176.02","latitude_centre":"48.3187","longitude_centre":"4.5447","distance_km":3.86},{"id":0,"code_insee":"10384","nom_standard":"Trannes","nom_a":null,"nom_de":null,"slug_ville":"trannes","departement_id":0,"code_postal":"10140","population":194,"superficie_km2":"975.46","latitude_centre":"48.3039","longitude_centre":"4.5994","distance_km":4.03},{"id":12549,"code_insee":"10063","nom_standard":"Brienne-la-Vieille","nom_a":null,"nom_de":null,"slug_ville":"brienne-la-vieille","departement_id":0,"code_postal":"10500","population":378,"superficie_km2":"1632.73","latitude_centre":"48.372","longitude_centre":"4.5402","distance_km":5.02},{"id":12613,"code_insee":"10135","nom_standard":"Éclance","nom_a":null,"nom_de":null,"slug_ville":"eclance","departement_id":0,"code_postal":"10200","population":86,"superficie_km2":"1145.00","latitude_centre":"48.3045","longitude_centre":"4.6414","distance_km":5.58},{"id":12727,"code_insee":"10258","nom_standard":"Morvilliers","nom_a":null,"nom_de":null,"slug_ville":"morvilliers","departement_id":0,"code_postal":"10500","population":273,"superficie_km2":"1563.94","latitude_centre":"48.3792","longitude_centre":"4.6337","distance_km":5.63},{"id":12601,"code_insee":"10123","nom_standard":"Dienville","nom_a":null,"nom_de":null,"slug_ville":"dienville","departement_id":0,"code_postal":"10500","population":813,"superficie_km2":"2055.37","latitude_centre":"48.3268","longitude_centre":"4.5102","distance_km":5.84},{"id":12556,"code_insee":"10072","nom_standard":"La Chaise","nom_a":null,"nom_de":null,"slug_ville":"la-chaise","departement_id":0,"code_postal":"10500","population":32,"superficie_km2":"879.08","latitude_centre":"48.354","longitude_centre":"4.6655","distance_km":6.04},{"id":12653,"code_insee":"10178","nom_standard":"Jessains","nom_a":null,"nom_de":null,"slug_ville":"jessains","departement_id":0,"code_postal":"10140","population":251,"superficie_km2":"1089.95","latitude_centre":"48.2854","longitude_centre":"4.5705","distance_km":6.1},{"id":12538,"code_insee":"10050","nom_standard":"Bossancourt","nom_a":null,"nom_de":null,"slug_ville":"bossancourt","departement_id":0,"code_postal":"10140","population":193,"superficie_km2":"696.96","latitude_centre":"48.2827","longitude_centre":"4.609","distance_km":6.49},{"id":12595,"code_insee":"10117","nom_standard":"Crespy-le-Neuf","nom_a":null,"nom_de":null,"slug_ville":"crespy-le-neuf","departement_id":0,"code_postal":"10500","population":123,"superficie_km2":"1014.91","latitude_centre":"48.3976","longitude_centre":"4.6105","distance_km":6.72},{"id":0,"code_insee":"10064","nom_standard":"Brienne-le-Château","nom_a":null,"nom_de":null,"slug_ville":"brienne-le-chateau","departement_id":0,"code_postal":"10500","population":2672,"superficie_km2":"2170.83","latitude_centre":"48.3988","longitude_centre":"4.5278","distance_km":7.94},{"id":12604,"code_insee":"10126","nom_standard":"Dolancourt","nom_a":null,"nom_de":null,"slug_ville":"dolancourt","departement_id":0,"code_postal":"10200","population":124,"superficie_km2":"486.58","latitude_centre":"48.2677","longitude_centre":"4.6078","distance_km":8.1},{"id":12505,"code_insee":"10012","nom_standard":"Arsonval","nom_a":null,"nom_de":null,"slug_ville":"arsonval","departement_id":0,"code_postal":"10200","population":290,"superficie_km2":"763.19","latitude_centre":"48.2774","longitude_centre":"4.6453","distance_km":8.12},{"id":12659,"code_insee":"10184","nom_standard":"Juzanvigny","nom_a":null,"nom_de":null,"slug_ville":"juzanvigny","departement_id":0,"code_postal":"10500","population":120,"superficie_km2":"767.32","latitude_centre":"48.4169","longitude_centre":"4.6097","distance_km":8.8},{"id":0,"code_insee":"10397","nom_standard":"Vauchonvilliers","nom_a":null,"nom_de":null,"slug_ville":"vauchonvilliers","departement_id":0,"code_postal":"10140","population":174,"superficie_km2":"1166.22","latitude_centre":"48.2676","longitude_centre":"4.5328","distance_km":8.91},{"id":12501,"code_insee":"10008","nom_standard":"Argançon","nom_a":null,"nom_de":null,"slug_ville":"argancon","departement_id":0,"code_postal":"10140","population":101,"superficie_km2":"818.71","latitude_centre":"48.2508","longitude_centre":"4.5972","distance_km":9.86},{"id":12693,"code_insee":"10221","nom_standard":"Maizières-lès-Brienne","nom_a":null,"nom_de":null,"slug_ville":"maizieres-les-brienne","departement_id":0,"code_postal":"10500","population":155,"superficie_km2":"947.59","latitude_centre":"48.4305","longitude_centre":"4.6055","distance_km":10.24}]}