{"ville":{"id":16454,"code_insee":"24355","nom_standard":"La Roque-Gageac","nom_a":null,"nom_de":null,"slug_ville":"la-roque-gageac","departement_id":0,"code_postal":"24250","population":448,"superficie_km2":"718.99","latitude_centre":"44.82","longitude_centre":"1.1999","dep_code":"24","dep_nom":"Dordogne","dep_slug":"dordogne","reg_code":"75","reg_nom":"Nouvelle-Aquitaine","reg_slug":"nouvelle-aquitaine"},"departement":{"code":"24","nom":"Dordogne","slug":"dordogne"},"region":{"code":"75","nom":"Nouvelle-Aquitaine","slug":"nouvelle-aquitaine"},"villes_proches":[{"id":0,"code_insee":"24577","nom_standard":"Vézac","nom_a":null,"nom_de":null,"slug_ville":"vezac","departement_id":0,"code_postal":"24220","population":533,"superficie_km2":"1363.78","latitude_centre":"44.8397","longitude_centre":"1.1764","distance_km":2.87},{"id":0,"code_insee":"24091","nom_standard":"Cénac-et-Saint-Julien","nom_a":null,"nom_de":null,"slug_ville":"cenac-et-saint-julien","departement_id":0,"code_postal":"24250","population":1183,"superficie_km2":"2060.87","latitude_centre":"44.7904","longitude_centre":"1.2121","distance_km":3.43},{"id":0,"code_insee":"24587","nom_standard":"Vitrac","nom_a":null,"nom_de":null,"slug_ville":"vitrac","departement_id":0,"code_postal":"24200","population":863,"superficie_km2":"1438.38","latitude_centre":"44.8453","longitude_centre":"1.2256","distance_km":3.47},{"id":16319,"code_insee":"24152","nom_standard":"Domme","nom_a":null,"nom_de":null,"slug_ville":"domme","departement_id":0,"code_postal":"24250","population":906,"superficie_km2":"2485.34","latitude_centre":"44.8091","longitude_centre":"1.2424","distance_km":3.56},{"id":0,"code_insee":"24395","nom_standard":"Saint-Cybranet","nom_a":null,"nom_de":null,"slug_ville":"saint-cybranet","departement_id":0,"code_postal":"24250","population":384,"superficie_km2":"1072.79","latitude_centre":"44.7835","longitude_centre":"1.1595","distance_km":5.16},{"id":16275,"code_insee":"24086","nom_standard":"Castelnaud-la-Chapelle","nom_a":null,"nom_de":null,"slug_ville":"castelnaud-la-chapelle","departement_id":0,"code_postal":"24250","population":451,"superficie_km2":"2101.54","latitude_centre":"44.802","longitude_centre":"1.1292","distance_km":5.93},{"id":16242,"code_insee":"24040","nom_standard":"Beynac-et-Cazenac","nom_a":null,"nom_de":null,"slug_ville":"beynac-et-cazenac","departement_id":0,"code_postal":"24220","population":397,"superficie_km2":"1310.83","latitude_centre":"44.8556","longitude_centre":"1.1289","distance_km":6.86},{"id":0,"code_insee":"24510","nom_standard":"Saint-Vincent-de-Cosse","nom_a":null,"nom_de":null,"slug_ville":"saint-vincent-de-cosse","departement_id":0,"code_postal":"24220","population":388,"superficie_km2":"732.68","latitude_centre":"44.841","longitude_centre":"1.1129","distance_km":7.25},{"id":0,"code_insee":"24082","nom_standard":"Carsac-Aillac","nom_a":null,"nom_de":null,"slug_ville":"carsac-aillac","departement_id":0,"code_postal":"24200","population":1586,"superficie_km2":"1729.08","latitude_centre":"44.8544","longitude_centre":"1.2798","distance_km":7.37},{"id":16356,"code_insee":"24207","nom_standard":"Groléjac","nom_a":null,"nom_de":null,"slug_ville":"grolejac","departement_id":0,"code_postal":"24250","population":686,"superficie_km2":"1234.56","latitude_centre":"44.8111","longitude_centre":"1.2947","distance_km":7.54},{"id":0,"code_insee":"24575","nom_standard":"Veyrines-de-Domme","nom_a":null,"nom_de":null,"slug_ville":"veyrines-de-domme","departement_id":0,"code_postal":"24250","population":236,"superficie_km2":"1139.49","latitude_centre":"44.8007","longitude_centre":"1.1035","distance_km":7.9},{"id":16317,"code_insee":"24150","nom_standard":"Daglan","nom_a":null,"nom_de":null,"slug_ville":"daglan","departement_id":0,"code_postal":"24250","population":570,"superficie_km2":"2070.52","latitude_centre":"44.7453","longitude_centre":"1.1896","distance_km":8.35},{"id":0,"code_insee":"24450","nom_standard":"Saint-Martial-de-Nabirat","nom_a":null,"nom_de":null,"slug_ville":"saint-martial-de-nabirat","departement_id":0,"code_postal":"24250","population":586,"superficie_km2":"1568.67","latitude_centre":"44.7494","longitude_centre":"1.2466","distance_km":8.67},{"id":0,"code_insee":"24366","nom_standard":"Saint-André-d'Allas","nom_a":null,"nom_de":null,"slug_ville":"saint-andre-d-allas","departement_id":0,"code_postal":"24200","population":888,"superficie_km2":"2951.71","latitude_centre":"44.8905","longitude_centre":"1.1496","distance_km":8.78},{"id":0,"code_insee":"24512","nom_standard":"Saint-Vincent-le-Paluel","nom_a":null,"nom_de":null,"slug_ville":"saint-vincent-le-paluel","departement_id":0,"code_postal":"24200","population":293,"superficie_km2":"705.15","latitude_centre":"44.8836","longitude_centre":"1.2706","distance_km":9.0},{"id":16419,"code_insee":"24300","nom_standard":"Nabirat","nom_a":null,"nom_de":null,"slug_ville":"nabirat","departement_id":0,"code_postal":"24250","population":341,"superficie_km2":"1687.20","latitude_centre":"44.7667","longitude_centre":"1.291","distance_km":9.32},{"id":0,"code_insee":"24520","nom_standard":"Sarlat-la-Canéda","nom_a":null,"nom_de":null,"slug_ville":"sarlat-la-caneda","departement_id":0,"code_postal":"24200","population":8763,"superficie_km2":"4858.62","latitude_centre":"44.906","longitude_centre":"1.1994","distance_km":9.56},{"id":0,"code_insee":"24438","nom_standard":"Saint-Laurent-la-Vallée","nom_a":null,"nom_de":null,"slug_ville":"saint-laurent-la-vallee","departement_id":0,"code_postal":"24170","population":237,"superficie_km2":"1551.77","latitude_centre":"44.7505","longitude_centre":"1.1227","distance_km":9.84},{"id":16260,"code_insee":"24063","nom_standard":"Bouzic","nom_a":null,"nom_de":null,"slug_ville":"bouzic","departement_id":0,"code_postal":"24250","population":160,"superficie_km2":"1226.30","latitude_centre":"44.7221","longitude_centre":"1.2255","distance_km":11.07},{"id":0,"code_insee":"24341","nom_standard":"Proissans","nom_a":null,"nom_de":null,"slug_ville":"proissans","departement_id":0,"code_postal":"24200","population":1102,"superficie_km2":"1812.15","latitude_centre":"44.9293","longitude_centre":"1.2465","distance_km":12.7}]}