{"ville":{"id":21113,"code_insee":"39460","nom_standard":"La Rixouse","nom_a":null,"nom_de":null,"slug_ville":"la-rixouse","departement_id":0,"code_postal":"39200","population":184,"superficie_km2":"1252.79","latitude_centre":"46.4682","longitude_centre":"5.8711","dep_code":"39","dep_nom":"Jura","dep_slug":"jura","reg_code":"27","reg_nom":"Bourgogne-Franche-Comté","reg_slug":"bourgogne-franche-comte"},"departement":{"code":"39","nom":"Jura","slug":"jura"},"region":{"code":"27","nom":"Bourgogne-Franche-Comté","slug":"bourgogne-franche-comte"},"villes_proches":[{"id":20991,"code_insee":"39293","nom_standard":"Leschères","nom_a":null,"nom_de":null,"slug_ville":"lescheres","departement_id":0,"code_postal":"39170","population":192,"superficie_km2":"819.01","latitude_centre":"46.4634","longitude_centre":"5.8288","distance_km":3.28},{"id":20864,"code_insee":"39130","nom_standard":"Nanchez","nom_a":null,"nom_de":null,"slug_ville":"nanchez","departement_id":0,"code_postal":"39150","population":764,"superficie_km2":"3145.15","latitude_centre":"46.505","longitude_centre":"5.8689","distance_km":4.1},{"id":20907,"code_insee":"39184","nom_standard":"Les Crozets","nom_a":null,"nom_de":null,"slug_ville":"les-crozets","departement_id":0,"code_postal":"39260","population":194,"superficie_km2":"768.92","latitude_centre":"46.4654","longitude_centre":"5.8042","distance_km":5.13},{"id":20929,"code_insee":"39216","nom_standard":"Étival","nom_a":null,"nom_de":null,"slug_ville":"etival","departement_id":0,"code_postal":"39130","population":302,"superficie_km2":"1409.27","latitude_centre":"46.4912","longitude_centre":"5.7981","distance_km":6.15},{"id":0,"code_insee":"39478","nom_standard":"Saint-Claude","nom_a":null,"nom_de":null,"slug_ville":"saint-claude","departement_id":0,"code_postal":"39200","population":8386,"superficie_km2":"7034.97","latitude_centre":"46.4098","longitude_centre":"5.8802","distance_km":6.53},{"id":21107,"code_insee":"39453","nom_standard":"Ravilloles","nom_a":null,"nom_de":null,"slug_ville":"ravilloles","departement_id":0,"code_postal":"39170","population":434,"superficie_km2":"771.49","latitude_centre":"46.432","longitude_centre":"5.8005","distance_km":6.74},{"id":0,"code_insee":"39297","nom_standard":"Longchaumois","nom_a":null,"nom_de":null,"slug_ville":"longchaumois","departement_id":0,"code_postal":"39400","population":1139,"superficie_km2":"5785.00","latitude_centre":"46.4676","longitude_centre":"5.9619","distance_km":6.95},{"id":20961,"code_insee":"39258","nom_standard":"Grande-Rivière Château","nom_a":null,"nom_de":null,"slug_ville":"grande-riviere-chateau","departement_id":0,"code_postal":"39150","population":644,"superficie_km2":"3943.11","latitude_centre":"46.5287","longitude_centre":"5.9091","distance_km":7.33},{"id":20788,"code_insee":"39032","nom_standard":"Avignon-lès-Saint-Claude","nom_a":null,"nom_de":null,"slug_ville":"avignon-les-saint-claude","departement_id":0,"code_postal":"39200","population":348,"superficie_km2":"774.78","latitude_centre":"46.4032","longitude_centre":"5.8376","distance_km":7.67},{"id":0,"code_insee":"39491","nom_standard":"Coteaux du Lizon","nom_a":null,"nom_de":null,"slug_ville":"coteaux-du-lizon","departement_id":0,"code_postal":"39170","population":2130,"superficie_km2":"1555.38","latitude_centre":"46.4133","longitude_centre":"5.7985","distance_km":8.26},{"id":20855,"code_insee":"39118","nom_standard":"Châtel-de-Joux","nom_a":null,"nom_de":null,"slug_ville":"chatel-de-joux","departement_id":0,"code_postal":"39130","population":47,"superficie_km2":"1428.62","latitude_centre":"46.529","longitude_centre":"5.8053","distance_km":8.43},{"id":0,"code_insee":"39493","nom_standard":"Saint-Maurice-Crillat","nom_a":null,"nom_de":null,"slug_ville":"saint-maurice-crillat","departement_id":0,"code_postal":"39130","population":247,"superficie_km2":"2066.74","latitude_centre":"46.5648","longitude_centre":"5.8282","distance_km":11.23},{"id":0,"code_insee":"39286","nom_standard":"Lavans-lès-Saint-Claude","nom_a":null,"nom_de":null,"slug_ville":"lavans-les-saint-claude","departement_id":0,"code_postal":"39170","population":2351,"superficie_km2":"2362.29","latitude_centre":"46.3899","longitude_centre":"5.7776","distance_km":11.28},{"id":0,"code_insee":"39494","nom_standard":"Saint-Pierre","nom_a":null,"nom_de":null,"slug_ville":"saint-pierre","departement_id":0,"code_postal":"39150","population":383,"superficie_km2":"1659.72","latitude_centre":"46.5703","longitude_centre":"5.8968","distance_km":11.52},{"id":20946,"code_insee":"39239","nom_standard":"La Frasnée","nom_a":null,"nom_de":null,"slug_ville":"la-frasnee","departement_id":0,"code_postal":"39130","population":41,"superficie_km2":"337.25","latitude_centre":"46.5604","longitude_centre":"5.8002","distance_km":11.6},{"id":0,"code_insee":"39560","nom_standard":"Villard-Saint-Sauveur","nom_a":null,"nom_de":null,"slug_ville":"villard-saint-sauveur","departement_id":0,"code_postal":"39200","population":585,"superficie_km2":"900.60","latitude_centre":"46.3631","longitude_centre":"5.8627","distance_km":11.7},{"id":20966,"code_insee":"39265","nom_standard":"Hautecour","nom_a":null,"nom_de":null,"slug_ville":"hautecour","departement_id":0,"code_postal":"39130","population":196,"superficie_km2":"517.84","latitude_centre":"46.5587","longitude_centre":"5.7808","distance_km":12.21},{"id":0,"code_insee":"39510","nom_standard":"Septmoncel les Molunes","nom_a":null,"nom_de":null,"slug_ville":"septmoncel-les-molunes","departement_id":0,"code_postal":"39310","population":812,"superficie_km2":"4030.90","latitude_centre":"46.3559","longitude_centre":"5.9265","distance_km":13.19},{"id":20813,"code_insee":"39063","nom_standard":"Bonlieu","nom_a":null,"nom_de":null,"slug_ville":"bonlieu","departement_id":0,"code_postal":"39130","population":223,"superficie_km2":"1293.74","latitude_centre":"46.5949","longitude_centre":"5.8461","distance_km":14.22},{"id":20898,"code_insee":"39174","nom_standard":"Coyrière","nom_a":null,"nom_de":null,"slug_ville":"coyriere","departement_id":0,"code_postal":"39200","population":66,"superficie_km2":"412.10","latitude_centre":"46.3398","longitude_centre":"5.8454","distance_km":14.41}]}