{"ville":{"id":7023,"code_insee":"67519","nom_standard":"La Wantzenau","nom_a":null,"nom_de":null,"slug_ville":"la-wantzenau","departement_id":668,"code_postal":"67610","population":5894,"superficie_km2":"25.00","latitude_centre":"48.6590004","longitude_centre":"7.8309999","dep_code":"67","dep_nom":"Bas-Rhin","dep_slug":"bas-rhin","reg_code":"06","reg_nom":"Grand Est","reg_slug":"grand-est"},"departement":{"code":"67","nom":"Bas-Rhin","slug":"bas-rhin"},"region":{"code":"06","nom":"Grand Est","slug":"grand-est"},"villes_proches":[{"id":6926,"code_insee":"67237","nom_standard":"Kilstett","nom_a":null,"nom_de":null,"slug_ville":"kilstett","departement_id":668,"code_postal":"67840","population":2491,"superficie_km2":"7.00","latitude_centre":"48.6839981","longitude_centre":"7.8460002","distance_km":2.99},{"id":6914,"code_insee":"67205","nom_standard":"Hœrdt","nom_a":null,"nom_de":null,"slug_ville":"hoerdt","departement_id":668,"code_postal":"67720","population":4565,"superficie_km2":"16.00","latitude_centre":"48.6910019","longitude_centre":"7.7849998","distance_km":4.91},{"id":6891,"code_insee":"67151","nom_standard":"Gambsheim","nom_a":null,"nom_de":null,"slug_ville":"gambsheim","departement_id":668,"code_postal":"67760","population":5213,"superficie_km2":"17.00","latitude_centre":"48.6920013","longitude_centre":"7.8839998","distance_km":5.35},{"id":6981,"code_insee":"67389","nom_standard":"Reichstett","nom_a":null,"nom_de":null,"slug_ville":"reichstett","departement_id":668,"code_postal":"67116","population":4376,"superficie_km2":"8.00","latitude_centre":"48.6479988","longitude_centre":"7.7570000","distance_km":5.57},{"id":7028,"code_insee":"67529","nom_standard":"Weyersheim","nom_a":null,"nom_de":null,"slug_ville":"weyersheim","departement_id":668,"code_postal":"67720","population":3473,"superficie_km2":"20.00","latitude_centre":"48.7159996","longitude_centre":"7.8309999","distance_km":6.34},{"id":6853,"code_insee":"67043","nom_standard":"Bischheim","nom_a":null,"nom_de":null,"slug_ville":"bischheim","departement_id":668,"code_postal":"67800","population":17939,"superficie_km2":"4.00","latitude_centre":"48.6220017","longitude_centre":"7.7589998","distance_km":6.7},{"id":7021,"code_insee":"67506","nom_standard":"Vendenheim","nom_a":null,"nom_de":null,"slug_ville":"vendenheim","departement_id":668,"code_postal":"67550","population":6042,"superficie_km2":"16.00","latitude_centre":"48.6679993","longitude_centre":"7.7389998","distance_km":6.83},{"id":6913,"code_insee":"67204","nom_standard":"Hœnheim","nom_a":null,"nom_de":null,"slug_ville":"hoenheim","departement_id":668,"code_postal":"67800","population":11469,"superficie_km2":"3.00","latitude_centre":"48.6240006","longitude_centre":"7.7540002","distance_km":6.87},{"id":7008,"code_insee":"67471","nom_standard":"Souffelweyersheim","nom_a":null,"nom_de":null,"slug_ville":"souffelweyersheim","departement_id":668,"code_postal":"67460","population":8120,"superficie_km2":"5.00","latitude_centre":"48.6320000","longitude_centre":"7.7420001","distance_km":7.19},{"id":6895,"code_insee":"67156","nom_standard":"Geudertheim","nom_a":null,"nom_de":null,"slug_ville":"geudertheim","departement_id":668,"code_postal":"67170","population":2675,"superficie_km2":"12.00","latitude_centre":"48.7159996","longitude_centre":"7.7600002","distance_km":8.21},{"id":6998,"code_insee":"67447","nom_standard":"Schiltigheim","nom_a":null,"nom_de":null,"slug_ville":"schiltigheim","departement_id":668,"code_postal":"67300","population":34129,"superficie_km2":"8.00","latitude_centre":"48.6119995","longitude_centre":"7.7440000","distance_km":8.26},{"id":6949,"code_insee":"67309","nom_standard":"Mundolsheim","nom_a":null,"nom_de":null,"slug_ville":"mundolsheim","departement_id":668,"code_postal":"67450","population":5074,"superficie_km2":"4.00","latitude_centre":"48.6399994","longitude_centre":"7.7150002","distance_km":8.78},{"id":6931,"code_insee":"67252","nom_standard":"Kurtzenhouse","nom_a":null,"nom_de":null,"slug_ville":"kurtzenhouse","departement_id":668,"code_postal":"67240","population":1082,"superficie_km2":"4.00","latitude_centre":"48.7369995","longitude_centre":"7.8049998","distance_km":8.88},{"id":6971,"code_insee":"67356","nom_standard":"Offendorf","nom_a":null,"nom_de":null,"slug_ville":"offendorf","departement_id":668,"code_postal":"67850","population":2493,"superficie_km2":"14.00","latitude_centre":"48.7150002","longitude_centre":"7.9270000","distance_km":9.4},{"id":6908,"code_insee":"67194","nom_standard":"Herrlisheim","nom_a":null,"nom_de":null,"slug_ville":"herrlisheim","departement_id":668,"code_postal":"67850","population":4631,"superficie_km2":"14.00","latitude_centre":"48.7319984","longitude_centre":"7.9099998","distance_km":9.98},{"id":6932,"code_insee":"67256","nom_standard":"Lampertheim","nom_a":null,"nom_de":null,"slug_ville":"lampertheim","departement_id":668,"code_postal":"67450","population":3458,"superficie_km2":"7.00","latitude_centre":"48.6549988","longitude_centre":"7.6939998","distance_km":10.07},{"id":6956,"code_insee":"67326","nom_standard":"Niederhausbergen","nom_a":null,"nom_de":null,"slug_ville":"niederhausbergen","departement_id":668,"code_postal":"67207","population":1673,"superficie_km2":"3.00","latitude_centre":"48.6230011","longitude_centre":"7.7049999","distance_km":10.09},{"id":6899,"code_insee":"67169","nom_standard":"Gries","nom_a":null,"nom_de":null,"slug_ville":"gries","departement_id":668,"code_postal":"67240","population":2879,"superficie_km2":"12.00","latitude_centre":"48.7509995","longitude_centre":"7.8249998","distance_km":10.24},{"id":6881,"code_insee":"67119","nom_standard":"Eckwersheim","nom_a":null,"nom_de":null,"slug_ville":"eckwersheim","departement_id":668,"code_postal":"67550","population":1403,"superficie_km2":"8.00","latitude_centre":"48.6850014","longitude_centre":"7.6960001","distance_km":10.33},{"id":6862,"code_insee":"67067","nom_standard":"Brumath","nom_a":null,"nom_de":null,"slug_ville":"brumath","departement_id":668,"code_postal":"67170","population":10238,"superficie_km2":"31.00","latitude_centre":"48.7200012","longitude_centre":"7.7170000","distance_km":10.77}]}