{"ville":{"id":33461,"code_insee":"81119","nom_standard":"Laboutarie","nom_a":null,"nom_de":null,"slug_ville":"laboutarie","departement_id":0,"code_postal":"81120","population":521,"superficie_km2":"543.25","latitude_centre":"43.7875","longitude_centre":"2.1107","dep_code":"81","dep_nom":"Tarn","dep_slug":"tarn","reg_code":"76","reg_nom":"Occitanie","reg_slug":"occitanie"},"departement":{"code":"81","nom":"Tarn","slug":"tarn"},"region":{"code":"76","nom":"Occitanie","slug":"occitanie"},"villes_proches":[{"id":0,"code_insee":"81174","nom_standard":"Montdragon","nom_a":null,"nom_de":null,"slug_ville":"montdragon","departement_id":0,"code_postal":"81440","population":614,"superficie_km2":"1217.59","latitude_centre":"43.7741","longitude_centre":"2.0934","distance_km":2.04},{"id":0,"code_insee":"81287","nom_standard":"Sieurac","nom_a":null,"nom_de":null,"slug_ville":"sieurac","departement_id":0,"code_postal":"81120","population":256,"superficie_km2":"883.53","latitude_centre":"43.8117","longitude_centre":"2.0917","distance_km":3.09},{"id":0,"code_insee":"81250","nom_standard":"Saint-Genest-de-Contest","nom_a":null,"nom_de":null,"slug_ville":"saint-genest-de-contest","departement_id":0,"code_postal":"81440","population":282,"superficie_km2":"1367.67","latitude_centre":"43.7638","longitude_centre":"2.148","distance_km":3.99},{"id":0,"code_insee":"81258","nom_standard":"Saint-Julien-du-Puy","nom_a":null,"nom_de":null,"slug_ville":"saint-julien-du-puy","departement_id":0,"code_postal":"81440","population":447,"superficie_km2":"1933.50","latitude_centre":"43.7552","longitude_centre":"2.0827","distance_km":4.24},{"id":0,"code_insee":"81147","nom_standard":"Lombers","nom_a":null,"nom_de":null,"slug_ville":"lombers","departement_id":0,"code_postal":"81120","population":1080,"superficie_km2":"3886.59","latitude_centre":"43.817","longitude_centre":"2.1457","distance_km":4.32},{"id":0,"code_insee":"81198","nom_standard":"Orban","nom_a":null,"nom_de":null,"slug_ville":"orban","departement_id":0,"code_postal":"81120","population":351,"superficie_km2":"887.15","latitude_centre":"43.8388","longitude_centre":"2.0781","distance_km":6.28},{"id":0,"code_insee":"81222","nom_standard":"Réalmont","nom_a":null,"nom_de":null,"slug_ville":"realmont","departement_id":0,"code_postal":"81120","population":3561,"superficie_km2":"1442.75","latitude_centre":"43.7792","longitude_centre":"2.1905","distance_km":6.47},{"id":33459,"code_insee":"81117","nom_standard":"Labessière-Candeil","nom_a":null,"nom_de":null,"slug_ville":"labessiere-candeil","departement_id":0,"code_postal":"81300","population":710,"superficie_km2":"2223.79","latitude_centre":"43.8016","longitude_centre":"2.0247","distance_km":7.08},{"id":0,"code_insee":"81211","nom_standard":"Poulan-Pouzols","nom_a":null,"nom_de":null,"slug_ville":"poulan-pouzols","departement_id":0,"code_postal":"81120","population":478,"superficie_km2":"1198.55","latitude_centre":"43.8551","longitude_centre":"2.1086","distance_km":7.52},{"id":0,"code_insee":"81138","nom_standard":"Lasgraisses","nom_a":null,"nom_de":null,"slug_ville":"lasgraisses","departement_id":0,"code_postal":"81300","population":559,"superficie_km2":"1232.75","latitude_centre":"43.8239","longitude_centre":"2.0307","distance_km":7.59},{"id":33442,"code_insee":"81090","nom_standard":"Fénols","nom_a":null,"nom_de":null,"slug_ville":"fenols","departement_id":0,"code_postal":"81600","population":244,"superficie_km2":"603.87","latitude_centre":"43.8495","longitude_centre":"2.0562","distance_km":8.16},{"id":0,"code_insee":"81311","nom_standard":"Vénès","nom_a":null,"nom_de":null,"slug_ville":"venes","departement_id":0,"code_postal":"81440","population":718,"superficie_km2":"2748.83","latitude_centre":"43.7388","longitude_centre":"2.1904","distance_km":8.38},{"id":0,"code_insee":"81133","nom_standard":"Lamillarié","nom_a":null,"nom_de":null,"slug_ville":"lamillarie","departement_id":0,"code_postal":"81120","population":517,"superficie_km2":"1399.68","latitude_centre":"43.8545","longitude_centre":"2.1587","distance_km":8.39},{"id":33406,"code_insee":"81040","nom_standard":"Brousse","nom_a":null,"nom_de":null,"slug_ville":"brousse","departement_id":0,"code_postal":"81440","population":438,"superficie_km2":"1471.43","latitude_centre":"43.7204","longitude_centre":"2.0601","distance_km":8.5},{"id":33432,"code_insee":"81079","nom_standard":"Dénat","nom_a":null,"nom_de":null,"slug_ville":"denat","departement_id":0,"code_postal":"81120","population":864,"superficie_km2":"1507.63","latitude_centre":"43.8375","longitude_centre":"2.2048","distance_km":9.38},{"id":0,"code_insee":"81139","nom_standard":"Lautrec","nom_a":null,"nom_de":null,"slug_ville":"lautrec","departement_id":0,"code_postal":"81440","population":1673,"superficie_km2":"5469.96","latitude_centre":"43.7032","longitude_centre":"2.1271","distance_km":9.47},{"id":33393,"code_insee":"81020","nom_standard":"Aussac","nom_a":null,"nom_de":null,"slug_ville":"aussac","departement_id":0,"code_postal":"81600","population":255,"superficie_km2":"610.65","latitude_centre":"43.8617","longitude_centre":"2.0373","distance_km":10.14},{"id":0,"code_insee":"81274","nom_standard":"Saliès","nom_a":null,"nom_de":null,"slug_ville":"salies","departement_id":0,"code_postal":"81990","population":806,"superficie_km2":"361.06","latitude_centre":"43.8858","longitude_centre":"2.134","distance_km":11.09},{"id":0,"code_insee":"81232","nom_standard":"Rouffiac","nom_a":null,"nom_de":null,"slug_ville":"rouffiac","departement_id":0,"code_postal":"81150","population":639,"superficie_km2":"1130.55","latitude_centre":"43.8844","longitude_centre":"2.0737","distance_km":11.18},{"id":33419,"code_insee":"81059","nom_standard":"Carlus","nom_a":null,"nom_de":null,"slug_ville":"carlus","departement_id":0,"code_postal":"81990","population":664,"superficie_km2":"1080.69","latitude_centre":"43.8887","longitude_centre":"2.1034","distance_km":11.27}]}