{"ville":{"id":28193,"code_insee":"63184","nom_standard":"Lachaux","nom_a":null,"nom_de":null,"slug_ville":"lachaux","departement_id":0,"code_postal":"63290","population":273,"superficie_km2":"2243.29","latitude_centre":"45.9918","longitude_centre":"3.5899","dep_code":"63","dep_nom":"Puy-de-Dôme","dep_slug":"puy-de-dome","reg_code":"84","reg_nom":"Auvergne-Rhône-Alpes","reg_slug":"auvergne-rhone-alpes"},"departement":{"code":"63","nom":"Puy-de-Dôme","slug":"puy-de-dome"},"region":{"code":"84","nom":"Auvergne-Rhône-Alpes","slug":"auvergne-rhone-alpes"},"villes_proches":[{"id":28132,"code_insee":"63102","nom_standard":"Châteldon","nom_a":null,"nom_de":null,"slug_ville":"chateldon","departement_id":0,"code_postal":"63290","population":740,"superficie_km2":"2852.55","latitude_centre":"45.9734","longitude_centre":"3.5487","distance_km":3.78},{"id":10999,"code_insee":"03125","nom_standard":"La Guillermie","nom_a":null,"nom_de":null,"slug_ville":"la-guillermie","departement_id":0,"code_postal":"03250","population":123,"superficie_km2":"1251.26","latitude_centre":"45.9817","longitude_centre":"3.6434","distance_km":4.28},{"id":10989,"code_insee":"03113","nom_standard":"Ferrières-sur-Sichon","nom_a":null,"nom_de":null,"slug_ville":"ferrieres-sur-sichon","departement_id":0,"code_postal":"03250","population":496,"superficie_km2":"3859.05","latitude_centre":"46.0205","longitude_centre":"3.6501","distance_km":5.64},{"id":0,"code_insee":"63402","nom_standard":"Saint-Victor-Montvianeix","nom_a":null,"nom_de":null,"slug_ville":"saint-victor-montvianeix","departement_id":0,"code_postal":"63550","population":264,"superficie_km2":"4509.88","latitude_centre":"45.9396","longitude_centre":"3.6033","distance_km":5.9},{"id":0,"code_insee":"63301","nom_standard":"Ris","nom_a":null,"nom_de":null,"slug_ville":"ris","departement_id":0,"code_postal":"63290","population":718,"superficie_km2":"1578.79","latitude_centre":"46.0056","longitude_centre":"3.5114","distance_km":6.25},{"id":10911,"code_insee":"03008","nom_standard":"Arronnes","nom_a":null,"nom_de":null,"slug_ville":"arronnes","departement_id":0,"code_postal":"03250","population":378,"superficie_km2":"2605.21","latitude_centre":"46.0513","longitude_centre":"3.5714","distance_km":6.77},{"id":0,"code_insee":"63291","nom_standard":"Puy-Guillaume","nom_a":null,"nom_de":null,"slug_ville":"puy-guillaume","departement_id":0,"code_postal":"63290","population":2630,"superficie_km2":"2506.77","latitude_centre":"45.9644","longitude_centre":"3.5024","distance_km":7.42},{"id":11011,"code_insee":"03141","nom_standard":"Lavoine","nom_a":null,"nom_de":null,"slug_ville":"lavoine","departement_id":0,"code_postal":"03250","population":153,"superficie_km2":"1748.12","latitude_centre":"45.9675","longitude_centre":"3.6908","distance_km":8.25},{"id":11029,"code_insee":"03163","nom_standard":"Mariol","nom_a":null,"nom_de":null,"slug_ville":"mariol","departement_id":0,"code_postal":"03270","population":679,"superficie_km2":"1009.03","latitude_centre":"46.0257","longitude_centre":"3.4935","distance_km":8.34},{"id":0,"code_insee":"03165","nom_standard":"Le Mayet-de-Montagne","nom_a":null,"nom_de":null,"slug_ville":"le-mayet-de-montagne","departement_id":0,"code_postal":"03250","population":1383,"superficie_km2":"2961.81","latitude_centre":"46.0605","longitude_centre":"3.6491","distance_km":8.9},{"id":10940,"code_insee":"03045","nom_standard":"Busset","nom_a":null,"nom_de":null,"slug_ville":"busset","departement_id":0,"code_postal":"03270","population":850,"superficie_km2":"3683.78","latitude_centre":"46.058","longitude_centre":"3.5139","distance_km":9.41},{"id":0,"code_insee":"63271","nom_standard":"Paslières","nom_a":null,"nom_de":null,"slug_ville":"paslieres","departement_id":0,"code_postal":"63290","population":1491,"superficie_km2":"2792.42","latitude_centre":"45.9221","longitude_centre":"3.5108","distance_km":9.87},{"id":0,"code_insee":"63267","nom_standard":"Palladuc","nom_a":null,"nom_de":null,"slug_ville":"palladuc","departement_id":0,"code_postal":"63550","population":517,"superficie_km2":"1340.47","latitude_centre":"45.9078","longitude_centre":"3.6527","distance_km":10.53},{"id":10947,"code_insee":"03056","nom_standard":"La Chapelle","nom_a":null,"nom_de":null,"slug_ville":"la-chapelle","departement_id":0,"code_postal":"03300","population":399,"superficie_km2":"2114.82","latitude_centre":"46.0876","longitude_centre":"3.5903","distance_km":10.65},{"id":0,"code_insee":"63393","nom_standard":"Saint-Rémy-sur-Durolle","nom_a":null,"nom_de":null,"slug_ville":"saint-remy-sur-durolle","departement_id":0,"code_postal":"63550","population":1746,"superficie_km2":"1824.73","latitude_centre":"45.8946","longitude_centre":"3.5801","distance_km":10.83},{"id":0,"code_insee":"63066","nom_standard":"Celles-sur-Durolle","nom_a":null,"nom_de":null,"slug_ville":"celles-sur-durolle","departement_id":0,"code_postal":"63250","population":1627,"superficie_km2":"3882.51","latitude_centre":"45.882","longitude_centre":"3.6449","distance_km":12.93},{"id":11058,"code_insee":"03201","nom_standard":"Nizerolles","nom_a":null,"nom_de":null,"slug_ville":"nizerolles","departement_id":0,"code_postal":"03250","population":282,"superficie_km2":"1766.00","latitude_centre":"46.1068","longitude_centre":"3.6426","distance_km":13.42},{"id":0,"code_insee":"63231","nom_standard":"La Monnerie-le-Montel","nom_a":null,"nom_de":null,"slug_ville":"la-monnerie-le-montel","departement_id":0,"code_postal":"63650","population":1647,"superficie_km2":"469.73","latitude_centre":"45.872","longitude_centre":"3.614","distance_km":13.45},{"id":11038,"code_insee":"03174","nom_standard":"Molles","nom_a":null,"nom_de":null,"slug_ville":"molles","departement_id":0,"code_postal":"03300","population":904,"superficie_km2":"2679.35","latitude_centre":"46.1121","longitude_centre":"3.556","distance_km":13.63},{"id":0,"code_insee":"63430","nom_standard":"Thiers","nom_a":null,"nom_de":null,"slug_ville":"thiers","departement_id":0,"code_postal":"63300","population":11637,"superficie_km2":"4477.59","latitude_centre":"45.8653","longitude_centre":"3.538","distance_km":14.63}]}