{"ville":{"id":33815,"code_insee":"84058","nom_standard":"Lacoste","nom_a":null,"nom_de":null,"slug_ville":"lacoste","departement_id":0,"code_postal":"84480","population":468,"superficie_km2":"1069.39","latitude_centre":"43.8236","longitude_centre":"5.2645","dep_code":"84","dep_nom":"Vaucluse","dep_slug":"vaucluse","reg_code":"93","reg_nom":"Provence-Alpes-Côte d'Azur","reg_slug":"provence-alpes-cote-d-azur"},"departement":{"code":"84","nom":"Vaucluse","slug":"vaucluse"},"region":{"code":"93","nom":"Provence-Alpes-Côte d'Azur","slug":"provence-alpes-cote-d-azur"},"villes_proches":[{"id":0,"code_insee":"84073","nom_standard":"Ménerbes","nom_a":null,"nom_de":null,"slug_ville":"menerbes","departement_id":0,"code_postal":"84560","population":962,"superficie_km2":"3044.76","latitude_centre":"43.8271","longitude_centre":"5.2172","distance_km":3.81},{"id":0,"code_insee":"84020","nom_standard":"Bonnieux","nom_a":null,"nom_de":null,"slug_ville":"bonnieux","departement_id":0,"code_postal":"84480","population":1198,"superficie_km2":"5137.48","latitude_centre":"43.8327","longitude_centre":"5.3172","distance_km":4.35},{"id":0,"code_insee":"84051","nom_standard":"Goult","nom_a":null,"nom_de":null,"slug_ville":"goult","departement_id":0,"code_postal":"84220","population":1055,"superficie_km2":"2384.29","latitude_centre":"43.8675","longitude_centre":"5.2448","distance_km":5.13},{"id":0,"code_insee":"84093","nom_standard":"Puget","nom_a":null,"nom_de":null,"slug_ville":"puget","departement_id":0,"code_postal":"84360","population":894,"superficie_km2":"1956.31","latitude_centre":"43.7699","longitude_centre":"5.2572","distance_km":6.0},{"id":33799,"code_insee":"84013","nom_standard":"Beaumettes","nom_a":null,"nom_de":null,"slug_ville":"beaumettes","departement_id":0,"code_postal":"84220","population":314,"superficie_km2":"266.07","latitude_centre":"43.8632","longitude_centre":"5.202","distance_km":6.67},{"id":0,"code_insee":"84114","nom_standard":"Saint-Pantaléon","nom_a":null,"nom_de":null,"slug_ville":"saint-pantaleon","departement_id":0,"code_postal":"84220","population":222,"superficie_km2":"79.16","latitude_centre":"43.8787","longitude_centre":"5.2154","distance_km":7.28},{"id":0,"code_insee":"84065","nom_standard":"Lauris","nom_a":null,"nom_de":null,"slug_ville":"lauris","departement_id":0,"code_postal":"84360","population":3921,"superficie_km2":"2250.67","latitude_centre":"43.7611","longitude_centre":"5.3019","distance_km":7.57},{"id":0,"code_insee":"84086","nom_standard":"Oppède","nom_a":null,"nom_de":null,"slug_ville":"oppede","departement_id":0,"code_postal":"84580","population":1285,"superficie_km2":"2439.27","latitude_centre":"43.8331","longitude_centre":"5.1707","distance_km":7.6},{"id":0,"code_insee":"84102","nom_standard":"Roussillon","nom_a":null,"nom_de":null,"slug_ville":"roussillon","departement_id":0,"code_postal":"84220","population":1333,"superficie_km2":"3025.68","latitude_centre":"43.8959","longitude_centre":"5.2906","distance_km":8.31},{"id":33804,"code_insee":"84023","nom_standard":"Buoux","nom_a":null,"nom_de":null,"slug_ville":"buoux","departement_id":0,"code_postal":"84480","population":104,"superficie_km2":"1760.70","latitude_centre":"43.8207","longitude_centre":"5.3745","distance_km":8.83},{"id":0,"code_insee":"84074","nom_standard":"Mérindol","nom_a":null,"nom_de":null,"slug_ville":"merindol","departement_id":0,"code_postal":"84360","population":2283,"superficie_km2":"2710.40","latitude_centre":"43.7648","longitude_centre":"5.1884","distance_km":8.95},{"id":0,"code_insee":"84068","nom_standard":"Lourmarin","nom_a":null,"nom_de":null,"slug_ville":"lourmarin","departement_id":0,"code_postal":"84160","population":1020,"superficie_km2":"2021.19","latitude_centre":"43.7785","longitude_centre":"5.3625","distance_km":9.33},{"id":0,"code_insee":"84095","nom_standard":"Puyvert","nom_a":null,"nom_de":null,"slug_ville":"puyvert","departement_id":0,"code_postal":"84160","population":865,"superficie_km2":"1006.04","latitude_centre":"43.7519","longitude_centre":"5.3384","distance_km":9.94},{"id":0,"code_insee":"84047","nom_standard":"Gargas","nom_a":null,"nom_de":null,"slug_ville":"gargas","departement_id":0,"code_postal":"84400","population":3035,"superficie_km2":"1488.00","latitude_centre":"43.8939","longitude_centre":"5.3435","distance_km":10.06},{"id":0,"code_insee":"84071","nom_standard":"Maubec","nom_a":null,"nom_de":null,"slug_ville":"maubec","departement_id":0,"code_postal":"84660","population":1915,"superficie_km2":"918.39","latitude_centre":"43.8384","longitude_centre":"5.1357","distance_km":10.46},{"id":0,"code_insee":"84050","nom_standard":"Gordes","nom_a":null,"nom_de":null,"slug_ville":"gordes","departement_id":0,"code_postal":"84220","population":1661,"superficie_km2":"4892.10","latitude_centre":"43.9074","longitude_centre":"5.204","distance_km":10.5},{"id":33814,"code_insee":"84057","nom_standard":"Joucas","nom_a":null,"nom_de":null,"slug_ville":"joucas","departement_id":0,"code_postal":"84220","population":348,"superficie_km2":"843.87","latitude_centre":"43.9223","longitude_centre":"5.2522","distance_km":11.02},{"id":0,"code_insee":"13024","nom_standard":"Charleval","nom_a":null,"nom_de":null,"slug_ville":"charleval","departement_id":0,"code_postal":"13350","population":2640,"superficie_km2":"1435.93","latitude_centre":"43.7205","longitude_centre":"5.2461","distance_km":11.56},{"id":0,"code_insee":"13053","nom_standard":"Mallemort","nom_a":null,"nom_de":null,"slug_ville":"mallemort","departement_id":0,"code_postal":"13370","population":6166,"superficie_km2":"2861.37","latitude_centre":"43.728","longitude_centre":"5.1849","distance_km":12.4},{"id":0,"code_insee":"13084","nom_standard":"La Roque-d'Anthéron","nom_a":null,"nom_de":null,"slug_ville":"la-roque-d-antheron","departement_id":0,"code_postal":"13640","population":5459,"superficie_km2":"2540.36","latitude_centre":"43.7166","longitude_centre":"5.3165","distance_km":12.61}]}