{"ville":{"id":29082,"code_insee":"65248","nom_standard":"Lahitte-Toupière","nom_a":null,"nom_de":null,"slug_ville":"lahitte-toupiere","departement_id":0,"code_postal":"65700","population":263,"superficie_km2":"572.96","latitude_centre":"43.4573","longitude_centre":"-0.0121","dep_code":"65","dep_nom":"Hautes-Pyrénées","dep_slug":"hautes-pyrenees","reg_code":"76","reg_nom":"Occitanie","reg_slug":"occitanie"},"departement":{"code":"65","nom":"Hautes-Pyrénées","slug":"hautes-pyrenees"},"region":{"code":"76","nom":"Occitanie","slug":"occitanie"},"villes_proches":[{"id":28732,"code_insee":"64395","nom_standard":"Monségur","nom_a":null,"nom_de":null,"slug_ville":"monsegur","departement_id":0,"code_postal":"64460","population":136,"superficie_km2":"280.30","latitude_centre":"43.4349","longitude_centre":"-0.0128","distance_km":2.49},{"id":0,"code_insee":"65429","nom_standard":"Sombrun","nom_a":null,"nom_de":null,"slug_ville":"sombrun","departement_id":0,"code_postal":"65700","population":194,"superficie_km2":"974.59","latitude_centre":"43.4816","longitude_centre":"-0.0017","distance_km":2.83},{"id":0,"code_insee":"65262","nom_standard":"Larreule","nom_a":null,"nom_de":null,"slug_ville":"larreule","departement_id":0,"code_postal":"65700","population":379,"superficie_km2":"1019.89","latitude_centre":"43.4416","longitude_centre":"0.018","distance_km":2.99},{"id":0,"code_insee":"65462","nom_standard":"Vidouze","nom_a":null,"nom_de":null,"slug_ville":"vidouze","departement_id":0,"code_postal":"65700","population":230,"superficie_km2":"1630.40","latitude_centre":"43.4377","longitude_centre":"-0.0436","distance_km":3.35},{"id":28728,"code_insee":"64390","nom_standard":"Moncaup","nom_a":null,"nom_de":null,"slug_ville":"moncaup","departement_id":0,"code_postal":"64350","population":156,"superficie_km2":"1149.93","latitude_centre":"43.4815","longitude_centre":"-0.0501","distance_km":4.08},{"id":0,"code_insee":"65304","nom_standard":"Maubourguet","nom_a":null,"nom_de":null,"slug_ville":"maubourguet","departement_id":0,"code_postal":"65700","population":2242,"superficie_km2":"2231.25","latitude_centre":"43.4694","longitude_centre":"0.0387","distance_km":4.32},{"id":0,"code_insee":"65264","nom_standard":"Lascazères","nom_a":null,"nom_de":null,"slug_ville":"lascazeres","departement_id":0,"code_postal":"65700","population":320,"superficie_km2":"923.14","latitude_centre":"43.4954","longitude_centre":"-0.0298","distance_km":4.47},{"id":28648,"code_insee":"64293","nom_standard":"Labatut-Figuières","nom_a":null,"nom_de":null,"slug_ville":"labatut-figuieres","departement_id":0,"code_postal":"64460","population":172,"superficie_km2":"848.55","latitude_centre":"43.416","longitude_centre":"-0.0145","distance_km":4.6},{"id":0,"code_insee":"65472","nom_standard":"Villefranque","nom_a":null,"nom_de":null,"slug_ville":"villefranque","departement_id":0,"code_postal":"65700","population":74,"superficie_km2":"320.98","latitude_centre":"43.5005","longitude_centre":"-0.0019","distance_km":4.87},{"id":28493,"code_insee":"64098","nom_standard":"Bassillon-Vauzé","nom_a":null,"nom_de":null,"slug_ville":"bassillon-vauze","departement_id":0,"code_postal":"64350","population":64,"superficie_km2":"494.70","latitude_centre":"43.454","longitude_centre":"-0.0773","distance_km":5.28},{"id":0,"code_insee":"65330","nom_standard":"Nouilhan","nom_a":null,"nom_de":null,"slug_ville":"nouilhan","departement_id":0,"code_postal":"65500","population":231,"superficie_km2":"458.70","latitude_centre":"43.4257","longitude_centre":"0.0437","distance_km":5.71},{"id":28964,"code_insee":"65119","nom_standard":"Caixon","nom_a":null,"nom_de":null,"slug_ville":"caixon","departement_id":0,"code_postal":"65500","population":340,"superficie_km2":"858.63","latitude_centre":"43.4107","longitude_centre":"0.0186","distance_km":5.74},{"id":28699,"code_insee":"64356","nom_standard":"Luc-Armau","nom_a":null,"nom_de":null,"slug_ville":"luc-armau","departement_id":0,"code_postal":"64350","population":104,"superficie_km2":"589.10","latitude_centre":"43.4271","longitude_centre":"-0.0712","distance_km":5.83},{"id":29015,"code_insee":"65174","nom_standard":"Estirac","nom_a":null,"nom_de":null,"slug_ville":"estirac","departement_id":0,"code_postal":"65700","population":104,"superficie_km2":"523.13","latitude_centre":"43.5008","longitude_centre":"0.0292","distance_km":5.87},{"id":28549,"code_insee":"64174","nom_standard":"Castéra-Loubix","nom_a":null,"nom_de":null,"slug_ville":"castera-loubix","departement_id":0,"code_postal":"64460","population":51,"superficie_km2":"341.37","latitude_centre":"43.4064","longitude_centre":"-0.0324","distance_km":5.89},{"id":28731,"code_insee":"64394","nom_standard":"Monpezat","nom_a":null,"nom_de":null,"slug_ville":"monpezat","departement_id":0,"code_postal":"64350","population":80,"superficie_km2":"354.43","latitude_centre":"43.5011","longitude_centre":"-0.0628","distance_km":6.36},{"id":29054,"code_insee":"65215","nom_standard":"Hagedet","nom_a":null,"nom_de":null,"slug_ville":"hagedet","departement_id":0,"code_postal":"65700","population":38,"superficie_km2":"220.76","latitude_centre":"43.5181","longitude_centre":"-0.0268","distance_km":6.86},{"id":28979,"code_insee":"65137","nom_standard":"Caussade-Rivière","nom_a":null,"nom_de":null,"slug_ville":"caussade-riviere","departement_id":0,"code_postal":"65700","population":99,"superficie_km2":"619.96","latitude_centre":"43.5181","longitude_centre":"0.0113","distance_km":7.02},{"id":28510,"code_insee":"64118","nom_standard":"Bétracq","nom_a":null,"nom_de":null,"slug_ville":"betracq","departement_id":0,"code_postal":"64350","population":49,"superficie_km2":"467.49","latitude_centre":"43.5207","longitude_centre":"-0.0536","distance_km":7.8},{"id":28662,"code_insee":"64309","nom_standard":"Lamayou","nom_a":null,"nom_de":null,"slug_ville":"lamayou","departement_id":0,"code_postal":"64460","population":214,"superficie_km2":"975.02","latitude_centre":"43.384","longitude_centre":"-0.0272","distance_km":8.24}]}