{"ville":{"id":34836,"code_insee":"89216","nom_standard":"Lainsecq","nom_a":null,"nom_de":null,"slug_ville":"lainsecq","departement_id":0,"code_postal":"89520","population":328,"superficie_km2":"2516.53","latitude_centre":"47.5462","longitude_centre":"3.28","dep_code":"89","dep_nom":"Yonne","dep_slug":"yonne","reg_code":"27","reg_nom":"Bourgogne-Franche-Comté","reg_slug":"bourgogne-franche-comte"},"departement":{"code":"89","nom":"Yonne","slug":"yonne"},"region":{"code":"27","nom":"Bourgogne-Franche-Comté","slug":"bourgogne-franche-comte"},"villes_proches":[{"id":0,"code_insee":"89331","nom_standard":"Sainpuits","nom_a":null,"nom_de":null,"slug_ville":"sainpuits","departement_id":0,"code_postal":"89520","population":280,"superficie_km2":"2295.17","latitude_centre":"47.5123","longitude_centre":"3.2507","distance_km":4.36},{"id":0,"code_insee":"89416","nom_standard":"Thury","nom_a":null,"nom_de":null,"slug_ville":"thury","departement_id":0,"code_postal":"89520","population":418,"superficie_km2":"2329.69","latitude_centre":"47.5895","longitude_centre":"3.3029","distance_km":5.11},{"id":0,"code_insee":"89400","nom_standard":"Sougères-en-Puisaye","nom_a":null,"nom_de":null,"slug_ville":"sougeres-en-puisaye","departement_id":0,"code_postal":"89520","population":289,"superficie_km2":"2682.05","latitude_centre":"47.567","longitude_centre":"3.3481","distance_km":5.61},{"id":34792,"code_insee":"89158","nom_standard":"Étais-la-Sauvin","nom_a":null,"nom_de":null,"slug_ville":"etais-la-sauvin","departement_id":0,"code_postal":"89480","population":631,"superficie_km2":"4477.47","latitude_centre":"47.5094","longitude_centre":"3.3494","distance_km":6.63},{"id":0,"code_insee":"89420","nom_standard":"Treigny-Perreuse-Sainte-Colombe","nom_a":null,"nom_de":null,"slug_ville":"treigny-perreuse-sainte-colombe","departement_id":0,"code_postal":"89520","population":1083,"superficie_km2":"6773.04","latitude_centre":"47.5591","longitude_centre":"3.1888","distance_km":6.99},{"id":0,"code_insee":"89367","nom_standard":"Saints-en-Puisaye","nom_a":null,"nom_de":null,"slug_ville":"saints-en-puisaye","departement_id":0,"code_postal":"89520","population":548,"superficie_km2":"2768.10","latitude_centre":"47.6241","longitude_centre":"3.2732","distance_km":8.68},{"id":34835,"code_insee":"89215","nom_standard":"Lain","nom_a":null,"nom_de":null,"slug_ville":"lain","departement_id":0,"code_postal":"89560","population":172,"superficie_km2":"1033.27","latitude_centre":"47.6128","longitude_centre":"3.3432","distance_km":8.79},{"id":26034,"code_insee":"58036","nom_standard":"Bouhy","nom_a":null,"nom_de":null,"slug_ville":"bouhy","departement_id":0,"code_postal":"58310","population":410,"superficie_km2":"3669.07","latitude_centre":"47.4897","longitude_centre":"3.1831","distance_km":9.61},{"id":26092,"code_insee":"58109","nom_standard":"Entrains-sur-Nohain","nom_a":null,"nom_de":null,"slug_ville":"entrains-sur-nohain","departement_id":0,"code_postal":"58410","population":740,"superficie_km2":"5978.13","latitude_centre":"47.4559","longitude_centre":"3.2763","distance_km":10.04},{"id":34784,"code_insee":"89148","nom_standard":"Druyes-les-Belles-Fontaines","nom_a":null,"nom_de":null,"slug_ville":"druyes-les-belles-fontaines","departement_id":0,"code_postal":"89560","population":265,"superficie_km2":"3969.90","latitude_centre":"47.5538","longitude_centre":"3.4147","distance_km":10.14},{"id":0,"code_insee":"89383","nom_standard":"Sementron","nom_a":null,"nom_de":null,"slug_ville":"sementron","departement_id":0,"code_postal":"89560","population":107,"superficie_km2":"1176.69","latitude_centre":"47.6232","longitude_centre":"3.3598","distance_km":10.45},{"id":0,"code_insee":"89273","nom_standard":"Moutiers-en-Puisaye","nom_a":null,"nom_de":null,"slug_ville":"moutiers-en-puisaye","departement_id":0,"code_postal":"89520","population":268,"superficie_km2":"3178.07","latitude_centre":"47.6113","longitude_centre":"3.1726","distance_km":10.83},{"id":26030,"code_insee":"58032","nom_standard":"Billy-sur-Oisy","nom_a":null,"nom_de":null,"slug_ville":"billy-sur-oisy","departement_id":0,"code_postal":"58500","population":381,"superficie_km2":"2671.83","latitude_centre":"47.4836","longitude_centre":"3.3962","distance_km":11.16},{"id":34809,"code_insee":"89179","nom_standard":"Fontenoy","nom_a":null,"nom_de":null,"slug_ville":"fontenoy","departement_id":0,"code_postal":"89520","population":305,"superficie_km2":"1589.44","latitude_centre":"47.6498","longitude_centre":"3.2941","distance_km":11.57},{"id":0,"code_insee":"89368","nom_standard":"Saint-Sauveur-en-Puisaye","nom_a":null,"nom_de":null,"slug_ville":"saint-sauveur-en-puisaye","departement_id":0,"code_postal":"89520","population":905,"superficie_km2":"3071.00","latitude_centre":"47.6358","longitude_centre":"3.196","distance_km":11.79},{"id":0,"code_insee":"89222","nom_standard":"Levis","nom_a":null,"nom_de":null,"slug_ville":"levis","departement_id":0,"code_postal":"89520","population":223,"superficie_km2":"1210.33","latitude_centre":"47.6577","longitude_centre":"3.3307","distance_km":12.97},{"id":26075,"code_insee":"58085","nom_standard":"Corvol-l'Orgueilleux","nom_a":null,"nom_de":null,"slug_ville":"corvol-l-orgueilleux","departement_id":0,"code_postal":"58460","population":721,"superficie_km2":"3033.91","latitude_centre":"47.4342","longitude_centre":"3.3716","distance_km":14.23},{"id":26136,"code_insee":"58162","nom_standard":"Menestreau","nom_a":null,"nom_de":null,"slug_ville":"menestreau","departement_id":0,"code_postal":"58410","population":96,"superficie_km2":"1944.15","latitude_centre":"47.4115","longitude_centre":"3.2638","distance_km":15.03},{"id":0,"code_insee":"89217","nom_standard":"Lalande","nom_a":null,"nom_de":null,"slug_ville":"lalande","departement_id":0,"code_postal":"89130","population":123,"superficie_km2":"1026.82","latitude_centre":"47.6807","longitude_centre":"3.3088","distance_km":15.11},{"id":34805,"code_insee":"89173","nom_standard":"Fontaines","nom_a":null,"nom_de":null,"slug_ville":"fontaines","departement_id":0,"code_postal":"89130","population":459,"superficie_km2":"2540.06","latitude_centre":"47.6909","longitude_centre":"3.2665","distance_km":16.12}]}