{"ville":{"id":3916,"code_insee":"40142","nom_standard":"Laluque","nom_a":null,"nom_de":null,"slug_ville":"laluque","departement_id":641,"code_postal":"40465","population":1070,"superficie_km2":"53.00","latitude_centre":"43.8510017","longitude_centre":"-0.9860000","dep_code":"40","dep_nom":"Landes","dep_slug":"landes","reg_code":"15","reg_nom":"Nouvelle-Aquitaine","reg_slug":"nouvelle-aquitaine"},"departement":{"code":"40","nom":"Landes","slug":"landes"},"region":{"code":"15","nom":"Nouvelle-Aquitaine","slug":"nouvelle-aquitaine"},"villes_proches":[{"id":3940,"code_insee":"40230","nom_standard":"Pontonx-sur-l'Adour","nom_a":null,"nom_de":null,"slug_ville":"pontonx-sur-l-adour","departement_id":641,"code_postal":"40465","population":2932,"superficie_km2":"49.00","latitude_centre":"43.7980003","longitude_centre":"-0.9400000","distance_km":6.95},{"id":3962,"code_insee":"40283","nom_standard":"Saint-Vincent-de-Paul","nom_a":null,"nom_de":null,"slug_ville":"saint-vincent-de-paul","departement_id":641,"code_postal":"40990","population":3360,"superficie_km2":"33.00","latitude_centre":"43.7659988","longitude_centre":"-1.0020000","distance_km":9.54},{"id":3943,"code_insee":"40243","nom_standard":"Rion-des-Landes","nom_a":null,"nom_de":null,"slug_ville":"rion-des-landes","departement_id":641,"code_postal":"40370","population":3084,"superficie_km2":"118.00","latitude_centre":"43.9350014","longitude_centre":"-0.9340000","distance_km":10.23},{"id":3896,"code_insee":"40031","nom_standard":"Bégaar","nom_a":null,"nom_de":null,"slug_ville":"begaar","departement_id":641,"code_postal":"40400","population":1215,"superficie_km2":"28.00","latitude_centre":"43.8300018","longitude_centre":"-0.8560000","distance_km":10.68},{"id":3910,"code_insee":"40123","nom_standard":"Herm","nom_a":null,"nom_de":null,"slug_ville":"herm","departement_id":641,"code_postal":"40990","population":1175,"superficie_km2":"52.00","latitude_centre":"43.8069992","longitude_centre":"-1.1250000","distance_km":12.18},{"id":3902,"code_insee":"40075","nom_standard":"Castets","nom_a":null,"nom_de":null,"slug_ville":"castets","departement_id":641,"code_postal":"40260","population":2505,"superficie_km2":"91.00","latitude_centre":"43.8740006","longitude_centre":"-1.1450000","distance_km":13},{"id":3958,"code_insee":"40279","nom_standard":"Saint-Paul-lès-Dax","nom_a":null,"nom_de":null,"slug_ville":"saint-paul-les-dax","departement_id":641,"code_postal":"40990","population":14317,"superficie_km2":"58.00","latitude_centre":"43.7459984","longitude_centre":"-1.0810000","distance_km":13.94},{"id":3918,"code_insee":"40152","nom_standard":"Lesperon","nom_a":null,"nom_de":null,"slug_ville":"lesperon","departement_id":641,"code_postal":"40260","population":1027,"superficie_km2":"104.00","latitude_centre":"43.9630013","longitude_centre":"-1.0770000","distance_km":14.43},{"id":3912,"code_insee":"40126","nom_standard":"Hinx","nom_a":null,"nom_de":null,"slug_ville":"hinx","departement_id":641,"code_postal":"40180","population":1891,"superficie_km2":"15.00","latitude_centre":"43.7099991","longitude_centre":"-0.9380000","distance_km":16.15},{"id":3906,"code_insee":"40104","nom_standard":"Gamarde-les-Bains","nom_a":null,"nom_de":null,"slug_ville":"gamarde-les-bains","departement_id":641,"code_postal":"40380","population":1518,"superficie_km2":"19.00","latitude_centre":"43.7280006","longitude_centre":"-0.8730000","distance_km":16.41},{"id":3979,"code_insee":"40313","nom_standard":"Tartas","nom_a":null,"nom_de":null,"slug_ville":"tartas","departement_id":641,"code_postal":"40400","population":3191,"superficie_km2":"30.00","latitude_centre":"43.8180008","longitude_centre":"-0.7830000","distance_km":16.69},{"id":3930,"code_insee":"40202","nom_standard":"Narrosse","nom_a":null,"nom_de":null,"slug_ville":"narrosse","departement_id":641,"code_postal":"40180","population":3295,"superficie_km2":"11.00","latitude_centre":"43.6940002","longitude_centre":"-1.0080000","distance_km":17.55},{"id":3904,"code_insee":"40088","nom_standard":"Dax","nom_a":null,"nom_de":null,"slug_ville":"dax","departement_id":641,"code_postal":"40100","population":21347,"superficie_km2":"20.00","latitude_centre":"43.7010002","longitude_centre":"-1.0599999","distance_km":17.71},{"id":3922,"code_insee":"40179","nom_standard":"Mées","nom_a":null,"nom_de":null,"slug_ville":"mees","departement_id":641,"code_postal":"40990","population":1904,"superficie_km2":"15.00","latitude_centre":"43.7099991","longitude_centre":"-1.1220000","distance_km":19.11},{"id":3921,"code_insee":"40168","nom_standard":"Magescq","nom_a":null,"nom_de":null,"slug_ville":"magescq","departement_id":641,"code_postal":"40140","population":2493,"superficie_km2":"77.00","latitude_centre":"43.7739983","longitude_centre":"-1.2000000","distance_km":19.19},{"id":3973,"code_insee":"40300","nom_standard":"Seyresse","nom_a":null,"nom_de":null,"slug_ville":"seyresse","departement_id":641,"code_postal":"40180","population":1016,"superficie_km2":"2.00","latitude_centre":"43.6829987","longitude_centre":"-1.0599999","distance_km":19.6},{"id":3970,"code_insee":"40294","nom_standard":"Saugnac-et-Cambran","nom_a":null,"nom_de":null,"slug_ville":"saugnac-et-cambran","departement_id":641,"code_postal":"40180","population":1566,"superficie_km2":"13.00","latitude_centre":"43.6730003","longitude_centre":"-0.9890000","distance_km":19.79},{"id":3927,"code_insee":"40194","nom_standard":"Montfort-en-Chalosse","nom_a":null,"nom_de":null,"slug_ville":"montfort-en-chalosse","departement_id":641,"code_postal":"40380","population":1207,"superficie_km2":"11.00","latitude_centre":"43.7039986","longitude_centre":"-0.8360000","distance_km":20.3},{"id":3919,"code_insee":"40155","nom_standard":"Linxe","nom_a":null,"nom_de":null,"slug_ville":"linxe","departement_id":641,"code_postal":"40260","population":1541,"superficie_km2":"81.00","latitude_centre":"43.9290009","longitude_centre":"-1.2190000","distance_km":20.59},{"id":3931,"code_insee":"40207","nom_standard":"Oeyreluy","nom_a":null,"nom_de":null,"slug_ville":"oeyreluy","departement_id":641,"code_postal":"40180","population":1508,"superficie_km2":"6.00","latitude_centre":"43.6730003","longitude_centre":"-1.0779999","distance_km":21.13}]}