{"ville":{"id":508,"code_insee":"07129","nom_standard":"Lamastre","nom_a":null,"nom_de":null,"slug_ville":"lamastre","departement_id":607,"code_postal":"07270","population":2342,"superficie_km2":"26.00","latitude_centre":"44.9819984","longitude_centre":"4.5910001","dep_code":"07","dep_nom":"Ardèche","dep_slug":"ardeche","reg_code":"01","reg_nom":"Auvergne-Rhône-Alpes","reg_slug":"auvergne-rhone-alpes"},"departement":{"code":"07","nom":"Ardèche","slug":"ardeche"},"region":{"code":"01","nom":"Auvergne-Rhône-Alpes","slug":"auvergne-rhone-alpes"},"villes_proches":[{"id":496,"code_insee":"07079","nom_standard":"Désaignes","nom_a":null,"nom_de":null,"slug_ville":"desaignes","departement_id":607,"code_postal":"07570","population":1151,"superficie_km2":"51.00","latitude_centre":"44.9920006","longitude_centre":"4.5009999","distance_km":7.16},{"id":563,"code_insee":"07338","nom_standard":"Vernoux-en-Vivarais","nom_a":null,"nom_de":null,"slug_ville":"vernoux-en-vivarais","departement_id":607,"code_postal":"07240","population":1977,"superficie_km2":"31.00","latitude_centre":"44.9049988","longitude_centre":"4.6440001","distance_km":9.52},{"id":533,"code_insee":"07236","nom_standard":"Saint-Félicien","nom_a":null,"nom_de":null,"slug_ville":"saint-felicien","departement_id":607,"code_postal":"07410","population":1119,"superficie_km2":"22.00","latitude_centre":"45.0769997","longitude_centre":"4.6100001","distance_km":10.67},{"id":478,"code_insee":"07007","nom_standard":"Alboussière","nom_a":null,"nom_de":null,"slug_ville":"alboussiere","departement_id":607,"code_postal":"07440","population":1005,"superficie_km2":"18.00","latitude_centre":"44.9399986","longitude_centre":"4.7340002","distance_km":12.18},{"id":527,"code_insee":"07204","nom_standard":"Saint-Agrève","nom_a":null,"nom_de":null,"slug_ville":"saint-agreve","departement_id":607,"code_postal":"07320","population":2325,"superficie_km2":"48.00","latitude_centre":"45.0050011","longitude_centre":"4.4130001","distance_km":14.23},{"id":490,"code_insee":"07064","nom_standard":"Le Cheylard","nom_a":null,"nom_de":null,"slug_ville":"le-cheylard","departement_id":607,"code_postal":"07160","population":2825,"superficie_km2":"14.00","latitude_centre":"44.9080010","longitude_centre":"4.4210000","distance_km":15.71},{"id":550,"code_insee":"07309","nom_standard":"Satillieu","nom_a":null,"nom_de":null,"slug_ville":"satillieu","departement_id":607,"code_postal":"07290","population":1500,"superficie_km2":"33.00","latitude_centre":"45.1419983","longitude_centre":"4.5879998","distance_km":17.79},{"id":541,"code_insee":"07269","nom_standard":"Saint-Martin-de-Valamas","nom_a":null,"nom_de":null,"slug_ville":"saint-martin-de-valamas","departement_id":607,"code_postal":"07310","population":1092,"superficie_km2":"20.00","latitude_centre":"44.9370003","longitude_centre":"4.3709998","distance_km":18.02},{"id":547,"code_insee":"07295","nom_standard":"Saint-Sauveur-de-Montagut","nom_a":null,"nom_de":null,"slug_ville":"saint-sauveur-de-montagut","departement_id":607,"code_postal":"07190","population":1105,"superficie_km2":"12.00","latitude_centre":"44.8199997","longitude_centre":"4.5730000","distance_km":18.07},{"id":556,"code_insee":"07323","nom_standard":"Toulaud","nom_a":null,"nom_de":null,"slug_ville":"toulaud","departement_id":607,"code_postal":"07130","population":1714,"superficie_km2":"35.00","latitude_centre":"44.9020004","longitude_centre":"4.7930002","distance_km":18.22},{"id":513,"code_insee":"07152","nom_standard":"Mauves","nom_a":null,"nom_de":null,"slug_ville":"mauves","departement_id":607,"code_postal":"07300","population":1188,"superficie_km2":"7.00","latitude_centre":"45.0289993","longitude_centre":"4.8200002","distance_km":18.75},{"id":543,"code_insee":"07281","nom_standard":"Saint-Péray","nom_a":null,"nom_de":null,"slug_ville":"saint-peray","departement_id":607,"code_postal":"07130","population":7588,"superficie_km2":"24.00","latitude_centre":"44.9410019","longitude_centre":"4.8249998","distance_km":18.97},{"id":516,"code_insee":"07167","nom_standard":"Les Ollières-sur-Eyrieux","nom_a":null,"nom_de":null,"slug_ville":"les-ollieres-sur-eyrieux","departement_id":607,"code_postal":"07360","population":1015,"superficie_km2":"7.00","latitude_centre":"44.8100014","longitude_centre":"4.6199999","distance_km":19.26},{"id":557,"code_insee":"07324","nom_standard":"Tournon-sur-Rhône","nom_a":null,"nom_de":null,"slug_ville":"tournon-sur-rhone","departement_id":607,"code_postal":"07300","population":11191,"superficie_km2":"21.00","latitude_centre":"45.0540009","longitude_centre":"4.8150001","distance_km":19.34},{"id":535,"code_insee":"07245","nom_standard":"Saint-Jean-de-Muzols","nom_a":null,"nom_de":null,"slug_ville":"saint-jean-de-muzols","departement_id":607,"code_postal":"07300","population":2511,"superficie_km2":"11.00","latitude_centre":"45.0789986","longitude_centre":"4.8000002","distance_km":19.65},{"id":492,"code_insee":"07070","nom_standard":"Cornas","nom_a":null,"nom_de":null,"slug_ville":"cornas","departement_id":607,"code_postal":"07130","population":2353,"superficie_km2":"9.00","latitude_centre":"44.9659996","longitude_centre":"4.8410001","distance_km":19.75},{"id":1957,"code_insee":"26271","nom_standard":"La Roche-de-Glun","nom_a":null,"nom_de":null,"slug_ville":"la-roche-de-glun","departement_id":627,"code_postal":"26600","population":3478,"superficie_km2":"12.00","latitude_centre":"45.0190010","longitude_centre":"4.8569999","distance_km":21.32},{"id":538,"code_insee":"07261","nom_standard":"Saint-Laurent-du-Pape","nom_a":null,"nom_de":null,"slug_ville":"saint-laurent-du-pape","departement_id":607,"code_postal":"07800","population":1607,"superficie_km2":"20.00","latitude_centre":"44.8230019","longitude_centre":"4.7449999","distance_km":21.44},{"id":546,"code_insee":"07292","nom_standard":"Saint-Romain-d'Ay","nom_a":null,"nom_de":null,"slug_ville":"saint-romain-d-ay","departement_id":607,"code_postal":"07290","population":1195,"superficie_km2":"9.00","latitude_centre":"45.1660004","longitude_centre":"4.6820002","distance_km":21.67},{"id":534,"code_insee":"07240","nom_standard":"Saint-Georges-les-Bains","nom_a":null,"nom_de":null,"slug_ville":"saint-georges-les-bains","departement_id":607,"code_postal":"07800","population":2412,"superficie_km2":"14.00","latitude_centre":"44.8590012","longitude_centre":"4.8099999","distance_km":22.01}]}