{"ville":{"id":8742,"code_insee":"82089","nom_standard":"Lamagistère","nom_a":null,"nom_de":null,"slug_ville":"lamagistere","departement_id":683,"code_postal":"82360","population":1198,"superficie_km2":"9.00","latitude_centre":"44.1320000","longitude_centre":"0.8220000","dep_code":"82","dep_nom":"Tarn-et-Garonne","dep_slug":"tarn-et-garonne","reg_code":"16","reg_nom":"Occitanie","reg_slug":"occitanie"},"departement":{"code":"82","nom":"Tarn-et-Garonne","slug":"tarn-et-garonne"},"region":{"code":"16","nom":"Occitanie","slug":"occitanie"},"villes_proches":[{"id":8731,"code_insee":"82049","nom_standard":"Donzac","nom_a":null,"nom_de":null,"slug_ville":"donzac","departement_id":683,"code_postal":"82340","population":1035,"superficie_km2":"13.00","latitude_centre":"44.1020012","longitude_centre":"0.8140000","distance_km":3.4},{"id":8735,"code_insee":"82072","nom_standard":"Golfech","nom_a":null,"nom_de":null,"slug_ville":"golfech","departement_id":683,"code_postal":"82400","population":1011,"superficie_km2":"10.00","latitude_centre":"44.1100006","longitude_centre":"0.8570000","distance_km":3.71},{"id":8732,"code_insee":"82050","nom_standard":"Dunes","nom_a":null,"nom_de":null,"slug_ville":"dunes","departement_id":683,"code_postal":"82340","population":1210,"superficie_km2":"23.00","latitude_centre":"44.0859985","longitude_centre":"0.7740000","distance_km":6.39},{"id":8775,"code_insee":"82186","nom_standard":"Valence","nom_a":null,"nom_de":null,"slug_ville":"valence","departement_id":683,"code_postal":"82400","population":5256,"superficie_km2":"14.00","latitude_centre":"44.1069984","longitude_centre":"0.8980000","distance_km":6.67},{"id":4636,"code_insee":"47060","nom_standard":"Caudecoste","nom_a":null,"nom_de":null,"slug_ville":"caudecoste","departement_id":648,"code_postal":"47220","population":1132,"superficie_km2":"17.00","latitude_centre":"44.1189995","longitude_centre":"0.7370000","distance_km":6.94},{"id":4650,"code_insee":"47128","nom_standard":"Lafox","nom_a":null,"nom_de":null,"slug_ville":"lafox","departement_id":648,"code_postal":"47240","population":1090,"superficie_km2":"5.00","latitude_centre":"44.1650009","longitude_centre":"0.6990000","distance_km":10.48},{"id":4632,"code_insee":"47051","nom_standard":"Castelculier","nom_a":null,"nom_de":null,"slug_ville":"castelculier","departement_id":648,"code_postal":"47240","population":2384,"superficie_km2":"15.00","latitude_centre":"44.1879997","longitude_centre":"0.7110000","distance_km":10.82},{"id":8748,"code_insee":"82101","nom_standard":"Malause","nom_a":null,"nom_de":null,"slug_ville":"malause","departement_id":683,"code_postal":"82200","population":1227,"superficie_km2":"12.00","latitude_centre":"44.0900002","longitude_centre":"0.9720000","distance_km":12.85},{"id":4654,"code_insee":"47145","nom_standard":"Layrac","nom_a":null,"nom_de":null,"slug_ville":"layrac","departement_id":648,"code_postal":"47390","population":3816,"superficie_km2":"38.00","latitude_centre":"44.1209984","longitude_centre":"0.6550000","distance_km":13.39},{"id":4627,"code_insee":"47032","nom_standard":"Bon-Encontre","nom_a":null,"nom_de":null,"slug_ville":"bon-encontre","departement_id":648,"code_postal":"47240","population":6233,"superficie_km2":"20.00","latitude_centre":"44.2080002","longitude_centre":"0.6890000","distance_km":13.56},{"id":4626,"code_insee":"47031","nom_standard":"Boé","nom_a":null,"nom_de":null,"slug_ville":"boe","departement_id":648,"code_postal":"47550","population":5723,"superficie_km2":"17.00","latitude_centre":"44.1699982","longitude_centre":"0.6470000","distance_km":14.59},{"id":4621,"code_insee":"47015","nom_standard":"Astaffort","nom_a":null,"nom_de":null,"slug_ville":"astaffort","departement_id":648,"code_postal":"47220","population":2031,"superficie_km2":"35.00","latitude_centre":"44.0649986","longitude_centre":"0.6580000","distance_km":15.07},{"id":4668,"code_insee":"47209","nom_standard":"Pont-du-Casse","nom_a":null,"nom_de":null,"slug_ville":"pont-du-casse","departement_id":648,"code_postal":"47480","population":4173,"superficie_km2":"19.00","latitude_centre":"44.2360001","longitude_centre":"0.6760000","distance_km":16.41},{"id":4652,"code_insee":"47138","nom_standard":"Laroque-Timbaut","nom_a":null,"nom_de":null,"slug_ville":"laroque-timbaut","departement_id":648,"code_postal":"47340","population":1592,"superficie_km2":"22.00","latitude_centre":"44.2770004","longitude_centre":"0.7560000","distance_km":16.96},{"id":4661,"code_insee":"47169","nom_standard":"Moirax","nom_a":null,"nom_de":null,"slug_ville":"moirax","departement_id":648,"code_postal":"47310","population":1193,"superficie_km2":"16.00","latitude_centre":"44.1399994","longitude_centre":"0.6080000","distance_km":17.1},{"id":8771,"code_insee":"82169","nom_standard":"Saint-Nicolas-de-la-Grave","nom_a":null,"nom_de":null,"slug_ville":"saint-nicolas-de-la-grave","departement_id":683,"code_postal":"82210","population":2293,"superficie_km2":"29.00","latitude_centre":"44.0660019","longitude_centre":"1.0200000","distance_km":17.43},{"id":4619,"code_insee":"47001","nom_standard":"Agen","nom_a":null,"nom_de":null,"slug_ville":"agen","departement_id":648,"code_postal":"47000","population":32485,"superficie_km2":"12.00","latitude_centre":"44.2029991","longitude_centre":"0.6260000","distance_km":17.51},{"id":4666,"code_insee":"47201","nom_standard":"Le Passage","nom_a":null,"nom_de":null,"slug_ville":"le-passage","departement_id":648,"code_postal":"47520","population":9373,"superficie_km2":"13.00","latitude_centre":"44.1920013","longitude_centre":"0.5950000","distance_km":19.3},{"id":4645,"code_insee":"47100","nom_standard":"Foulayronnes","nom_a":null,"nom_de":null,"slug_ville":"foulayronnes","departement_id":648,"code_postal":"47510","population":5484,"superficie_km2":"29.00","latitude_centre":"44.2529984","longitude_centre":"0.6370000","distance_km":19.96},{"id":4643,"code_insee":"47091","nom_standard":"Estillac","nom_a":null,"nom_de":null,"slug_ville":"estillac","departement_id":648,"code_postal":"47310","population":2324,"superficie_km2":"8.00","latitude_centre":"44.1689987","longitude_centre":"0.5770000","distance_km":19.98}]}