{"ville":{"id":18109,"code_insee":"29104","nom_standard":"Landévennec","nom_a":null,"nom_de":null,"slug_ville":"landevennec","departement_id":0,"code_postal":"29560","population":330,"superficie_km2":"1379.19","latitude_centre":"48.2802","longitude_centre":"-4.3104","dep_code":"29","dep_nom":"Finistère","dep_slug":"finistere","reg_code":"53","reg_nom":"Bretagne","reg_slug":"bretagne"},"departement":{"code":"29","nom":"Finistère","slug":"finistere"},"region":{"code":"53","nom":"Bretagne","slug":"bretagne"},"villes_proches":[{"id":0,"code_insee":"29001","nom_standard":"Argol","nom_a":null,"nom_de":null,"slug_ville":"argol","departement_id":0,"code_postal":"29560","population":1065,"superficie_km2":"3150.70","latitude_centre":"48.2443","longitude_centre":"-4.3047","distance_km":4.01},{"id":0,"code_insee":"29137","nom_standard":"Logonna-Daoulas","nom_a":null,"nom_de":null,"slug_ville":"logonna-daoulas","departement_id":0,"code_postal":"29460","population":2130,"superficie_km2":"1228.02","latitude_centre":"48.3292","longitude_centre":"-4.293","distance_km":5.6},{"id":0,"code_insee":"29280","nom_standard":"Telgruc-sur-Mer","nom_a":null,"nom_de":null,"slug_ville":"telgruc-sur-mer","departement_id":0,"code_postal":"29560","population":2167,"superficie_km2":"2821.13","latitude_centre":"48.2367","longitude_centre":"-4.3613","distance_km":6.13},{"id":0,"code_insee":"29080","nom_standard":"Hôpital-Camfrout","nom_a":null,"nom_de":null,"slug_ville":"hopital-camfrout","departement_id":0,"code_postal":"29460","population":2215,"superficie_km2":"1313.81","latitude_centre":"48.3212","longitude_centre":"-4.2434","distance_km":6.73},{"id":0,"code_insee":"29289","nom_standard":"Trégarvan","nom_a":null,"nom_de":null,"slug_ville":"tregarvan","departement_id":0,"code_postal":"29560","population":134,"superficie_km2":"963.03","latitude_centre":"48.2407","longitude_centre":"-4.2344","distance_km":7.14},{"id":0,"code_insee":"29240","nom_standard":"Rosnoën","nom_a":null,"nom_de":null,"slug_ville":"rosnoen","departement_id":0,"code_postal":"29590","population":1012,"superficie_km2":"3417.61","latitude_centre":"48.2725","longitude_centre":"-4.2113","distance_km":7.38},{"id":0,"code_insee":"29256","nom_standard":"Saint-Nic","nom_a":null,"nom_de":null,"slug_ville":"saint-nic","departement_id":0,"code_postal":"29550","population":753,"superficie_km2":"1800.68","latitude_centre":"48.2078","longitude_centre":"-4.2809","distance_km":8.34},{"id":0,"code_insee":"29043","nom_standard":"Daoulas","nom_a":null,"nom_de":null,"slug_ville":"daoulas","departement_id":0,"code_postal":"29460","population":1864,"superficie_km2":"565.20","latitude_centre":"48.358","longitude_centre":"-4.269","distance_km":9.18},{"id":0,"code_insee":"29120","nom_standard":"Lanvéoc","nom_a":null,"nom_de":null,"slug_ville":"lanveoc","departement_id":0,"code_postal":"29160","population":2044,"superficie_km2":"1922.87","latitude_centre":"48.2764","longitude_centre":"-4.4434","distance_km":9.85},{"id":0,"code_insee":"29140","nom_standard":"Loperhet","nom_a":null,"nom_de":null,"slug_ville":"loperhet","departement_id":0,"code_postal":"29470","population":3959,"superficie_km2":"2039.30","latitude_centre":"48.3779","longitude_centre":"-4.3142","distance_km":10.87},{"id":0,"code_insee":"29189","nom_standard":"Plougastel-Daoulas","nom_a":null,"nom_de":null,"slug_ville":"plougastel-daoulas","departement_id":0,"code_postal":"29470","population":13434,"superficie_km2":"4676.50","latitude_centre":"48.3628","longitude_centre":"-4.3912","distance_km":10.96},{"id":0,"code_insee":"29044","nom_standard":"Dinéault","nom_a":null,"nom_de":null,"slug_ville":"dineault","departement_id":0,"code_postal":"29150","population":1853,"superficie_km2":"4726.34","latitude_centre":"48.2164","longitude_centre":"-4.1755","distance_km":12.25},{"id":0,"code_insee":"29042","nom_standard":"Crozon","nom_a":null,"nom_de":null,"slug_ville":"crozon","departement_id":0,"code_postal":"29160","population":7499,"superficie_km2":"7997.12","latitude_centre":"48.2396","longitude_centre":"-4.4679","distance_km":12.5},{"id":0,"code_insee":"29086","nom_standard":"Irvillac","nom_a":null,"nom_de":null,"slug_ville":"irvillac","departement_id":0,"code_postal":"29460","population":1411,"superficie_km2":"2968.08","latitude_centre":"48.3677","longitude_centre":"-4.1975","distance_km":12.82},{"id":0,"code_insee":"29045","nom_standard":"Dirinon","nom_a":null,"nom_de":null,"slug_ville":"dirinon","departement_id":0,"code_postal":"29460","population":2188,"superficie_km2":"3289.25","latitude_centre":"48.3977","longitude_centre":"-4.2633","distance_km":13.52},{"id":0,"code_insee":"29172","nom_standard":"Plomodiern","nom_a":null,"nom_de":null,"slug_ville":"plomodiern","departement_id":0,"code_postal":"29550","population":2282,"superficie_km2":"4664.99","latitude_centre":"48.1808","longitude_centre":"-4.2045","distance_km":13.55},{"id":0,"code_insee":"29270","nom_standard":"Saint-Urbain","nom_a":null,"nom_de":null,"slug_ville":"saint-urbain","departement_id":0,"code_postal":"29800","population":1670,"superficie_km2":"1525.21","latitude_centre":"48.395","longitude_centre":"-4.219","distance_km":14.44},{"id":0,"code_insee":"29166","nom_standard":"Ploéven","nom_a":null,"nom_de":null,"slug_ville":"ploeven","departement_id":0,"code_postal":"29550","population":550,"superficie_km2":"1302.67","latitude_centre":"48.158","longitude_centre":"-4.2216","distance_km":15.1},{"id":0,"code_insee":"29235","nom_standard":"Le Relecq-Kerhuon","nom_a":null,"nom_de":null,"slug_ville":"le-relecq-kerhuon","departement_id":0,"code_postal":"29480","population":11897,"superficie_km2":"652.01","latitude_centre":"48.4032","longitude_centre":"-4.4014","distance_km":15.24},{"id":0,"code_insee":"29056","nom_standard":"La Forest-Landerneau","nom_a":null,"nom_de":null,"slug_ville":"la-forest-landerneau","departement_id":0,"code_postal":"29800","population":2018,"superficie_km2":"930.90","latitude_centre":"48.4323","longitude_centre":"-4.3099","distance_km":16.91}]}