{"ville":{"id":28663,"code_insee":"64310","nom_standard":"Lanne-en-Barétous","nom_a":null,"nom_de":null,"slug_ville":"lanne-en-baretous","departement_id":0,"code_postal":"64570","population":481,"superficie_km2":"4140.88","latitude_centre":"43.0785","longitude_centre":"-0.7861","dep_code":"64","dep_nom":"Pyrénées-Atlantiques","dep_slug":"pyrenees-atlantiques","reg_code":"75","reg_nom":"Nouvelle-Aquitaine","reg_slug":"nouvelle-aquitaine"},"departement":{"code":"64","nom":"Pyrénées-Atlantiques","slug":"pyrenees-atlantiques"},"region":{"code":"75","nom":"Nouvelle-Aquitaine","slug":"nouvelle-aquitaine"},"villes_proches":[{"id":0,"code_insee":"64404","nom_standard":"Montory","nom_a":null,"nom_de":null,"slug_ville":"montory","departement_id":0,"code_postal":"64470","population":318,"superficie_km2":"2069.44","latitude_centre":"43.0947","longitude_centre":"-0.811","distance_km":2.71},{"id":28619,"code_insee":"64258","nom_standard":"Haux","nom_a":null,"nom_de":null,"slug_ville":"haux","departement_id":0,"code_postal":"64470","population":84,"superficie_km2":"1710.83","latitude_centre":"43.059","longitude_centre":"-0.8373","distance_km":4.69},{"id":28657,"code_insee":"64303","nom_standard":"Laguinge-Restoue","nom_a":null,"nom_de":null,"slug_ville":"laguinge-restoue","departement_id":0,"code_postal":"64470","population":155,"superficie_km2":"606.88","latitude_centre":"43.0973","longitude_centre":"-0.8492","distance_km":5.53},{"id":0,"code_insee":"64533","nom_standard":"Tardets-Sorholus","nom_a":null,"nom_de":null,"slug_ville":"tardets-sorholus","departement_id":0,"code_postal":"64470","population":589,"superficie_km2":"1491.96","latitude_centre":"43.1243","longitude_centre":"-0.8384","distance_km":6.63},{"id":0,"code_insee":"64040","nom_standard":"Arette","nom_a":null,"nom_de":null,"slug_ville":"arette","departement_id":0,"code_postal":"64570","population":1032,"superficie_km2":"9216.29","latitude_centre":"43.0304","longitude_centre":"-0.7371","distance_km":6.67},{"id":0,"code_insee":"64340","nom_standard":"Lichans-Sunhar","nom_a":null,"nom_de":null,"slug_ville":"lichans-sunhar","departement_id":0,"code_postal":"64470","population":84,"superficie_km2":"351.21","latitude_centre":"43.0931","longitude_centre":"-0.8821","distance_km":7.96},{"id":28442,"code_insee":"64029","nom_standard":"Aramits","nom_a":null,"nom_de":null,"slug_ville":"aramits","departement_id":0,"code_postal":"64570","population":659,"superficie_km2":"2973.21","latitude_centre":"43.1343","longitude_centre":"-0.72","distance_km":8.2},{"id":0,"code_insee":"64342","nom_standard":"Licq-Athérey","nom_a":null,"nom_de":null,"slug_ville":"licq-atherey","departement_id":0,"code_postal":"64560","population":194,"superficie_km2":"1791.91","latitude_centre":"43.0582","longitude_centre":"-0.8836","distance_km":8.24},{"id":28432,"code_insee":"64017","nom_standard":"Alos-Sibas-Abense","nom_a":null,"nom_de":null,"slug_ville":"alos-sibas-abense","departement_id":0,"code_postal":"64470","population":291,"superficie_km2":"586.10","latitude_centre":"43.1149","longitude_centre":"-0.8772","distance_km":8.43},{"id":0,"code_insee":"64537","nom_standard":"Trois-Villes","nom_a":null,"nom_de":null,"slug_ville":"trois-villes","departement_id":0,"code_postal":"64470","population":148,"superficie_km2":"644.55","latitude_centre":"43.1402","longitude_centre":"-0.8639","distance_km":9.33},{"id":0,"code_insee":"64475","nom_standard":"Sainte-Engrâce","nom_a":null,"nom_de":null,"slug_ville":"sainte-engrace","departement_id":0,"code_postal":"64560","population":169,"superficie_km2":"7305.98","latitude_centre":"42.9988","longitude_centre":"-0.8264","distance_km":9.45},{"id":28591,"code_insee":"64222","nom_standard":"Etchebar","nom_a":null,"nom_de":null,"slug_ville":"etchebar","departement_id":0,"code_postal":"64470","population":75,"superficie_km2":"823.92","latitude_centre":"43.0674","longitude_centre":"-0.9057","distance_km":9.79},{"id":28635,"code_insee":"64276","nom_standard":"Issor","nom_a":null,"nom_de":null,"slug_ville":"issor","departement_id":0,"code_postal":"64570","population":256,"superficie_km2":"2289.56","latitude_centre":"43.0892","longitude_centre":"-0.6566","distance_km":10.58},{"id":0,"code_insee":"64509","nom_standard":"Sauguis-Saint-Étienne","nom_a":null,"nom_de":null,"slug_ville":"sauguis-saint-etienne","departement_id":0,"code_postal":"64470","population":172,"superficie_km2":"881.67","latitude_centre":"43.1594","longitude_centre":"-0.874","distance_km":11.48},{"id":28594,"code_insee":"64225","nom_standard":"Ance Féas","nom_a":null,"nom_de":null,"slug_ville":"ance-feas","departement_id":0,"code_postal":"64570","population":624,"superficie_km2":"2391.15","latitude_centre":"43.1575","longitude_centre":"-0.6942","distance_km":11.52},{"id":28489,"code_insee":"64093","nom_standard":"Barcus","nom_a":null,"nom_de":null,"slug_ville":"barcus","departement_id":0,"code_postal":"64130","population":654,"superficie_km2":"4766.18","latitude_centre":"43.1835","longitude_centre":"-0.7976","distance_km":11.71},{"id":0,"code_insee":"64433","nom_standard":"Osse-en-Aspe","nom_a":null,"nom_de":null,"slug_ville":"osse-en-aspe","departement_id":0,"code_postal":"64490","population":330,"superficie_km2":"4315.08","latitude_centre":"43.0133","longitude_centre":"-0.6689","distance_km":11.97},{"id":0,"code_insee":"64378","nom_standard":"Menditte","nom_a":null,"nom_de":null,"slug_ville":"menditte","departement_id":0,"code_postal":"64130","population":208,"superficie_km2":"652.71","latitude_centre":"43.1654","longitude_centre":"-0.8832","distance_km":12.47},{"id":0,"code_insee":"64468","nom_standard":"Roquiague","nom_a":null,"nom_de":null,"slug_ville":"roquiague","departement_id":0,"code_postal":"64130","population":121,"superficie_km2":"1002.15","latitude_centre":"43.1848","longitude_centre":"-0.8416","distance_km":12.65},{"id":28586,"code_insee":"64217","nom_standard":"Esquiule","nom_a":null,"nom_de":null,"slug_ville":"esquiule","departement_id":0,"code_postal":"64400","population":522,"superficie_km2":"2887.29","latitude_centre":"43.1837","longitude_centre":"-0.7141","distance_km":13.08}]}