{"ville":{"id":19286,"code_insee":"32191","nom_standard":"Lanne-Soubiran","nom_a":null,"nom_de":null,"slug_ville":"lanne-soubiran","departement_id":0,"code_postal":"32110","population":141,"superficie_km2":"680.08","latitude_centre":"43.7404","longitude_centre":"-0.1031","dep_code":"32","dep_nom":"Gers","dep_slug":"gers","reg_code":"76","reg_nom":"Occitanie","reg_slug":"occitanie"},"departement":{"code":"32","nom":"Gers","slug":"gers"},"region":{"code":"76","nom":"Occitanie","slug":"occitanie"},"villes_proches":[{"id":0,"code_insee":"32380","nom_standard":"Saint-Griède","nom_a":null,"nom_de":null,"slug_ville":"saint-griede","departement_id":0,"code_postal":"32110","population":142,"superficie_km2":"762.77","latitude_centre":"43.7249","longitude_centre":"-0.0969","distance_km":1.79},{"id":0,"code_insee":"32222","nom_standard":"Magnan","nom_a":null,"nom_de":null,"slug_ville":"magnan","departement_id":0,"code_postal":"32110","population":230,"superficie_km2":"1141.68","latitude_centre":"43.7632","longitude_centre":"-0.1141","distance_km":2.68},{"id":19121,"code_insee":"32005","nom_standard":"Arblade-le-Haut","nom_a":null,"nom_de":null,"slug_ville":"arblade-le-haut","departement_id":0,"code_postal":"32110","population":308,"superficie_km2":"1239.64","latitude_centre":"43.7415","longitude_centre":"-0.066","distance_km":2.98},{"id":0,"code_insee":"32220","nom_standard":"Luppé-Violles","nom_a":null,"nom_de":null,"slug_ville":"luppe-violles","departement_id":0,"code_postal":"32110","population":133,"superficie_km2":"767.03","latitude_centre":"43.7351","longitude_centre":"-0.1399","distance_km":3.01},{"id":0,"code_insee":"32390","nom_standard":"Saint-Martin-d'Armagnac","nom_a":null,"nom_de":null,"slug_ville":"saint-martin-d-armagnac","departement_id":0,"code_postal":"32110","population":230,"superficie_km2":"1085.77","latitude_centre":"43.7131","longitude_centre":"-0.0634","distance_km":4.4},{"id":0,"code_insee":"32209","nom_standard":"Lelin-Lapujolle","nom_a":null,"nom_de":null,"slug_ville":"lelin-lapujolle","departement_id":0,"code_postal":"32400","population":273,"superficie_km2":"1356.50","latitude_centre":"43.7086","longitude_centre":"-0.1391","distance_km":4.57},{"id":0,"code_insee":"32310","nom_standard":"Perchède","nom_a":null,"nom_de":null,"slug_ville":"perchede","departement_id":0,"code_postal":"32460","population":104,"superficie_km2":"530.02","latitude_centre":"43.7774","longitude_centre":"-0.1412","distance_km":5.13},{"id":19200,"code_insee":"32093","nom_standard":"Caumont","nom_a":null,"nom_de":null,"slug_ville":"caumont","departement_id":0,"code_postal":"32400","population":103,"superficie_km2":"714.01","latitude_centre":"43.6933","longitude_centre":"-0.1113","distance_km":5.28},{"id":19201,"code_insee":"32094","nom_standard":"Caupenne-d'Armagnac","nom_a":null,"nom_de":null,"slug_ville":"caupenne-d-armagnac","departement_id":0,"code_postal":"32110","population":446,"superficie_km2":"2166.58","latitude_centre":"43.7864","longitude_centre":"-0.0701","distance_km":5.76},{"id":0,"code_insee":"32244","nom_standard":"Maulichères","nom_a":null,"nom_de":null,"slug_ville":"maulicheres","departement_id":0,"code_postal":"32400","population":155,"superficie_km2":"621.19","latitude_centre":"43.6878","longitude_centre":"-0.0838","distance_km":6.05},{"id":0,"code_insee":"32296","nom_standard":"Nogaro","nom_a":null,"nom_de":null,"slug_ville":"nogaro","departement_id":0,"code_postal":"32110","population":2238,"superficie_km2":"1123.39","latitude_centre":"43.7646","longitude_centre":"-0.0295","distance_km":6.5},{"id":0,"code_insee":"32458","nom_standard":"Urgosse","nom_a":null,"nom_de":null,"slug_ville":"urgosse","departement_id":0,"code_postal":"32110","population":240,"superficie_km2":"678.45","latitude_centre":"43.7402","longitude_centre":"-0.0214","distance_km":6.56},{"id":19120,"code_insee":"32004","nom_standard":"Arblade-le-Bas","nom_a":null,"nom_de":null,"slug_ville":"arblade-le-bas","departement_id":0,"code_postal":"32720","population":134,"superficie_km2":"760.17","latitude_centre":"43.7049","longitude_centre":"-0.1759","distance_km":7.06},{"id":0,"code_insee":"32202","nom_standard":"Laujuzan","nom_a":null,"nom_de":null,"slug_ville":"laujuzan","departement_id":0,"code_postal":"32110","population":294,"superficie_km2":"1145.51","latitude_centre":"43.8035","longitude_centre":"-0.1167","distance_km":7.1},{"id":0,"code_insee":"32460","nom_standard":"Vergoignan","nom_a":null,"nom_de":null,"slug_ville":"vergoignan","departement_id":0,"code_postal":"32720","population":324,"superficie_km2":"1055.80","latitude_centre":"43.7243","longitude_centre":"-0.1899","distance_km":7.2},{"id":0,"code_insee":"32291","nom_standard":"Mormès","nom_a":null,"nom_de":null,"slug_ville":"mormes","departement_id":0,"code_postal":"32240","population":107,"superficie_km2":"917.85","latitude_centre":"43.7965","longitude_centre":"-0.1517","distance_km":7.36},{"id":0,"code_insee":"32155","nom_standard":"Le Houga","nom_a":null,"nom_de":null,"slug_ville":"le-houga","departement_id":0,"code_postal":"32460","population":1202,"superficie_km2":"3187.97","latitude_centre":"43.773","longitude_centre":"-0.1836","distance_km":7.41},{"id":0,"code_insee":"32414","nom_standard":"Sarragachies","nom_a":null,"nom_de":null,"slug_ville":"sarragachies","departement_id":0,"code_postal":"32400","population":217,"superficie_km2":"1292.07","latitude_centre":"43.685","longitude_centre":"-0.051","distance_km":7.45},{"id":0,"code_insee":"32439","nom_standard":"Tarsac","nom_a":null,"nom_de":null,"slug_ville":"tarsac","departement_id":0,"code_postal":"32400","population":164,"superficie_km2":"454.94","latitude_centre":"43.6678","longitude_centre":"-0.1146","distance_km":8.13},{"id":0,"code_insee":"32378","nom_standard":"Saint-Germé","nom_a":null,"nom_de":null,"slug_ville":"saint-germe","departement_id":0,"code_postal":"32400","population":515,"superficie_km2":"958.13","latitude_centre":"43.6753","longitude_centre":"-0.1499","distance_km":8.16}]}