{"ville":{"id":15857,"code_insee":"22115","nom_standard":"Lanrivain","nom_a":null,"nom_de":null,"slug_ville":"lanrivain","departement_id":0,"code_postal":"22480","population":464,"superficie_km2":"3752.65","latitude_centre":"48.351","longitude_centre":"-3.2086","dep_code":"22","dep_nom":"Côtes-d'Armor","dep_slug":"cotes-d-armor","reg_code":"53","reg_nom":"Bretagne","reg_slug":"bretagne"},"departement":{"code":"22","nom":"Côtes-d'Armor","slug":"cotes-d-armor"},"region":{"code":"53","nom":"Bretagne","slug":"bretagne"},"villes_proches":[{"id":0,"code_insee":"22321","nom_standard":"Saint-Nicolas-du-Pélem","nom_a":null,"nom_de":null,"slug_ville":"saint-nicolas-du-pelem","departement_id":0,"code_postal":"22480","population":1523,"superficie_km2":"4145.81","latitude_centre":"48.3265","longitude_centre":"-3.166","distance_km":4.16},{"id":0,"code_insee":"22365","nom_standard":"Trémargat","nom_a":null,"nom_de":null,"slug_ville":"tremargat","departement_id":0,"code_postal":"22110","population":183,"superficie_km2":"1398.81","latitude_centre":"48.3265","longitude_centre":"-3.268","distance_km":5.17},{"id":0,"code_insee":"22139","nom_standard":"Magoar","nom_a":null,"nom_de":null,"slug_ville":"magoar","departement_id":0,"code_postal":"22480","population":75,"superficie_km2":"786.52","latitude_centre":"48.4017","longitude_centre":"-3.176","distance_km":6.13},{"id":0,"code_insee":"22169","nom_standard":"Peumerit-Quintin","nom_a":null,"nom_de":null,"slug_ville":"peumerit-quintin","departement_id":0,"code_postal":"22480","population":191,"superficie_km2":"1491.26","latitude_centre":"48.368","longitude_centre":"-3.2923","distance_km":6.47},{"id":15843,"code_insee":"22088","nom_standard":"Kerien","nom_a":null,"nom_de":null,"slug_ville":"kerien","departement_id":0,"code_postal":"22480","population":245,"superficie_km2":"2207.02","latitude_centre":"48.4097","longitude_centre":"-3.2274","distance_km":6.67},{"id":15845,"code_insee":"22092","nom_standard":"Kerpert","nom_a":null,"nom_de":null,"slug_ville":"kerpert","departement_id":0,"code_postal":"22480","population":268,"superficie_km2":"2129.64","latitude_centre":"48.389","longitude_centre":"-3.1359","distance_km":6.83},{"id":0,"code_insee":"22229","nom_standard":"Plounévez-Quintin","nom_a":null,"nom_de":null,"slug_ville":"plounevez-quintin","departement_id":0,"code_postal":"22110","population":1064,"superficie_km2":"4326.49","latitude_centre":"48.2898","longitude_centre":"-3.2384","distance_km":7.15},{"id":0,"code_insee":"22138","nom_standard":"Maël-Pestivien","nom_a":null,"nom_de":null,"slug_ville":"mael-pestivien","departement_id":0,"code_postal":"22160","population":362,"superficie_km2":"3182.62","latitude_centre":"48.4101","longitude_centre":"-3.2949","distance_km":9.15},{"id":15812,"code_insee":"22029","nom_standard":"Canihuel","nom_a":null,"nom_de":null,"slug_ville":"canihuel","departement_id":0,"code_postal":"22480","population":350,"superficie_km2":"3246.18","latitude_centre":"48.337","longitude_centre":"-3.0861","distance_km":9.19},{"id":0,"code_insee":"22294","nom_standard":"Saint-Gilles-Pligeaux","nom_a":null,"nom_de":null,"slug_ville":"saint-gilles-pligeaux","departement_id":0,"code_postal":"22480","population":307,"superficie_km2":"1995.90","latitude_centre":"48.3767","longitude_centre":"-3.0836","distance_km":9.67},{"id":0,"code_insee":"22320","nom_standard":"Saint-Nicodème","nom_a":null,"nom_de":null,"slug_ville":"saint-nicodeme","departement_id":0,"code_postal":"22160","population":167,"superficie_km2":"1723.97","latitude_centre":"48.3602","longitude_centre":"-3.342","distance_km":9.91},{"id":0,"code_insee":"22331","nom_standard":"Sainte-Tréphine","nom_a":null,"nom_de":null,"slug_ville":"sainte-trephine","departement_id":0,"code_postal":"22480","population":189,"superficie_km2":"1267.36","latitude_centre":"48.2632","longitude_centre":"-3.1687","distance_km":10.2},{"id":15842,"code_insee":"22087","nom_standard":"Kergrist-Moëlou","nom_a":null,"nom_de":null,"slug_ville":"kergrist-moelou","departement_id":0,"code_postal":"22110","population":629,"superficie_km2":"4713.90","latitude_centre":"48.2945","longitude_centre":"-3.3194","distance_km":10.32},{"id":0,"code_insee":"22334","nom_standard":"Saint-Igeaux","nom_a":null,"nom_de":null,"slug_ville":"saint-igeaux","departement_id":0,"code_postal":"22570","population":126,"superficie_km2":"1290.76","latitude_centre":"48.278","longitude_centre":"-3.118","distance_km":10.53},{"id":0,"code_insee":"22284","nom_standard":"Saint-Connan","nom_a":null,"nom_de":null,"slug_ville":"saint-connan","departement_id":0,"code_postal":"22480","population":303,"superficie_km2":"1370.07","latitude_centre":"48.4108","longitude_centre":"-3.0786","distance_km":11.68},{"id":0,"code_insee":"22189","nom_standard":"Plésidy","nom_a":null,"nom_de":null,"slug_ville":"plesidy","departement_id":0,"code_postal":"22720","population":563,"superficie_km2":"2620.99","latitude_centre":"48.4444","longitude_centre":"-3.1292","distance_km":11.93},{"id":0,"code_insee":"22013","nom_standard":"Bourbriac","nom_a":null,"nom_de":null,"slug_ville":"bourbriac","departement_id":0,"code_postal":"22390","population":2145,"superficie_km2":"7315.33","latitude_centre":"48.4649","longitude_centre":"-3.1973","distance_km":12.69},{"id":15830,"code_insee":"22064","nom_standard":"Gouarec","nom_a":null,"nom_de":null,"slug_ville":"gouarec","departement_id":0,"code_postal":"22570","population":866,"superficie_km2":"657.40","latitude_centre":"48.236","longitude_centre":"-3.1937","distance_km":12.83},{"id":0,"code_insee":"22220","nom_standard":"Plouguernével","nom_a":null,"nom_de":null,"slug_ville":"plouguernevel","departement_id":0,"code_postal":"22110","population":1601,"superficie_km2":"4177.60","latitude_centre":"48.2296","longitude_centre":"-3.2395","distance_km":13.69},{"id":0,"code_insee":"22249","nom_standard":"Pont-Melvez","nom_a":null,"nom_de":null,"slug_ville":"pont-melvez","departement_id":0,"code_postal":"22390","population":595,"superficie_km2":"2354.67","latitude_centre":"48.475","longitude_centre":"-3.2837","distance_km":14.86}]}