{"ville":{"id":20978,"code_insee":"39278","nom_standard":"Largillay-Marsonnay","nom_a":null,"nom_de":null,"slug_ville":"largillay-marsonnay","departement_id":0,"code_postal":"39130","population":128,"superficie_km2":"754.89","latitude_centre":"46.5557","longitude_centre":"5.6699","dep_code":"39","dep_nom":"Jura","dep_slug":"jura","reg_code":"27","reg_nom":"Bourgogne-Franche-Comté","reg_slug":"bourgogne-franche-comte"},"departement":{"code":"39","nom":"Jura","slug":"jura"},"region":{"code":"27","nom":"Bourgogne-Franche-Comté","slug":"bourgogne-franche-comte"},"villes_proches":[{"id":0,"code_insee":"39435","nom_standard":"Pont-de-Poitte","nom_a":null,"nom_de":null,"slug_ville":"pont-de-poitte","departement_id":0,"code_postal":"39130","population":624,"superficie_km2":"763.32","latitude_centre":"46.5724","longitude_centre":"5.6874","distance_km":2.29},{"id":20792,"code_insee":"39038","nom_standard":"Barésia-sur-l'Ain","nom_a":null,"nom_de":null,"slug_ville":"baresia-sur-l-ain","departement_id":0,"code_postal":"39130","population":163,"superficie_km2":"1110.19","latitude_centre":"46.5438","longitude_centre":"5.7001","distance_km":2.66},{"id":0,"code_insee":"39324","nom_standard":"Mérona","nom_a":null,"nom_de":null,"slug_ville":"merona","departement_id":0,"code_postal":"39270","population":9,"superficie_km2":"291.41","latitude_centre":"46.5561","longitude_centre":"5.6351","distance_km":2.66},{"id":0,"code_insee":"39314","nom_standard":"Marnézia","nom_a":null,"nom_de":null,"slug_ville":"marnezia","departement_id":0,"code_postal":"39270","population":65,"superficie_km2":"498.27","latitude_centre":"46.576","longitude_centre":"5.635","distance_km":3.49},{"id":0,"code_insee":"39534","nom_standard":"La Tour-du-Meix","nom_a":null,"nom_de":null,"slug_ville":"la-tour-du-meix","departement_id":0,"code_postal":"39270","population":261,"superficie_km2":"1426.62","latitude_centre":"46.5219","longitude_centre":"5.6695","distance_km":3.76},{"id":0,"code_insee":"39326","nom_standard":"Mesnois","nom_a":null,"nom_de":null,"slug_ville":"mesnois","departement_id":0,"code_postal":"39130","population":162,"superficie_km2":"1148.36","latitude_centre":"46.592","longitude_centre":"5.6803","distance_km":4.11},{"id":20916,"code_insee":"39200","nom_standard":"Dompierre-sur-Mont","nom_a":null,"nom_de":null,"slug_ville":"dompierre-sur-mont","departement_id":0,"code_postal":"39270","population":210,"superficie_km2":"731.58","latitude_centre":"46.5645","longitude_centre":"5.6148","distance_km":4.32},{"id":0,"code_insee":"39408","nom_standard":"Patornay","nom_a":null,"nom_de":null,"slug_ville":"patornay","departement_id":0,"code_postal":"39130","population":154,"superficie_km2":"185.86","latitude_centre":"46.5879","longitude_centre":"5.7093","distance_km":4.68},{"id":0,"code_insee":"39423","nom_standard":"Plaisia","nom_a":null,"nom_de":null,"slug_ville":"plaisia","departement_id":0,"code_postal":"39270","population":96,"superficie_km2":"532.68","latitude_centre":"46.5201","longitude_centre":"5.6367","distance_km":4.7},{"id":20811,"code_insee":"39061","nom_standard":"Boissia","nom_a":null,"nom_de":null,"slug_ville":"boissia","departement_id":0,"code_postal":"39130","population":119,"superficie_km2":"591.04","latitude_centre":"46.58","longitude_centre":"5.7233","distance_km":4.9},{"id":20899,"code_insee":"39175","nom_standard":"Coyron","nom_a":null,"nom_de":null,"slug_ville":"coyron","departement_id":0,"code_postal":"39260","population":68,"superficie_km2":"747.50","latitude_centre":"46.5108","longitude_centre":"5.697","distance_km":5.41},{"id":0,"code_insee":"39390","nom_standard":"Nogna","nom_a":null,"nom_de":null,"slug_ville":"nogna","departement_id":0,"code_postal":"39570","population":308,"superficie_km2":"634.24","latitude_centre":"46.6013","longitude_centre":"5.6412","distance_km":5.52},{"id":0,"code_insee":"39431","nom_standard":"Poids-de-Fiole","nom_a":null,"nom_de":null,"slug_ville":"poids-de-fiole","departement_id":0,"code_postal":"39570","population":323,"superficie_km2":"653.80","latitude_centre":"46.5982","longitude_centre":"5.6234","distance_km":5.91},{"id":0,"code_insee":"39443","nom_standard":"Présilly","nom_a":null,"nom_de":null,"slug_ville":"presilly","departement_id":0,"code_postal":"39270","population":111,"superficie_km2":"1130.41","latitude_centre":"46.5544","longitude_centre":"5.584","distance_km":6.57},{"id":20923,"code_insee":"39207","nom_standard":"Écrille","nom_a":null,"nom_de":null,"slug_ville":"ecrille","departement_id":0,"code_postal":"39270","population":89,"superficie_km2":"524.73","latitude_centre":"46.4997","longitude_centre":"5.6322","distance_km":6.86},{"id":0,"code_insee":"39397","nom_standard":"Orgelet","nom_a":null,"nom_de":null,"slug_ville":"orgelet","departement_id":0,"code_postal":"39270","population":1554,"superficie_km2":"2554.54","latitude_centre":"46.5064","longitude_centre":"5.6151","distance_km":6.9},{"id":0,"code_insee":"39531","nom_standard":"Thoiria","nom_a":null,"nom_de":null,"slug_ville":"thoiria","departement_id":0,"code_postal":"39130","population":183,"superficie_km2":"1236.25","latitude_centre":"46.5195","longitude_centre":"5.7466","distance_km":7.11},{"id":0,"code_insee":"39445","nom_standard":"Publy","nom_a":null,"nom_de":null,"slug_ville":"publy","departement_id":0,"code_postal":"39570","population":277,"superficie_km2":"1531.33","latitude_centre":"46.6251","longitude_centre":"5.6502","distance_km":7.86},{"id":20809,"code_insee":"39058","nom_standard":"Blye","nom_a":null,"nom_de":null,"slug_ville":"blye","departement_id":0,"code_postal":"39130","population":143,"superficie_km2":"1093.03","latitude_centre":"46.6284","longitude_centre":"5.6977","distance_km":8.36},{"id":0,"code_insee":"39307","nom_standard":"Maisod","nom_a":null,"nom_de":null,"slug_ville":"maisod","departement_id":0,"code_postal":"39260","population":326,"superficie_km2":"1039.38","latitude_centre":"46.4754","longitude_centre":"5.6938","distance_km":9.11}]}