{"ville":{"id":30352,"code_insee":"70296","nom_standard":"Larians-et-Munans","nom_a":null,"nom_de":null,"slug_ville":"larians-et-munans","departement_id":0,"code_postal":"70230","population":291,"superficie_km2":"249.95","latitude_centre":"47.4227","longitude_centre":"6.2279","dep_code":"70","dep_nom":"Haute-Saône","dep_slug":"haute-saone","reg_code":"27","reg_nom":"Bourgogne-Franche-Comté","reg_slug":"bourgogne-franche-comte"},"departement":{"code":"70","nom":"Haute-Saône","slug":"haute-saone"},"region":{"code":"27","nom":"Bourgogne-Franche-Comté","slug":"bourgogne-franche-comte"},"villes_proches":[{"id":16805,"code_insee":"25242","nom_standard":"Flagey-Rigney","nom_a":null,"nom_de":null,"slug_ville":"flagey-rigney","departement_id":0,"code_postal":"25640","population":137,"superficie_km2":"296.62","latitude_centre":"47.4147","longitude_centre":"6.2196","distance_km":1.09},{"id":16934,"code_insee":"25430","nom_standard":"Ollans","nom_a":null,"nom_de":null,"slug_ville":"ollans","departement_id":0,"code_postal":"25640","population":43,"superficie_km2":"222.98","latitude_centre":"47.4208","longitude_centre":"6.2455","distance_km":1.34},{"id":0,"code_insee":"70335","nom_standard":"Maussans","nom_a":null,"nom_de":null,"slug_ville":"maussans","departement_id":0,"code_postal":"70230","population":56,"superficie_km2":"395.86","latitude_centre":"47.4374","longitude_centre":"6.2464","distance_km":2.15},{"id":16825,"code_insee":"25269","nom_standard":"Germondans","nom_a":null,"nom_de":null,"slug_ville":"germondans","departement_id":0,"code_postal":"25640","population":57,"superficie_km2":"371.75","latitude_centre":"47.4165","longitude_centre":"6.1992","distance_km":2.27},{"id":0,"code_insee":"70309","nom_standard":"Loulans-Verchamp","nom_a":null,"nom_de":null,"slug_ville":"loulans-verchamp","departement_id":0,"code_postal":"70230","population":460,"superficie_km2":"821.85","latitude_centre":"47.4445","longitude_centre":"6.2052","distance_km":2.97},{"id":16654,"code_insee":"25038","nom_standard":"Avilley","nom_a":null,"nom_de":null,"slug_ville":"avilley","departement_id":0,"code_postal":"25680","population":150,"superficie_km2":"563.32","latitude_centre":"47.4297","longitude_centre":"6.2674","distance_km":3.07},{"id":30199,"code_insee":"70113","nom_standard":"Cenans","nom_a":null,"nom_de":null,"slug_ville":"cenans","departement_id":0,"code_postal":"70230","population":133,"superficie_km2":"501.92","latitude_centre":"47.4317","longitude_centre":"6.1892","distance_km":3.08},{"id":30155,"code_insee":"70065","nom_standard":"Besnans","nom_a":null,"nom_de":null,"slug_ville":"besnans","departement_id":0,"code_postal":"70230","population":75,"superficie_km2":"292.12","latitude_centre":"47.4495","longitude_centre":"6.2503","distance_km":3.42},{"id":16708,"code_insee":"25107","nom_standard":"Cendrey","nom_a":null,"nom_de":null,"slug_ville":"cendrey","departement_id":0,"code_postal":"25640","population":200,"superficie_km2":"557.86","latitude_centre":"47.3935","longitude_centre":"6.2446","distance_km":3.48},{"id":16673,"code_insee":"25065","nom_standard":"Blarians","nom_a":null,"nom_de":null,"slug_ville":"blarians","departement_id":0,"code_postal":"25640","population":56,"superficie_km2":"89.15","latitude_centre":"47.4119","longitude_centre":"6.1799","distance_km":3.81},{"id":16660,"code_insee":"25045","nom_standard":"Battenans-les-Mines","nom_a":null,"nom_de":null,"slug_ville":"battenans-les-mines","departement_id":0,"code_postal":"25640","population":38,"superficie_km2":"285.43","latitude_centre":"47.4034","longitude_centre":"6.2702","distance_km":3.84},{"id":0,"code_insee":"70397","nom_standard":"Ormenans","nom_a":null,"nom_de":null,"slug_ville":"ormenans","departement_id":0,"code_postal":"70230","population":84,"superficie_km2":"358.67","latitude_centre":"47.4583","longitude_centre":"6.2121","distance_km":4.13},{"id":17038,"code_insee":"25566","nom_standard":"La Tour-de-Sçay","nom_a":null,"nom_de":null,"slug_ville":"la-tour-de-scay","departement_id":0,"code_postal":"25640","population":315,"superficie_km2":"889.28","latitude_centre":"47.383","longitude_centre":"6.2239","distance_km":4.42},{"id":30140,"code_insee":"70050","nom_standard":"La Barre","nom_a":null,"nom_de":null,"slug_ville":"la-barre","departement_id":0,"code_postal":"70190","population":95,"superficie_km2":"198.23","latitude_centre":"47.408","longitude_centre":"6.172","distance_km":4.51},{"id":17031,"code_insee":"25556","nom_standard":"Tallans","nom_a":null,"nom_de":null,"slug_ville":"tallans","departement_id":0,"code_postal":"25680","population":47,"superficie_km2":"406.58","latitude_centre":"47.4095","longitude_centre":"6.2867","distance_km":4.66},{"id":16997,"code_insee":"25506","nom_standard":"Rougemontot","nom_a":null,"nom_de":null,"slug_ville":"rougemontot","departement_id":0,"code_postal":"25640","population":87,"superficie_km2":"419.99","latitude_centre":"47.3877","longitude_centre":"6.2631","distance_km":4.71},{"id":0,"code_insee":"70357","nom_standard":"Montbozon","nom_a":null,"nom_de":null,"slug_ville":"montbozon","departement_id":0,"code_postal":"70230","population":553,"superficie_km2":"865.69","latitude_centre":"47.4617","longitude_centre":"6.2569","distance_km":4.85},{"id":16984,"code_insee":"25491","nom_standard":"Rignosot","nom_a":null,"nom_de":null,"slug_ville":"rignosot","departement_id":0,"code_postal":"25640","population":106,"superficie_km2":"388.16","latitude_centre":"47.3821","longitude_centre":"6.1988","distance_km":5.02},{"id":16983,"code_insee":"25490","nom_standard":"Rigney","nom_a":null,"nom_de":null,"slug_ville":"rigney","departement_id":0,"code_postal":"25640","population":367,"superficie_km2":"948.32","latitude_centre":"47.3844","longitude_centre":"6.1848","distance_km":5.35},{"id":0,"code_insee":"70449","nom_standard":"Roche-sur-Linotte-et-Sorans-les-Cordiers","nom_a":null,"nom_de":null,"slug_ville":"roche-sur-linotte-et-sorans-les-cordiers","departement_id":0,"code_postal":"70230","population":71,"superficie_km2":"939.27","latitude_centre":"47.4754","longitude_centre":"6.1987","distance_km":6.26}]}