{"ville":{"id":25138,"code_insee":"55281","nom_standard":"Latour-en-Woëvre","nom_a":null,"nom_de":null,"slug_ville":"latour-en-woevre","departement_id":0,"code_postal":"55160","population":84,"superficie_km2":"677.84","latitude_centre":"49.092","longitude_centre":"5.8016","dep_code":"55","dep_nom":"Meuse","dep_slug":"meuse","reg_code":"44","reg_nom":"Grand Est","reg_slug":"grand-est"},"departement":{"code":"55","nom":"Meuse","slug":"meuse"},"region":{"code":"44","nom":"Grand Est","slug":"grand-est"},"villes_proches":[{"id":25124,"code_insee":"55265","nom_standard":"Labeuville","nom_a":null,"nom_de":null,"slug_ville":"labeuville","departement_id":0,"code_postal":"55160","population":139,"superficie_km2":"958.58","latitude_centre":"49.0881","longitude_centre":"5.7728","distance_km":2.14},{"id":24641,"code_insee":"54249","nom_standard":"Hannonville-Suzémont","nom_a":null,"nom_de":null,"slug_ville":"hannonville-suzemont","departement_id":0,"code_postal":"54800","population":262,"superficie_km2":"860.83","latitude_centre":"49.0995","longitude_centre":"5.8369","distance_km":2.7},{"id":24835,"code_insee":"54511","nom_standard":"Sponville","nom_a":null,"nom_de":null,"slug_ville":"sponville","departement_id":0,"code_postal":"54800","population":108,"superficie_km2":"721.91","latitude_centre":"49.0737","longitude_centre":"5.8346","distance_km":3.15},{"id":25116,"code_insee":"55256","nom_standard":"Jonville-en-Woëvre","nom_a":null,"nom_de":null,"slug_ville":"jonville-en-woevre","departement_id":0,"code_postal":"55160","population":143,"superficie_km2":"1087.50","latitude_centre":"49.0646","longitude_centre":"5.7767","distance_km":3.55},{"id":24517,"code_insee":"54093","nom_standard":"Brainville","nom_a":null,"nom_de":null,"slug_ville":"brainville","departement_id":0,"code_postal":"54800","population":167,"superficie_km2":"1002.97","latitude_centre":"49.1251","longitude_centre":"5.809","distance_km":3.72},{"id":0,"code_insee":"55363","nom_standard":"Moulotte","nom_a":null,"nom_de":null,"slug_ville":"moulotte","departement_id":0,"code_postal":"55160","population":87,"superficie_km2":"548.28","latitude_centre":"49.1009","longitude_centre":"5.7505","distance_km":3.85},{"id":24450,"code_insee":"54009","nom_standard":"Allamont","nom_a":null,"nom_de":null,"slug_ville":"allamont","departement_id":0,"code_postal":"54800","population":156,"superficie_km2":"927.41","latitude_centre":"49.1266","longitude_centre":"5.7815","distance_km":4.12},{"id":25098,"code_insee":"55232","nom_standard":"Harville","nom_a":null,"nom_de":null,"slug_ville":"harville","departement_id":0,"code_postal":"55160","population":112,"superficie_km2":"557.23","latitude_centre":"49.0945","longitude_centre":"5.7273","distance_km":5.42},{"id":24912,"code_insee":"54599","nom_standard":"Xonville","nom_a":null,"nom_de":null,"slug_ville":"xonville","departement_id":0,"code_postal":"54800","population":108,"superficie_km2":"727.80","latitude_centre":"49.0559","longitude_centre":"5.8556","distance_km":5.62},{"id":0,"code_insee":"55565","nom_standard":"Villers-sous-Pareid","nom_a":null,"nom_de":null,"slug_ville":"villers-sous-pareid","departement_id":0,"code_postal":"55160","population":77,"superficie_km2":"615.14","latitude_centre":"49.127","longitude_centre":"5.7456","distance_km":5.64},{"id":24610,"code_insee":"54213","nom_standard":"Friauville","nom_a":null,"nom_de":null,"slug_ville":"friauville","departement_id":0,"code_postal":"54800","population":364,"superficie_km2":"632.34","latitude_centre":"49.1425","longitude_centre":"5.8298","distance_km":5.98},{"id":24894,"code_insee":"54581","nom_standard":"Ville-sur-Yron","nom_a":null,"nom_de":null,"slug_ville":"ville-sur-yron","departement_id":0,"code_postal":"54800","population":293,"superficie_km2":"1117.93","latitude_centre":"49.1225","longitude_centre":"5.8712","distance_km":6.1},{"id":24779,"code_insee":"54441","nom_standard":"Puxieux","nom_a":null,"nom_de":null,"slug_ville":"puxieux","departement_id":0,"code_postal":"54800","population":221,"superficie_km2":"560.51","latitude_centre":"49.0738","longitude_centre":"5.8836","distance_km":6.31},{"id":25126,"code_insee":"55267","nom_standard":"Lachaussée","nom_a":null,"nom_de":null,"slug_ville":"lachaussee","departement_id":0,"code_postal":"55210","population":271,"superficie_km2":"3074.50","latitude_centre":"49.0322","longitude_centre":"5.7984","distance_km":6.65},{"id":24778,"code_insee":"54440","nom_standard":"Puxe","nom_a":null,"nom_de":null,"slug_ville":"puxe","departement_id":0,"code_postal":"54800","population":107,"superficie_km2":"601.13","latitude_centre":"49.1513","longitude_centre":"5.7872","distance_km":6.68},{"id":0,"code_insee":"55583","nom_standard":"Woël","nom_a":null,"nom_de":null,"slug_ville":"woel","departement_id":0,"code_postal":"55210","population":209,"superficie_km2":"1332.74","latitude_centre":"49.0389","longitude_centre":"5.7459","distance_km":7.16},{"id":24636,"code_insee":"54244","nom_standard":"Hagéville","nom_a":null,"nom_de":null,"slug_ville":"hageville","departement_id":0,"code_postal":"54470","population":111,"superficie_km2":"888.89","latitude_centre":"49.0323","longitude_centre":"5.8602","distance_km":7.89},{"id":0,"code_insee":"54136","nom_standard":"Conflans-en-Jarnisy","nom_a":null,"nom_de":null,"slug_ville":"conflans-en-jarnisy","departement_id":0,"code_postal":"54800","population":2389,"superficie_km2":"878.10","latitude_centre":"49.1666","longitude_centre":"5.8462","distance_km":8.91},{"id":24508,"code_insee":"54082","nom_standard":"Boncourt","nom_a":null,"nom_de":null,"slug_ville":"boncourt","departement_id":0,"code_postal":"54800","population":179,"superficie_km2":"671.33","latitude_centre":"49.1707","longitude_centre":"5.8259","distance_km":8.93},{"id":24660,"code_insee":"54277","nom_standard":"Jeandelize","nom_a":null,"nom_de":null,"slug_ville":"jeandelize","departement_id":0,"code_postal":"54800","population":375,"superficie_km2":"672.33","latitude_centre":"49.1732","longitude_centre":"5.7987","distance_km":9.03}]}