{"ville":{"id":10533,"code_insee":"02412","nom_standard":"Launoy","nom_a":null,"nom_de":null,"slug_ville":"launoy","departement_id":0,"code_postal":"02210","population":96,"superficie_km2":"917.46","latitude_centre":"49.2632","longitude_centre":"3.4034","dep_code":"02","dep_nom":"Aisne","dep_slug":"aisne","reg_code":"32","reg_nom":"Hauts-de-France","reg_slug":"hauts-de-france"},"departement":{"code":"02","nom":"Aisne","slug":"aisne"},"region":{"code":"32","nom":"Hauts-de-France","slug":"hauts-de-france"},"villes_proches":[{"id":10424,"code_insee":"02272","nom_standard":"Droizy","nom_a":null,"nom_de":null,"slug_ville":"droizy","departement_id":0,"code_postal":"02210","population":75,"superficie_km2":"538.74","latitude_centre":"49.2746","longitude_centre":"3.3864","distance_km":1.77},{"id":0,"code_insee":"02665","nom_standard":"Grand-Rozoy","nom_a":null,"nom_de":null,"slug_ville":"grand-rozoy","departement_id":0,"code_postal":"02210","population":299,"superficie_km2":"1248.09","latitude_centre":"49.2415","longitude_centre":"3.3813","distance_km":2.9},{"id":0,"code_insee":"02533","nom_standard":"Muret-et-Crouttes","nom_a":null,"nom_de":null,"slug_ville":"muret-et-crouttes","departement_id":0,"code_postal":"02210","population":117,"superficie_km2":"520.03","latitude_centre":"49.2789","longitude_centre":"3.4382","distance_km":3.07},{"id":10499,"code_insee":"02372","nom_standard":"Hartennes-et-Taux","nom_a":null,"nom_de":null,"slug_ville":"hartennes-et-taux","departement_id":0,"code_postal":"02210","population":343,"superficie_km2":"621.03","latitude_centre":"49.2795","longitude_centre":"3.3588","distance_km":3.71},{"id":10322,"code_insee":"02154","nom_standard":"Chacrise","nom_a":null,"nom_de":null,"slug_ville":"chacrise","departement_id":0,"code_postal":"02200","population":375,"superficie_km2":"1274.54","latitude_centre":"49.3008","longitude_centre":"3.3964","distance_km":4.21},{"id":10263,"code_insee":"02082","nom_standard":"Beugneux","nom_a":null,"nom_de":null,"slug_ville":"beugneux","departement_id":0,"code_postal":"02210","population":120,"superficie_km2":"767.75","latitude_centre":"49.2243","longitude_centre":"3.4187","distance_km":4.47},{"id":0,"code_insee":"02606","nom_standard":"Le Plessier-Huleu","nom_a":null,"nom_de":null,"slug_ville":"le-plessier-huleu","departement_id":0,"code_postal":"02210","population":93,"superficie_km2":"518.24","latitude_centre":"49.2391","longitude_centre":"3.3481","distance_km":4.83},{"id":0,"code_insee":"02447","nom_standard":"Maast-et-Violaine","nom_a":null,"nom_de":null,"slug_ville":"maast-et-violaine","departement_id":0,"code_postal":"02220","population":126,"superficie_km2":"1104.71","latitude_centre":"49.2935","longitude_centre":"3.4535","distance_km":4.96},{"id":0,"code_insee":"02536","nom_standard":"Nampteuil-sous-Muret","nom_a":null,"nom_de":null,"slug_ville":"nampteuil-sous-muret","departement_id":0,"code_postal":"02200","population":88,"superficie_km2":"336.31","latitude_centre":"49.305","longitude_centre":"3.4344","distance_km":5.16},{"id":0,"code_insee":"02585","nom_standard":"Parcy-et-Tigny","nom_a":null,"nom_de":null,"slug_ville":"parcy-et-tigny","departement_id":0,"code_postal":"02210","population":245,"superficie_km2":"1063.33","latitude_centre":"49.2693","longitude_centre":"3.3291","distance_km":5.43},{"id":10211,"code_insee":"02022","nom_standard":"Arcy-Sainte-Restitue","nom_a":null,"nom_de":null,"slug_ville":"arcy-sainte-restitue","departement_id":0,"code_postal":"02130","population":396,"superficie_km2":"2636.93","latitude_centre":"49.2557","longitude_centre":"3.4776","distance_km":5.45},{"id":10391,"code_insee":"02233","nom_standard":"Cramaille","nom_a":null,"nom_de":null,"slug_ville":"cramaille","departement_id":0,"code_postal":"02130","population":127,"superficie_km2":"816.57","latitude_centre":"49.2269","longitude_centre":"3.4555","distance_km":5.53},{"id":0,"code_insee":"02580","nom_standard":"Oulchy-le-Château","nom_a":null,"nom_de":null,"slug_ville":"oulchy-le-chateau","departement_id":0,"code_postal":"02210","population":785,"superficie_km2":"1508.87","latitude_centre":"49.2085","longitude_centre":"3.3828","distance_km":6.26},{"id":10308,"code_insee":"02138","nom_standard":"Buzancy","nom_a":null,"nom_de":null,"slug_ville":"buzancy","departement_id":0,"code_postal":"02200","population":175,"superficie_km2":"484.92","latitude_centre":"49.3086","longitude_centre":"3.3487","distance_km":6.42},{"id":10202,"code_insee":"02012","nom_standard":"Ambrief","nom_a":null,"nom_de":null,"slug_ville":"ambrief","departement_id":0,"code_postal":"02200","population":79,"superficie_km2":"448.42","latitude_centre":"49.3226","longitude_centre":"3.4058","distance_km":6.61},{"id":0,"code_insee":"02663","nom_standard":"Rozières-sur-Crise","nom_a":null,"nom_de":null,"slug_ville":"rozieres-sur-crise","departement_id":0,"code_postal":"02200","population":239,"superficie_km2":"732.00","latitude_centre":"49.3228","longitude_centre":"3.3644","distance_km":7.21},{"id":0,"code_insee":"02579","nom_standard":"Oulchy-la-Ville","nom_a":null,"nom_de":null,"slug_ville":"oulchy-la-ville","departement_id":0,"code_postal":"02210","population":131,"superficie_km2":"723.61","latitude_centre":"49.2085","longitude_centre":"3.342","distance_km":7.54},{"id":10300,"code_insee":"02127","nom_standard":"Bruyères-sur-Fère","nom_a":null,"nom_de":null,"slug_ville":"bruyeres-sur-fere","departement_id":0,"code_postal":"02130","population":199,"superficie_km2":"901.49","latitude_centre":"49.1994","longitude_centre":"3.445","distance_km":7.71},{"id":0,"code_insee":"02538","nom_standard":"Nanteuil-Notre-Dame","nom_a":null,"nom_de":null,"slug_ville":"nanteuil-notre-dame","departement_id":0,"code_postal":"02210","population":86,"superficie_km2":"373.15","latitude_centre":"49.1912","longitude_centre":"3.4105","distance_km":8.02},{"id":0,"code_insee":"02711","nom_standard":"Serches","nom_a":null,"nom_de":null,"slug_ville":"serches","departement_id":0,"code_postal":"02220","population":273,"superficie_km2":"912.10","latitude_centre":"49.3322","longitude_centre":"3.4492","distance_km":8.36}]}