{"ville":{"id":13045,"code_insee":"11198","nom_standard":"Laure-Minervois","nom_a":null,"nom_de":null,"slug_ville":"laure-minervois","departement_id":0,"code_postal":"11800","population":1061,"superficie_km2":"4069.43","latitude_centre":"43.2678","longitude_centre":"2.5144","dep_code":"11","dep_nom":"Aude","dep_slug":"aude","reg_code":"76","reg_nom":"Occitanie","reg_slug":"occitanie"},"departement":{"code":"11","nom":"Aude","slug":"aude"},"region":{"code":"76","nom":"Occitanie","slug":"occitanie"},"villes_proches":[{"id":12883,"code_insee":"11001","nom_standard":"Aigues-Vives","nom_a":null,"nom_de":null,"slug_ville":"aigues-vives","departement_id":0,"code_postal":"11800","population":532,"superficie_km2":"1051.61","latitude_centre":"43.234","longitude_centre":"2.5359","distance_km":4.14},{"id":0,"code_insee":"11416","nom_standard":"Villarzel-Cabardès","nom_a":null,"nom_de":null,"slug_ville":"villarzel-cabardes","departement_id":0,"code_postal":"11600","population":276,"superficie_km2":"659.18","latitude_centre":"43.2844","longitude_centre":"2.4686","distance_km":4.14},{"id":0,"code_insee":"11342","nom_standard":"Saint-Frichoux","nom_a":null,"nom_de":null,"slug_ville":"saint-frichoux","departement_id":0,"code_postal":"11800","population":224,"superficie_km2":"650.18","latitude_centre":"43.245","longitude_centre":"2.5561","distance_km":4.22},{"id":12899,"code_insee":"11023","nom_standard":"Badens","nom_a":null,"nom_de":null,"slug_ville":"badens","departement_id":0,"code_postal":"11800","population":749,"superficie_km2":"993.00","latitude_centre":"43.2229","longitude_centre":"2.5073","distance_km":5.03},{"id":12901,"code_insee":"11025","nom_standard":"Bagnoles","nom_a":null,"nom_de":null,"slug_ville":"bagnoles","departement_id":0,"code_postal":"11600","population":300,"superficie_km2":"578.62","latitude_centre":"43.2668","longitude_centre":"2.4466","distance_km":5.49},{"id":0,"code_insee":"11215","nom_standard":"Malves-en-Minervois","nom_a":null,"nom_de":null,"slug_ville":"malves-en-minervois","departement_id":0,"code_postal":"11600","population":888,"superficie_km2":"506.69","latitude_centre":"43.2496","longitude_centre":"2.4512","distance_km":5.5},{"id":0,"code_insee":"11286","nom_standard":"Peyriac-Minervois","nom_a":null,"nom_de":null,"slug_ville":"peyriac-minervois","departement_id":0,"code_postal":"11160","population":1123,"superficie_km2":"1018.72","latitude_centre":"43.2951","longitude_centre":"2.5714","distance_km":5.52},{"id":0,"code_insee":"11315","nom_standard":"Rieux-Minervois","nom_a":null,"nom_de":null,"slug_ville":"rieux-minervois","departement_id":0,"code_postal":"11160","population":1957,"superficie_km2":"2181.89","latitude_centre":"43.2667","longitude_centre":"2.5906","distance_km":6.17},{"id":0,"code_insee":"11330","nom_standard":"Rustiques","nom_a":null,"nom_de":null,"slug_ville":"rustiques","departement_id":0,"code_postal":"11800","population":538,"superficie_km2":"657.83","latitude_centre":"43.2174","longitude_centre":"2.4784","distance_km":6.32},{"id":0,"code_insee":"11220","nom_standard":"Marseillette","nom_a":null,"nom_de":null,"slug_ville":"marseillette","departement_id":0,"code_postal":"11800","population":697,"superficie_km2":"1117.07","latitude_centre":"43.2119","longitude_centre":"2.5438","distance_km":6.66},{"id":12916,"code_insee":"11043","nom_standard":"Bouilhonnac","nom_a":null,"nom_de":null,"slug_ville":"bouilhonnac","departement_id":0,"code_postal":"11800","population":226,"superficie_km2":"611.66","latitude_centre":"43.233","longitude_centre":"2.4462","distance_km":6.74},{"id":0,"code_insee":"11426","nom_standard":"Villegly","nom_a":null,"nom_de":null,"slug_ville":"villegly","departement_id":0,"code_postal":"11600","population":1247,"superficie_km2":"1029.20","latitude_centre":"43.2929","longitude_centre":"2.4369","distance_km":6.87},{"id":0,"code_insee":"11396","nom_standard":"Trausse","nom_a":null,"nom_de":null,"slug_ville":"trausse","departement_id":0,"code_postal":"11160","population":614,"superficie_km2":"1100.30","latitude_centre":"43.3202","longitude_centre":"2.5675","distance_km":7.24},{"id":0,"code_insee":"11397","nom_standard":"Trèbes","nom_a":null,"nom_de":null,"slug_ville":"trebes","departement_id":0,"code_postal":"11800","population":5361,"superficie_km2":"1791.02","latitude_centre":"43.209","longitude_centre":"2.4653","distance_km":7.65},{"id":0,"code_insee":"11433","nom_standard":"Villeneuve-Minervois","nom_a":null,"nom_de":null,"slug_ville":"villeneuve-minervois","departement_id":0,"code_postal":"11160","population":979,"superficie_km2":"2461.24","latitude_centre":"43.333","longitude_centre":"2.4702","distance_km":8.08},{"id":0,"code_insee":"11081","nom_standard":"Caunes-Minervois","nom_a":null,"nom_de":null,"slug_ville":"caunes-minervois","departement_id":0,"code_postal":"11160","population":1554,"superficie_km2":"2883.16","latitude_centre":"43.3419","longitude_centre":"2.5179","distance_km":8.24},{"id":12915,"code_insee":"11042","nom_standard":"Blomac","nom_a":null,"nom_de":null,"slug_ville":"blomac","departement_id":0,"code_postal":"11700","population":264,"superficie_km2":"844.08","latitude_centre":"43.2134","longitude_centre":"2.5889","distance_km":8.54},{"id":12903,"code_insee":"11027","nom_standard":"Barbaira","nom_a":null,"nom_de":null,"slug_ville":"barbaira","departement_id":0,"code_postal":"11800","population":805,"superficie_km2":"936.15","latitude_centre":"43.1774","longitude_centre":"2.5162","distance_km":10.05},{"id":0,"code_insee":"11068","nom_standard":"Capendu","nom_a":null,"nom_de":null,"slug_ville":"capendu","departement_id":0,"code_postal":"11700","population":1453,"superficie_km2":"1592.17","latitude_centre":"43.1821","longitude_centre":"2.5554","distance_km":10.09},{"id":12999,"code_insee":"11146","nom_standard":"Floure","nom_a":null,"nom_de":null,"slug_ville":"floure","departement_id":0,"code_postal":"11800","population":405,"superficie_km2":"463.74","latitude_centre":"43.176","longitude_centre":"2.484","distance_km":10.5}]}