{"ville":{"id":19917,"code_insee":"34133","nom_standard":"Lavalette","nom_a":null,"nom_de":null,"slug_ville":"lavalette","departement_id":0,"code_postal":"34700","population":53,"superficie_km2":"857.19","latitude_centre":"43.6959","longitude_centre":"3.2691","dep_code":"34","dep_nom":"Hérault","dep_slug":"herault","reg_code":"76","reg_nom":"Occitanie","reg_slug":"occitanie"},"departement":{"code":"34","nom":"Hérault","slug":"herault"},"region":{"code":"76","nom":"Occitanie","slug":"occitanie"},"villes_proches":[{"id":0,"code_insee":"34188","nom_standard":"Olmet-et-Villecun","nom_a":null,"nom_de":null,"slug_ville":"olmet-et-villecun","departement_id":0,"code_postal":"34700","population":163,"superficie_km2":"962.89","latitude_centre":"43.7097","longitude_centre":"3.3021","distance_km":3.06},{"id":0,"code_insee":"34142","nom_standard":"Lodève","nom_a":null,"nom_de":null,"slug_ville":"lodeve","departement_id":0,"code_postal":"34700","population":7251,"superficie_km2":"2326.03","latitude_centre":"43.7296","longitude_centre":"3.2949","distance_km":4.28},{"id":0,"code_insee":"34186","nom_standard":"Octon","nom_a":null,"nom_de":null,"slug_ville":"octon","departement_id":0,"code_postal":"34800","population":521,"superficie_km2":"2179.92","latitude_centre":"43.6588","longitude_centre":"3.2936","distance_km":4.57},{"id":0,"code_insee":"34220","nom_standard":"Le Puech","nom_a":null,"nom_de":null,"slug_ville":"le-puech","departement_id":0,"code_postal":"34700","population":262,"superficie_km2":"1595.07","latitude_centre":"43.6841","longitude_centre":"3.3286","distance_km":4.96},{"id":0,"code_insee":"34144","nom_standard":"Lunas-les-Châteaux","nom_a":null,"nom_de":null,"slug_ville":"lunas-les-chateaux","departement_id":0,"code_postal":"34650","population":832,"superficie_km2":"6360.21","latitude_centre":"43.6977","longitude_centre":"3.1951","distance_km":5.95},{"id":19864,"code_insee":"34040","nom_standard":"Brenas","nom_a":null,"nom_de":null,"slug_ville":"brenas","departement_id":0,"code_postal":"34650","population":58,"superficie_km2":"1050.50","latitude_centre":"43.6402","longitude_centre":"3.2521","distance_km":6.34},{"id":0,"code_insee":"34156","nom_standard":"Mérifons","nom_a":null,"nom_de":null,"slug_ville":"merifons","departement_id":0,"code_postal":"34800","population":62,"superficie_km2":"673.90","latitude_centre":"43.6361","longitude_centre":"3.2849","distance_km":6.77},{"id":0,"code_insee":"34306","nom_standard":"Soumont","nom_a":null,"nom_de":null,"slug_ville":"soumont","departement_id":0,"code_postal":"34700","population":246,"superficie_km2":"1117.61","latitude_centre":"43.7237","longitude_centre":"3.3507","distance_km":7.25},{"id":0,"code_insee":"34205","nom_standard":"Les Plans","nom_a":null,"nom_de":null,"slug_ville":"les-plans","departement_id":0,"code_postal":"34700","population":315,"superficie_km2":"1805.96","latitude_centre":"43.7619","longitude_centre":"3.2712","distance_km":7.34},{"id":19887,"code_insee":"34072","nom_standard":"Celles","nom_a":null,"nom_de":null,"slug_ville":"celles","departement_id":0,"code_postal":"34700","population":26,"superficie_km2":"758.75","latitude_centre":"43.668","longitude_centre":"3.3567","distance_km":7.7},{"id":0,"code_insee":"34292","nom_standard":"Salasc","nom_a":null,"nom_de":null,"slug_ville":"salasc","departement_id":0,"code_postal":"34800","population":357,"superficie_km2":"904.06","latitude_centre":"43.6249","longitude_centre":"3.3088","distance_km":8.52},{"id":19874,"code_insee":"34053","nom_standard":"Carlencas-et-Levas","nom_a":null,"nom_de":null,"slug_ville":"carlencas-et-levas","departement_id":0,"code_postal":"34600","population":110,"superficie_km2":"1084.77","latitude_centre":"43.627","longitude_centre":"3.2191","distance_km":8.65},{"id":19903,"code_insee":"34106","nom_standard":"Fozières","nom_a":null,"nom_de":null,"slug_ville":"fozieres","departement_id":0,"code_postal":"34700","population":194,"superficie_km2":"541.91","latitude_centre":"43.7517","longitude_centre":"3.354","distance_km":9.22},{"id":0,"code_insee":"34212","nom_standard":"Poujols","nom_a":null,"nom_de":null,"slug_ville":"poujols","departement_id":0,"code_postal":"34700","population":190,"superficie_km2":"282.79","latitude_centre":"43.7734","longitude_centre":"3.3168","distance_km":9.43},{"id":0,"code_insee":"34137","nom_standard":"Liausson","nom_a":null,"nom_de":null,"slug_ville":"liausson","departement_id":0,"code_postal":"34800","population":156,"superficie_km2":"803.91","latitude_centre":"43.6384","longitude_centre":"3.3604","distance_km":9.74},{"id":19916,"code_insee":"34132","nom_standard":"Lauroux","nom_a":null,"nom_de":null,"slug_ville":"lauroux","departement_id":0,"code_postal":"34700","population":214,"superficie_km2":"2663.12","latitude_centre":"43.7914","longitude_centre":"3.2798","distance_km":10.65},{"id":19911,"code_insee":"34121","nom_standard":"Joncels","nom_a":null,"nom_de":null,"slug_ville":"joncels","departement_id":0,"code_postal":"34650","population":256,"superficie_km2":"4638.97","latitude_centre":"43.7691","longitude_centre":"3.1834","distance_km":10.66},{"id":0,"code_insee":"34175","nom_standard":"Mourèze","nom_a":null,"nom_de":null,"slug_ville":"moureze","departement_id":0,"code_postal":"34800","population":176,"superficie_km2":"1353.34","latitude_centre":"43.6177","longitude_centre":"3.3476","distance_km":10.75},{"id":0,"code_insee":"34200","nom_standard":"Pézènes-les-Mines","nom_a":null,"nom_de":null,"slug_ville":"pezenes-les-mines","departement_id":0,"code_postal":"34600","population":237,"superficie_km2":"2703.00","latitude_centre":"43.6002","longitude_centre":"3.2444","distance_km":10.83},{"id":0,"code_insee":"34323","nom_standard":"Valmascle","nom_a":null,"nom_de":null,"slug_ville":"valmascle","departement_id":0,"code_postal":"34800","population":52,"superficie_km2":"692.10","latitude_centre":"43.5999","longitude_centre":"3.3003","distance_km":10.97}]}