{"ville":{"id":24066,"code_insee":"52276","nom_standard":"Laville-aux-Bois","nom_a":null,"nom_de":null,"slug_ville":"laville-aux-bois","departement_id":0,"code_postal":"52000","population":238,"superficie_km2":"1312.38","latitude_centre":"48.0902","longitude_centre":"5.2366","dep_code":"52","dep_nom":"Haute-Marne","dep_slug":"haute-marne","reg_code":"44","reg_nom":"Grand Est","reg_slug":"grand-est"},"departement":{"code":"52","nom":"Haute-Marne","slug":"haute-marne"},"region":{"code":"44","nom":"Grand Est","slug":"grand-est"},"villes_proches":[{"id":0,"code_insee":"52125","nom_standard":"Chamarandes-Choignes","nom_a":null,"nom_de":null,"slug_ville":"chamarandes-choignes","departement_id":0,"code_postal":"52000","population":1039,"superficie_km2":"1900.60","latitude_centre":"48.097","longitude_centre":"5.1983","distance_km":2.94},{"id":0,"code_insee":"52514","nom_standard":"Verbiesles","nom_a":null,"nom_de":null,"slug_ville":"verbiesles","departement_id":0,"code_postal":"52000","population":306,"superficie_km2":"1138.43","latitude_centre":"48.0759","longitude_centre":"5.1949","distance_km":3.48},{"id":0,"code_insee":"52050","nom_standard":"Biesles","nom_a":null,"nom_de":null,"slug_ville":"biesles","departement_id":0,"code_postal":"52340","population":1342,"superficie_km2":"2411.75","latitude_centre":"48.1119","longitude_centre":"5.2896","distance_km":4.62},{"id":0,"code_insee":"52297","nom_standard":"Luzy-sur-Marne","nom_a":null,"nom_de":null,"slug_ville":"luzy-sur-marne","departement_id":0,"code_postal":"52000","population":279,"superficie_km2":"1598.70","latitude_centre":"48.0561","longitude_centre":"5.2005","distance_km":4.64},{"id":0,"code_insee":"52401","nom_standard":"Poulangy","nom_a":null,"nom_de":null,"slug_ville":"poulangy","departement_id":0,"code_postal":"52800","population":361,"superficie_km2":"1740.17","latitude_centre":"48.0455","longitude_centre":"5.256","distance_km":5.18},{"id":0,"code_insee":"52459","nom_standard":"Sarcey","nom_a":null,"nom_de":null,"slug_ville":"sarcey","departement_id":0,"code_postal":"52800","population":97,"superficie_km2":"722.85","latitude_centre":"48.0576","longitude_centre":"5.2961","distance_km":5.72},{"id":0,"code_insee":"52494","nom_standard":"Treix","nom_a":null,"nom_de":null,"slug_ville":"treix","departement_id":0,"code_postal":"52000","population":213,"superficie_km2":"1559.16","latitude_centre":"48.1419","longitude_centre":"5.2161","distance_km":5.95},{"id":0,"code_insee":"52121","nom_standard":"Chaumont","nom_a":null,"nom_de":null,"slug_ville":"chaumont","departement_id":0,"code_postal":"52000","population":20827,"superficie_km2":"5514.07","latitude_centre":"48.0965","longitude_centre":"5.1566","distance_km":5.98},{"id":0,"code_insee":"52305","nom_standard":"Mandres-la-Côte","nom_a":null,"nom_de":null,"slug_ville":"mandres-la-cote","departement_id":0,"code_postal":"52800","population":556,"superficie_km2":"1151.45","latitude_centre":"48.0692","longitude_centre":"5.3323","distance_km":7.48},{"id":0,"code_insee":"52295","nom_standard":"Louvières","nom_a":null,"nom_de":null,"slug_ville":"louvieres","departement_id":0,"code_postal":"52800","population":87,"superficie_km2":"870.60","latitude_centre":"48.0274","longitude_centre":"5.2819","distance_km":7.75},{"id":23869,"code_insee":"52001","nom_standard":"Ageville","nom_a":null,"nom_de":null,"slug_ville":"ageville","departement_id":0,"code_postal":"52340","population":290,"superficie_km2":"1967.66","latitude_centre":"48.1102","longitude_centre":"5.3376","distance_km":7.82},{"id":23989,"code_insee":"52167","nom_standard":"Darmannes","nom_a":null,"nom_de":null,"slug_ville":"darmannes","departement_id":0,"code_postal":"52700","population":233,"superficie_km2":"1834.47","latitude_centre":"48.166","longitude_centre":"5.2249","distance_km":8.47},{"id":0,"code_insee":"52313","nom_standard":"Mareilles","nom_a":null,"nom_de":null,"slug_ville":"mareilles","departement_id":0,"code_postal":"52700","population":139,"superficie_km2":"2214.63","latitude_centre":"48.1662","longitude_centre":"5.257","distance_km":8.59},{"id":0,"code_insee":"52315","nom_standard":"Marnay-sur-Marne","nom_a":null,"nom_de":null,"slug_ville":"marnay-sur-marne","departement_id":0,"code_postal":"52800","population":320,"superficie_km2":"1080.93","latitude_centre":"48.0109","longitude_centre":"5.2315","distance_km":8.83},{"id":23971,"code_insee":"52141","nom_standard":"Condes","nom_a":null,"nom_de":null,"slug_ville":"condes","departement_id":0,"code_postal":"52000","population":292,"superficie_km2":"516.27","latitude_centre":"48.1419","longitude_centre":"5.1417","distance_km":9.09},{"id":24007,"code_insee":"52190","nom_standard":"Esnouveaux","nom_a":null,"nom_de":null,"slug_ville":"esnouveaux","departement_id":0,"code_postal":"52340","population":301,"superficie_km2":"1705.47","latitude_centre":"48.1332","longitude_centre":"5.3417","distance_km":9.15},{"id":24017,"code_insee":"52205","nom_standard":"Foulain","nom_a":null,"nom_de":null,"slug_ville":"foulain","departement_id":0,"code_postal":"52000","population":673,"superficie_km2":"2673.14","latitude_centre":"48.0234","longitude_centre":"5.1632","distance_km":9.22},{"id":23921,"code_insee":"52072","nom_standard":"Brethenay","nom_a":null,"nom_de":null,"slug_ville":"brethenay","departement_id":0,"code_postal":"52000","population":399,"superficie_km2":"895.09","latitude_centre":"48.1585","longitude_centre":"5.1399","distance_km":10.45},{"id":0,"code_insee":"52518","nom_standard":"Vesaignes-sur-Marne","nom_a":null,"nom_de":null,"slug_ville":"vesaignes-sur-marne","departement_id":0,"code_postal":"52800","population":103,"superficie_km2":"858.96","latitude_centre":"47.9974","longitude_centre":"5.2668","distance_km":10.56},{"id":0,"code_insee":"52421","nom_standard":"Riaucourt","nom_a":null,"nom_de":null,"slug_ville":"riaucourt","departement_id":0,"code_postal":"52000","population":402,"superficie_km2":"1078.17","latitude_centre":"48.1735","longitude_centre":"5.1671","distance_km":10.6}]}