{"ville":{"id":28675,"code_insee":"64326","nom_standard":"Lay-Lamidou","nom_a":null,"nom_de":null,"slug_ville":"lay-lamidou","departement_id":0,"code_postal":"64190","population":130,"superficie_km2":"546.82","latitude_centre":"43.2921","longitude_centre":"-0.7053","dep_code":"64","dep_nom":"Pyrénées-Atlantiques","dep_slug":"pyrenees-atlantiques","reg_code":"75","reg_nom":"Nouvelle-Aquitaine","reg_slug":"nouvelle-aquitaine"},"departement":{"code":"64","nom":"Pyrénées-Atlantiques","slug":"pyrenees-atlantiques"},"region":{"code":"75","nom":"Nouvelle-Aquitaine","slug":"nouvelle-aquitaine"},"villes_proches":[{"id":0,"code_insee":"64459","nom_standard":"Préchacq-Navarrenx","nom_a":null,"nom_de":null,"slug_ville":"prechacq-navarrenx","departement_id":0,"code_postal":"64190","population":178,"superficie_km2":"528.87","latitude_centre":"43.2804","longitude_centre":"-0.7065","distance_km":1.3},{"id":28572,"code_insee":"64201","nom_standard":"Dognen","nom_a":null,"nom_de":null,"slug_ville":"dognen","departement_id":0,"code_postal":"64190","population":225,"superficie_km2":"679.24","latitude_centre":"43.2875","longitude_centre":"-0.7311","distance_km":2.15},{"id":0,"code_insee":"64420","nom_standard":"Ogenne-Camptort","nom_a":null,"nom_de":null,"slug_ville":"ogenne-camptort","departement_id":0,"code_postal":"64190","population":241,"superficie_km2":"1178.75","latitude_centre":"43.3181","longitude_centre":"-0.6987","distance_km":2.94},{"id":28638,"code_insee":"64281","nom_standard":"Jasses","nom_a":null,"nom_de":null,"slug_ville":"jasses","departement_id":0,"code_postal":"64190","population":142,"superficie_km2":"548.00","latitude_centre":"43.3135","longitude_centre":"-0.735","distance_km":3.38},{"id":0,"code_insee":"64508","nom_standard":"Saucède","nom_a":null,"nom_de":null,"slug_ville":"saucede","departement_id":0,"code_postal":"64400","population":125,"superficie_km2":"711.72","latitude_centre":"43.2629","longitude_centre":"-0.6716","distance_km":4.24},{"id":0,"code_insee":"64359","nom_standard":"Lucq-de-Béarn","nom_a":null,"nom_de":null,"slug_ville":"lucq-de-bearn","departement_id":0,"code_postal":"64360","population":925,"superficie_km2":"4880.85","latitude_centre":"43.2972","longitude_centre":"-0.6497","distance_km":4.54},{"id":0,"code_insee":"64458","nom_standard":"Préchacq-Josbaig","nom_a":null,"nom_de":null,"slug_ville":"prechacq-josbaig","departement_id":0,"code_postal":"64190","population":299,"superficie_km2":"836.88","latitude_centre":"43.2567","longitude_centre":"-0.7348","distance_km":4.6},{"id":28615,"code_insee":"64253","nom_standard":"Gurs","nom_a":null,"nom_de":null,"slug_ville":"gurs","departement_id":0,"code_postal":"64190","population":418,"superficie_km2":"1095.69","latitude_centre":"43.2771","longitude_centre":"-0.7594","distance_km":4.69},{"id":0,"code_insee":"64416","nom_standard":"Navarrenx","nom_a":null,"nom_de":null,"slug_ville":"navarrenx","departement_id":0,"code_postal":"64190","population":1042,"superficie_km2":"651.15","latitude_centre":"43.3291","longitude_centre":"-0.7363","distance_km":4.82},{"id":28448,"code_insee":"64039","nom_standard":"Aren","nom_a":null,"nom_de":null,"slug_ville":"aren","departement_id":0,"code_postal":"64400","population":246,"superficie_km2":"740.23","latitude_centre":"43.2471","longitude_centre":"-0.7233","distance_km":5.21},{"id":0,"code_insee":"64529","nom_standard":"Sus","nom_a":null,"nom_de":null,"slug_ville":"sus","departement_id":0,"code_postal":"64190","population":371,"superficie_km2":"1154.09","latitude_centre":"43.2903","longitude_centre":"-0.7797","distance_km":6.02},{"id":0,"code_insee":"64449","nom_standard":"Poey-d'Oloron","nom_a":null,"nom_de":null,"slug_ville":"poey-d-oloron","departement_id":0,"code_postal":"64400","population":163,"superficie_km2":"480.94","latitude_centre":"43.2479","longitude_centre":"-0.6621","distance_km":6.03},{"id":0,"code_insee":"64381","nom_standard":"Méritein","nom_a":null,"nom_de":null,"slug_ville":"meritein","departement_id":0,"code_postal":"64190","population":279,"superficie_km2":"684.16","latitude_centre":"43.3388","longitude_centre":"-0.7491","distance_km":6.29},{"id":28609,"code_insee":"64244","nom_standard":"Geüs-d'Oloron","nom_a":null,"nom_de":null,"slug_ville":"geus-d-oloron","departement_id":0,"code_postal":"64400","population":261,"superficie_km2":"674.32","latitude_centre":"43.238","longitude_centre":"-0.7283","distance_km":6.3},{"id":0,"code_insee":"64530","nom_standard":"Susmiou","nom_a":null,"nom_de":null,"slug_ville":"susmiou","departement_id":0,"code_postal":"64190","population":348,"superficie_km2":"355.25","latitude_centre":"43.3103","longitude_centre":"-0.7799","distance_km":6.37},{"id":0,"code_insee":"64481","nom_standard":"Saint-Goin","nom_a":null,"nom_de":null,"slug_ville":"saint-goin","departement_id":0,"code_postal":"64400","population":219,"superficie_km2":"559.62","latitude_centre":"43.2338","longitude_centre":"-0.7251","distance_km":6.68},{"id":28624,"code_insee":"64264","nom_standard":"L'Hôpital-Saint-Blaise","nom_a":null,"nom_de":null,"slug_ville":"l-hopital-saint-blaise","departement_id":0,"code_postal":"64130","population":55,"superficie_km2":"214.27","latitude_centre":"43.2555","longitude_centre":"-0.7708","distance_km":6.68},{"id":0,"code_insee":"64556","nom_standard":"Vielleségure","nom_a":null,"nom_de":null,"slug_ville":"viellesegure","departement_id":0,"code_postal":"64150","population":376,"superficie_km2":"1432.60","latitude_centre":"43.3548","longitude_centre":"-0.7039","distance_km":6.97},{"id":28606,"code_insee":"64241","nom_standard":"Géronce","nom_a":null,"nom_de":null,"slug_ville":"geronce","departement_id":0,"code_postal":"64400","population":492,"superficie_km2":"1615.70","latitude_centre":"43.2251","longitude_centre":"-0.716","distance_km":7.5},{"id":0,"code_insee":"64426","nom_standard":"Orin","nom_a":null,"nom_de":null,"slug_ville":"orin","departement_id":0,"code_postal":"64400","population":269,"superficie_km2":"432.15","latitude_centre":"43.2251","longitude_centre":"-0.6758","distance_km":7.82}]}