{"ville":{"id":10934,"code_insee":"03035","nom_standard":"Le Bouchaud","nom_a":null,"nom_de":null,"slug_ville":"le-bouchaud","departement_id":0,"code_postal":"03130","population":192,"superficie_km2":"2282.30","latitude_centre":"46.305","longitude_centre":"3.9069","dep_code":"03","dep_nom":"Allier","dep_slug":"allier","reg_code":"84","reg_nom":"Auvergne-Rhône-Alpes","reg_slug":"auvergne-rhone-alpes"},"departement":{"code":"03","nom":"Allier","slug":"allier"},"region":{"code":"84","nom":"Auvergne-Rhône-Alpes","slug":"auvergne-rhone-alpes"},"villes_proches":[{"id":0,"code_insee":"71071","nom_standard":"Céron","nom_a":null,"nom_de":null,"slug_ville":"ceron","departement_id":0,"code_postal":"71110","population":263,"superficie_km2":"2355.43","latitude_centre":"46.2795","longitude_centre":"3.9339","distance_km":3.51},{"id":0,"code_insee":"03196","nom_standard":"Neuilly-en-Donjon","nom_a":null,"nom_de":null,"slug_ville":"neuilly-en-donjon","departement_id":0,"code_postal":"03130","population":198,"superficie_km2":"2508.28","latitude_centre":"46.3437","longitude_centre":"3.8859","distance_km":4.6},{"id":10916,"code_insee":"03014","nom_standard":"Avrilly","nom_a":null,"nom_de":null,"slug_ville":"avrilly","departement_id":0,"code_postal":"03130","population":144,"superficie_km2":"1150.75","latitude_centre":"46.3284","longitude_centre":"3.971","distance_km":5.57},{"id":0,"code_insee":"71048","nom_standard":"Bourg-le-Comte","nom_a":null,"nom_de":null,"slug_ville":"bourg-le-comte","departement_id":0,"code_postal":"71110","population":168,"superficie_km2":"1143.87","latitude_centre":"46.3115","longitude_centre":"3.9821","distance_km":5.82},{"id":0,"code_insee":"03142","nom_standard":"Lenax","nom_a":null,"nom_de":null,"slug_ville":"lenax","departement_id":0,"code_postal":"03130","population":257,"superficie_km2":"2845.51","latitude_centre":"46.3056","longitude_centre":"3.8299","distance_km":5.92},{"id":0,"code_insee":"42317","nom_standard":"Urbise","nom_a":null,"nom_de":null,"slug_ville":"urbise","departement_id":0,"code_postal":"42310","population":117,"superficie_km2":"1574.00","latitude_centre":"46.2454","longitude_centre":"3.88","distance_km":6.94},{"id":0,"code_insee":"03178","nom_standard":"Montaiguët-en-Forez","nom_a":null,"nom_de":null,"slug_ville":"montaiguet-en-forez","departement_id":0,"code_postal":"03130","population":280,"superficie_km2":"2249.18","latitude_centre":"46.264","longitude_centre":"3.829","distance_km":7.52},{"id":0,"code_insee":"71077","nom_standard":"Chambilly","nom_a":null,"nom_de":null,"slug_ville":"chambilly","departement_id":0,"code_postal":"71110","population":464,"superficie_km2":"1372.77","latitude_centre":"46.2826","longitude_centre":"3.9992","distance_km":7.52},{"id":0,"code_insee":"03154","nom_standard":"Luneau","nom_a":null,"nom_de":null,"slug_ville":"luneau","departement_id":0,"code_postal":"03130","population":277,"superficie_km2":"2722.99","latitude_centre":"46.3665","longitude_centre":"3.948","distance_km":7.53},{"id":0,"code_insee":"71123","nom_standard":"Chenay-le-Châtel","nom_a":null,"nom_de":null,"slug_ville":"chenay-le-chatel","departement_id":0,"code_postal":"71340","population":375,"superficie_km2":"3207.22","latitude_centre":"46.2314","longitude_centre":"3.9413","distance_km":8.6},{"id":0,"code_insee":"71012","nom_standard":"Artaix","nom_a":null,"nom_de":null,"slug_ville":"artaix","departement_id":0,"code_postal":"71110","population":353,"superficie_km2":"2137.22","latitude_centre":"46.248","longitude_centre":"3.9868","distance_km":8.82},{"id":0,"code_insee":"42194","nom_standard":"Sail-les-Bains","nom_a":null,"nom_de":null,"slug_ville":"sail-les-bains","departement_id":0,"code_postal":"42310","population":209,"superficie_km2":"2150.55","latitude_centre":"46.2376","longitude_centre":"3.8414","distance_km":9.03},{"id":0,"code_insee":"03226","nom_standard":"Saint-Didier-en-Donjon","nom_a":null,"nom_de":null,"slug_ville":"saint-didier-en-donjon","departement_id":0,"code_postal":"03130","population":245,"superficie_km2":"3311.00","latitude_centre":"46.3846","longitude_centre":"3.8701","distance_km":9.29},{"id":0,"code_insee":"71024","nom_standard":"Baugy","nom_a":null,"nom_de":null,"slug_ville":"baugy","departement_id":0,"code_postal":"71110","population":499,"superficie_km2":"1266.25","latitude_centre":"46.3076","longitude_centre":"4.0313","distance_km":9.56},{"id":0,"code_insee":"03103","nom_standard":"Le Donjon","nom_a":null,"nom_de":null,"slug_ville":"le-donjon","departement_id":0,"code_postal":"03130","population":1007,"superficie_km2":"3705.55","latitude_centre":"46.3498","longitude_centre":"3.8003","distance_km":9.58},{"id":0,"code_insee":"71581","nom_standard":"Vindecy","nom_a":null,"nom_de":null,"slug_ville":"vindecy","departement_id":0,"code_postal":"71110","population":244,"superficie_km2":"1654.61","latitude_centre":"46.3562","longitude_centre":"4.0095","distance_km":9.72},{"id":0,"code_insee":"03239","nom_standard":"Saint-Léger-sur-Vouzance","nom_a":null,"nom_de":null,"slug_ville":"saint-leger-sur-vouzance","departement_id":0,"code_postal":"03130","population":258,"superficie_km2":"1823.82","latitude_centre":"46.4093","longitude_centre":"3.9368","distance_km":11.82},{"id":0,"code_insee":"03208","nom_standard":"Le Pin","nom_a":null,"nom_de":null,"slug_ville":"le-pin","departement_id":0,"code_postal":"03130","population":432,"superficie_km2":"2187.66","latitude_centre":"46.4219","longitude_centre":"3.8887","distance_km":13.07},{"id":0,"code_insee":"42163","nom_standard":"La Pacaudière","nom_a":null,"nom_de":null,"slug_ville":"la-pacaudiere","departement_id":0,"code_postal":"42310","population":1088,"superficie_km2":"2082.63","latitude_centre":"46.1828","longitude_centre":"3.8776","distance_km":13.77},{"id":0,"code_insee":"42337","nom_standard":"Vivans","nom_a":null,"nom_de":null,"slug_ville":"vivans","departement_id":0,"code_postal":"42310","population":242,"superficie_km2":"2557.39","latitude_centre":"46.1814","longitude_centre":"3.9385","distance_km":13.96}]}