{"ville":{"id":13539,"code_insee":"14103","nom_standard":"Le Breuil-en-Bessin","nom_a":null,"nom_de":null,"slug_ville":"le-breuil-en-bessin","departement_id":0,"code_postal":"14330","population":409,"superficie_km2":"440.67","latitude_centre":"49.2547","longitude_centre":"-0.8581","dep_code":"14","dep_nom":"Calvados","dep_slug":"calvados","reg_code":"28","reg_nom":"Normandie","reg_slug":"normandie"},"departement":{"code":"14","nom":"Calvados","slug":"calvados"},"region":{"code":"28","nom":"Normandie","slug":"normandie"},"villes_proches":[{"id":0,"code_insee":"14667","nom_standard":"Saon","nom_a":null,"nom_de":null,"slug_ville":"saon","departement_id":0,"code_postal":"14330","population":226,"superficie_km2":"526.03","latitude_centre":"49.2727","longitude_centre":"-0.8658","distance_km":2.08},{"id":0,"code_insee":"14370","nom_standard":"Le Molay-Littry","nom_a":null,"nom_de":null,"slug_ville":"le-molay-littry","departement_id":0,"code_postal":"14330","population":3124,"superficie_km2":"2735.11","latitude_centre":"49.2344","longitude_centre":"-0.8796","distance_km":2.74},{"id":0,"code_insee":"14668","nom_standard":"Saonnet","nom_a":null,"nom_de":null,"slug_ville":"saonnet","departement_id":0,"code_postal":"14330","population":325,"superficie_km2":"533.17","latitude_centre":"49.2746","longitude_centre":"-0.8833","distance_km":2.87},{"id":13523,"code_insee":"14078","nom_standard":"Blay","nom_a":null,"nom_de":null,"slug_ville":"blay","departement_id":0,"code_postal":"14400","population":354,"superficie_km2":"719.58","latitude_centre":"49.2774","longitude_centre":"-0.8349","distance_km":3.03},{"id":0,"code_insee":"14209","nom_standard":"Crouay","nom_a":null,"nom_de":null,"slug_ville":"crouay","departement_id":0,"code_postal":"14400","population":510,"superficie_km2":"778.95","latitude_centre":"49.2732","longitude_centre":"-0.8207","distance_km":3.41},{"id":0,"code_insee":"14547","nom_standard":"Rubercy","nom_a":null,"nom_de":null,"slug_ville":"rubercy","departement_id":0,"code_postal":"14710","population":152,"superficie_km2":"560.09","latitude_centre":"49.2831","longitude_centre":"-0.8799","distance_km":3.53},{"id":0,"code_insee":"14714","nom_standard":"Le Tronquay","nom_a":null,"nom_de":null,"slug_ville":"le-tronquay","departement_id":0,"code_postal":"14490","population":745,"superficie_km2":"1329.27","latitude_centre":"49.2303","longitude_centre":"-0.8187","distance_km":3.94},{"id":0,"code_insee":"14130","nom_standard":"Campigny","nom_a":null,"nom_de":null,"slug_ville":"campigny","departement_id":0,"code_postal":"14490","population":184,"superficie_km2":"566.96","latitude_centre":"49.2458","longitude_centre":"-0.7991","distance_km":4.4},{"id":0,"code_insee":"14184","nom_standard":"Cottun","nom_a":null,"nom_de":null,"slug_ville":"cottun","departement_id":0,"code_postal":"14400","population":240,"superficie_km2":"380.48","latitude_centre":"49.2678","longitude_centre":"-0.7846","distance_km":5.53},{"id":0,"code_insee":"14622","nom_standard":"Saint-Martin-de-Blagny","nom_a":null,"nom_de":null,"slug_ville":"saint-martin-de-blagny","departement_id":0,"code_postal":"14710","population":118,"superficie_km2":"902.96","latitude_centre":"49.2473","longitude_centre":"-0.9358","distance_km":5.7},{"id":13519,"code_insee":"14063","nom_standard":"Bernesq","nom_a":null,"nom_de":null,"slug_ville":"bernesq","departement_id":0,"code_postal":"14710","population":212,"superficie_km2":"601.20","latitude_centre":"49.274","longitude_centre":"-0.9312","distance_km":5.72},{"id":0,"code_insee":"14397","nom_standard":"Mandeville-en-Bessin","nom_a":null,"nom_de":null,"slug_ville":"mandeville-en-bessin","departement_id":0,"code_postal":"14710","population":303,"superficie_km2":"884.88","latitude_centre":"49.3065","longitude_centre":"-0.8643","distance_km":5.78},{"id":13490,"code_insee":"14003","nom_standard":"Agy","nom_a":null,"nom_de":null,"slug_ville":"agy","departement_id":0,"code_postal":"14400","population":320,"superficie_km2":"426.69","latitude_centre":"49.2372","longitude_centre":"-0.7793","distance_km":6.04},{"id":0,"code_insee":"14705","nom_standard":"Tournières","nom_a":null,"nom_de":null,"slug_ville":"tournieres","departement_id":0,"code_postal":"14330","population":148,"superficie_km2":"345.25","latitude_centre":"49.2307","longitude_centre":"-0.936","distance_km":6.25},{"id":0,"code_insee":"14453","nom_standard":"Mosles","nom_a":null,"nom_de":null,"slug_ville":"mosles","departement_id":0,"code_postal":"14400","population":368,"superficie_km2":"649.00","latitude_centre":"49.3077","longitude_centre":"-0.8196","distance_km":6.52},{"id":0,"code_insee":"14711","nom_standard":"Trévières","nom_a":null,"nom_de":null,"slug_ville":"trevieres","departement_id":0,"code_postal":"14710","population":925,"superficie_km2":"1182.33","latitude_centre":"49.3002","longitude_centre":"-0.9156","distance_km":6.56},{"id":0,"code_insee":"14035","nom_standard":"Balleroy-sur-Drôme","nom_a":null,"nom_de":null,"slug_ville":"balleroy-sur-drome","departement_id":0,"code_postal":"14490","population":1303,"superficie_km2":"1200.68","latitude_centre":"49.1931","longitude_centre":"-0.8325","distance_km":7.1},{"id":0,"code_insee":"14140","nom_standard":"Castillon","nom_a":null,"nom_de":null,"slug_ville":"castillon","departement_id":0,"code_postal":"14490","population":368,"superficie_km2":"1112.60","latitude_centre":"49.1966","longitude_centre":"-0.8024","distance_km":7.62},{"id":0,"code_insee":"14681","nom_standard":"Surrain","nom_a":null,"nom_de":null,"slug_ville":"surrain","departement_id":0,"code_postal":"14710","population":138,"superficie_km2":"718.19","latitude_centre":"49.3268","longitude_centre":"-0.8576","distance_km":8.02},{"id":0,"code_insee":"14445","nom_standard":"Montfiquet","nom_a":null,"nom_de":null,"slug_ville":"montfiquet","departement_id":0,"code_postal":"14490","population":81,"superficie_km2":"1986.98","latitude_centre":"49.1887","longitude_centre":"-0.9032","distance_km":8.04}]}