{"ville":{"id":1190,"code_insee":"17051","nom_standard":"Le Bois-Plage-en-Ré","nom_a":null,"nom_de":null,"slug_ville":"le-bois-plage-en-re","departement_id":617,"code_postal":"17580","population":2229,"superficie_km2":"12.00","latitude_centre":"46.1819992","longitude_centre":"-1.3760000","dep_code":"17","dep_nom":"Charente-Maritime","dep_slug":"charente-maritime","reg_code":"15","reg_nom":"Nouvelle-Aquitaine","reg_slug":"nouvelle-aquitaine"},"departement":{"code":"17","nom":"Charente-Maritime","slug":"charente-maritime"},"region":{"code":"15","nom":"Nouvelle-Aquitaine","slug":"nouvelle-aquitaine"},"villes_proches":[{"id":1291,"code_insee":"17369","nom_standard":"Saint-Martin-de-Ré","nom_a":null,"nom_de":null,"slug_ville":"saint-martin-de-re","departement_id":617,"code_postal":"17410","population":2263,"superficie_km2":"5.00","latitude_centre":"46.1990013","longitude_centre":"-1.3670000","distance_km":2.01},{"id":1225,"code_insee":"17161","nom_standard":"La Flotte","nom_a":null,"nom_de":null,"slug_ville":"la-flotte","departement_id":617,"code_postal":"17630","population":3017,"superficie_km2":"12.00","latitude_centre":"46.1790009","longitude_centre":"-1.3220000","distance_km":4.17},{"id":1290,"code_insee":"17360","nom_standard":"Sainte-Marie-de-Ré","nom_a":null,"nom_de":null,"slug_ville":"sainte-marie-de-re","departement_id":617,"code_postal":"17740","population":3372,"superficie_km2":"10.00","latitude_centre":"46.1559982","longitude_centre":"-1.3220000","distance_km":5.06},{"id":1214,"code_insee":"17121","nom_standard":"La Couarde-sur-Mer","nom_a":null,"nom_de":null,"slug_ville":"la-couarde-sur-mer","departement_id":617,"code_postal":"17670","population":1104,"superficie_km2":"9.00","latitude_centre":"46.2010002","longitude_centre":"-1.4370000","distance_km":5.15},{"id":1263,"code_insee":"17297","nom_standard":"Rivedoux-Plage","nom_a":null,"nom_de":null,"slug_ville":"rivedoux-plage","departement_id":617,"code_postal":"17940","population":2374,"superficie_km2":"5.00","latitude_centre":"46.1590004","longitude_centre":"-1.2830000","distance_km":7.6},{"id":1183,"code_insee":"17019","nom_standard":"Ars-en-Ré","nom_a":null,"nom_de":null,"slug_ville":"ars-en-re","departement_id":617,"code_postal":"17590","population":1297,"superficie_km2":"11.00","latitude_centre":"46.2109985","longitude_centre":"-1.5150000","distance_km":11.17},{"id":1232,"code_insee":"17190","nom_standard":"L'Houmeau","nom_a":null,"nom_de":null,"slug_ville":"l-houmeau","departement_id":617,"code_postal":"17137","population":2907,"superficie_km2":"4.00","latitude_centre":"46.1940002","longitude_centre":"-1.1860000","distance_km":14.69},{"id":1265,"code_insee":"17300","nom_standard":"La Rochelle","nom_a":null,"nom_de":null,"slug_ville":"la-rochelle","departement_id":617,"code_postal":"17000","population":78535,"superficie_km2":"32.00","latitude_centre":"46.1619988","longitude_centre":"-1.1750000","distance_km":15.64},{"id":8979,"code_insee":"85001","nom_standard":"L'Aiguillon-la-Presqu'île","nom_a":null,"nom_de":null,"slug_ville":"l-aiguillon-la-presqu-ile","departement_id":686,"code_postal":"85460","population":2772,"superficie_km2":"10.00","latitude_centre":"46.3040009","longitude_centre":"-1.2620000","distance_km":16.15},{"id":1253,"code_insee":"17264","nom_standard":"Nieul-sur-Mer","nom_a":null,"nom_de":null,"slug_ville":"nieul-sur-mer","departement_id":617,"code_postal":"17137","population":5798,"superficie_km2":"11.00","latitude_centre":"46.2089996","longitude_centre":"-1.1660000","distance_km":16.44},{"id":1236,"code_insee":"17200","nom_standard":"Lagord","nom_a":null,"nom_de":null,"slug_ville":"lagord","departement_id":617,"code_postal":"17140","population":7387,"superficie_km2":"8.00","latitude_centre":"46.1860008","longitude_centre":"-1.1520000","distance_km":17.25},{"id":1274,"code_insee":"17323","nom_standard":"Saint-Denis-d'Oléron","nom_a":null,"nom_de":null,"slug_ville":"saint-denis-d-oleron","departement_id":617,"code_postal":"17650","population":1315,"superficie_km2":"12.00","latitude_centre":"46.0239983","longitude_centre":"-1.3860000","distance_km":17.59},{"id":1241,"code_insee":"17222","nom_standard":"Marsilly","nom_a":null,"nom_de":null,"slug_ville":"marsilly","departement_id":617,"code_postal":"17137","population":3194,"superficie_km2":"12.00","latitude_centre":"46.2280006","longitude_centre":"-1.1339999","distance_km":19.31},{"id":9148,"code_insee":"85294","nom_standard":"La Tranche-sur-Mer","nom_a":null,"nom_de":null,"slug_ville":"la-tranche-sur-mer","departement_id":686,"code_postal":"85360","population":3054,"superficie_km2":"21.00","latitude_centre":"46.3559990","longitude_centre":"-1.4310000","distance_km":19.8},{"id":9131,"code_insee":"85255","nom_standard":"Saint-Michel-en-l'Herm","nom_a":null,"nom_de":null,"slug_ville":"saint-michel-en-l-herm","departement_id":686,"code_postal":"85580","population":2329,"superficie_km2":"58.00","latitude_centre":"46.3370018","longitude_centre":"-1.2480000","distance_km":19.85},{"id":1261,"code_insee":"17291","nom_standard":"Puilboreau","nom_a":null,"nom_de":null,"slug_ville":"puilboreau","departement_id":617,"code_postal":"17138","population":6635,"superficie_km2":"8.00","latitude_centre":"46.1850014","longitude_centre":"-1.1140000","distance_km":20.17},{"id":1186,"code_insee":"17028","nom_standard":"Aytré","nom_a":null,"nom_de":null,"slug_ville":"aytre","departement_id":617,"code_postal":"17440","population":9578,"superficie_km2":"12.00","latitude_centre":"46.1339989","longitude_centre":"-1.1140000","distance_km":20.87},{"id":1222,"code_insee":"17153","nom_standard":"Esnandes","nom_a":null,"nom_de":null,"slug_ville":"esnandes","departement_id":617,"code_postal":"17137","population":2103,"superficie_km2":"8.00","latitude_centre":"46.2480011","longitude_centre":"-1.1140000","distance_km":21.45},{"id":1306,"code_insee":"17414","nom_standard":"Saint-Xandre","nom_a":null,"nom_de":null,"slug_ville":"saint-xandre","departement_id":617,"code_postal":"17138","population":5384,"superficie_km2":"13.00","latitude_centre":"46.2130013","longitude_centre":"-1.0920000","distance_km":22.13},{"id":1256,"code_insee":"17274","nom_standard":"Périgny","nom_a":null,"nom_de":null,"slug_ville":"perigny","departement_id":617,"code_postal":"17180","population":8741,"superficie_km2":"11.00","latitude_centre":"46.1580010","longitude_centre":"-1.0890000","distance_km":22.26}]}