{"ville":{"id":33645,"code_insee":"82036","nom_standard":"Le Causé","nom_a":null,"nom_de":null,"slug_ville":"le-cause","departement_id":0,"code_postal":"82500","population":131,"superficie_km2":"939.69","latitude_centre":"43.802","longitude_centre":"0.9714","dep_code":"82","dep_nom":"Tarn-et-Garonne","dep_slug":"tarn-et-garonne","reg_code":"76","reg_nom":"Occitanie","reg_slug":"occitanie"},"departement":{"code":"82","nom":"Tarn-et-Garonne","slug":"tarn-et-garonne"},"region":{"code":"76","nom":"Occitanie","slug":"occitanie"},"villes_proches":[{"id":0,"code_insee":"82071","nom_standard":"Goas","nom_a":null,"nom_de":null,"slug_ville":"goas","departement_id":0,"code_postal":"82500","population":36,"superficie_km2":"270.64","latitude_centre":"43.8158","longitude_centre":"0.9619","distance_km":1.71},{"id":0,"code_insee":"82106","nom_standard":"Maubec","nom_a":null,"nom_de":null,"slug_ville":"maubec","departement_id":0,"code_postal":"82500","population":160,"superficie_km2":"1282.51","latitude_centre":"43.8091","longitude_centre":"0.9266","distance_km":3.68},{"id":0,"code_insee":"82059","nom_standard":"Faudoas","nom_a":null,"nom_de":null,"slug_ville":"faudoas","departement_id":0,"code_postal":"82500","population":291,"superficie_km2":"1911.26","latitude_centre":"43.8354","longitude_centre":"0.9689","distance_km":3.72},{"id":18757,"code_insee":"31096","nom_standard":"Cabanac-Séguenville","nom_a":null,"nom_de":null,"slug_ville":"cabanac-seguenville","departement_id":0,"code_postal":"31480","population":194,"superficie_km2":"1021.68","latitude_centre":"43.7898","longitude_centre":"1.0209","distance_km":4.2},{"id":18753,"code_insee":"31090","nom_standard":"Brignemont","nom_a":null,"nom_de":null,"slug_ville":"brignemont","departement_id":0,"code_postal":"31480","population":366,"superficie_km2":"2214.49","latitude_centre":"43.7664","longitude_centre":"0.9993","distance_km":4.55},{"id":19492,"code_insee":"32416","nom_standard":"Sarrant","nom_a":null,"nom_de":null,"slug_ville":"sarrant","departement_id":0,"code_postal":"32120","population":358,"superficie_km2":"2009.60","latitude_centre":"43.7698","longitude_centre":"0.9317","distance_km":4.79},{"id":0,"code_insee":"82064","nom_standard":"Gariès","nom_a":null,"nom_de":null,"slug_ville":"garies","departement_id":0,"code_postal":"82500","population":129,"superficie_km2":"1427.89","latitude_centre":"43.8111","longitude_centre":"1.0349","distance_km":5.2},{"id":33622,"code_insee":"82006","nom_standard":"Auterive","nom_a":null,"nom_de":null,"slug_ville":"auterive","departement_id":0,"code_postal":"82500","population":65,"superficie_km2":"368.52","latitude_centre":"43.8555","longitude_centre":"0.968","distance_km":5.96},{"id":0,"code_insee":"82103","nom_standard":"Marignac","nom_a":null,"nom_de":null,"slug_ville":"marignac","departement_id":0,"code_postal":"82500","population":101,"superficie_km2":"507.39","latitude_centre":"43.8411","longitude_centre":"0.9191","distance_km":6.04},{"id":19436,"code_insee":"32357","nom_standard":"Sainte-Anne","nom_a":null,"nom_de":null,"slug_ville":"sainte-anne","departement_id":0,"code_postal":"32430","population":123,"superficie_km2":"684.93","latitude_centre":"43.745","longitude_centre":"0.9714","distance_km":6.34},{"id":0,"code_insee":"82053","nom_standard":"Escazeaux","nom_a":null,"nom_de":null,"slug_ville":"escazeaux","departement_id":0,"code_postal":"82500","population":287,"superficie_km2":"1622.03","latitude_centre":"43.8394","longitude_centre":"1.0326","distance_km":6.43},{"id":19133,"code_insee":"32021","nom_standard":"Avensac","nom_a":null,"nom_de":null,"slug_ville":"avensac","departement_id":0,"code_postal":"32120","population":73,"superficie_km2":"485.49","latitude_centre":"43.83","longitude_centre":"0.9007","distance_km":6.47},{"id":19510,"code_insee":"32436","nom_standard":"Solomiac","nom_a":null,"nom_de":null,"slug_ville":"solomiac","departement_id":0,"code_postal":"32120","population":496,"superficie_km2":"1387.70","latitude_centre":"43.8036","longitude_centre":"0.8867","distance_km":6.8},{"id":18803,"code_insee":"31156","nom_standard":"Cox","nom_a":null,"nom_de":null,"slug_ville":"cox","departement_id":0,"code_postal":"31480","population":364,"superficie_km2":"410.58","latitude_centre":"43.7606","longitude_centre":"1.0419","distance_km":7.3},{"id":0,"code_insee":"82068","nom_standard":"Gimat","nom_a":null,"nom_de":null,"slug_ville":"gimat","departement_id":0,"code_postal":"82500","population":213,"superficie_km2":"1016.47","latitude_centre":"43.8654","longitude_centre":"0.9398","distance_km":7.49},{"id":18881,"code_insee":"31275","nom_standard":"Laréole","nom_a":null,"nom_de":null,"slug_ville":"lareole","departement_id":0,"code_postal":"31480","population":157,"superficie_km2":"895.11","latitude_centre":"43.741","longitude_centre":"1.0206","distance_km":7.85},{"id":19455,"code_insee":"32377","nom_standard":"Saint-Georges","nom_a":null,"nom_de":null,"slug_ville":"saint-georges","departement_id":0,"code_postal":"32430","population":198,"superficie_km2":"1598.26","latitude_centre":"43.7374","longitude_centre":"0.9295","distance_km":7.93},{"id":19122,"code_insee":"32007","nom_standard":"Ardizas","nom_a":null,"nom_de":null,"slug_ville":"ardizas","departement_id":0,"code_postal":"32430","population":217,"superficie_km2":"854.53","latitude_centre":"43.7262","longitude_centre":"0.9977","distance_km":8.69},{"id":19212,"code_insee":"32106","nom_standard":"Cologne","nom_a":null,"nom_de":null,"slug_ville":"cologne","departement_id":0,"code_postal":"32430","population":947,"superficie_km2":"655.91","latitude_centre":"43.7197","longitude_centre":"0.9759","distance_km":9.16},{"id":0,"code_insee":"82013","nom_standard":"Beaumont-de-Lomagne","nom_a":null,"nom_de":null,"slug_ville":"beaumont-de-lomagne","departement_id":0,"code_postal":"82500","population":3824,"superficie_km2":"4646.34","latitude_centre":"43.884","longitude_centre":"1.0145","distance_km":9.75}]}