{"ville":{"id":27216,"code_insee":"61195","nom_standard":"Le Grais","nom_a":null,"nom_de":null,"slug_ville":"le-grais","departement_id":0,"code_postal":"61600","population":208,"superficie_km2":"1226.08","latitude_centre":"48.6446","longitude_centre":"-0.3253","dep_code":"61","dep_nom":"Orne","dep_slug":"orne","reg_code":"28","reg_nom":"Normandie","reg_slug":"normandie"},"departement":{"code":"61","nom":"Orne","slug":"orne"},"region":{"code":"28","nom":"Normandie","slug":"normandie"},"villes_proches":[{"id":0,"code_insee":"61233","nom_standard":"Lonlay-le-Tesson","nom_a":null,"nom_de":null,"slug_ville":"lonlay-le-tesson","departement_id":0,"code_postal":"61600","population":229,"superficie_km2":"1266.01","latitude_centre":"48.6527","longitude_centre":"-0.3506","distance_km":2.07},{"id":27117,"code_insee":"61035","nom_standard":"Beauvain","nom_a":null,"nom_de":null,"slug_ville":"beauvain","departement_id":0,"code_postal":"61600","population":258,"superficie_km2":"1272.36","latitude_centre":"48.6213","longitude_centre":"-0.3178","distance_km":2.65},{"id":0,"code_insee":"61227","nom_standard":"Lignou","nom_a":null,"nom_de":null,"slug_ville":"lignou","departement_id":0,"code_postal":"61220","population":136,"superficie_km2":"767.51","latitude_centre":"48.6756","longitude_centre":"-0.345","distance_km":3.74},{"id":27197,"code_insee":"61158","nom_standard":"Faverolles","nom_a":null,"nom_de":null,"slug_ville":"faverolles","departement_id":0,"code_postal":"61600","population":130,"superficie_km2":"1058.73","latitude_centre":"48.6691","longitude_centre":"-0.2898","distance_km":3.77},{"id":0,"code_insee":"61390","nom_standard":"Saint-Georges-d'Annebecq","nom_a":null,"nom_de":null,"slug_ville":"saint-georges-d-annebecq","departement_id":0,"code_postal":"61600","population":163,"superficie_km2":"940.88","latitude_centre":"48.6271","longitude_centre":"-0.2657","distance_km":4.79},{"id":0,"code_insee":"61260","nom_standard":"Le Ménil-de-Briouze","nom_a":null,"nom_de":null,"slug_ville":"le-menil-de-briouze","departement_id":0,"code_postal":"61220","population":541,"superficie_km2":"2151.22","latitude_centre":"48.6645","longitude_centre":"-0.3974","distance_km":5.74},{"id":0,"code_insee":"61290","nom_standard":"Montreuil-au-Houlme","nom_a":null,"nom_de":null,"slug_ville":"montreuil-au-houlme","departement_id":0,"code_postal":"61210","population":125,"superficie_km2":"781.74","latitude_centre":"48.6813","longitude_centre":"-0.266","distance_km":5.97},{"id":0,"code_insee":"61332","nom_standard":"Pointel","nom_a":null,"nom_de":null,"slug_ville":"pointel","departement_id":0,"code_postal":"61220","population":301,"superficie_km2":"759.75","latitude_centre":"48.697","longitude_centre":"-0.35","distance_km":6.1},{"id":27167,"code_insee":"61104","nom_standard":"La Chaux","nom_a":null,"nom_de":null,"slug_ville":"la-chaux","departement_id":0,"code_postal":"61600","population":53,"superficie_km2":"510.41","latitude_centre":"48.6007","longitude_centre":"-0.2668","distance_km":6.51},{"id":0,"code_insee":"61402","nom_standard":"Saint-Hilaire-de-Briouze","nom_a":null,"nom_de":null,"slug_ville":"saint-hilaire-de-briouze","departement_id":0,"code_postal":"61220","population":292,"superficie_km2":"1376.27","latitude_centre":"48.7059","longitude_centre":"-0.3051","distance_km":6.98},{"id":0,"code_insee":"61344","nom_standard":"Rânes","nom_a":null,"nom_de":null,"slug_ville":"ranes","departement_id":0,"code_postal":"61150","population":1036,"superficie_km2":"3428.11","latitude_centre":"48.6424","longitude_centre":"-0.2196","distance_km":7.77},{"id":0,"code_insee":"61463","nom_standard":"Les Monts d'Andaine","nom_a":null,"nom_de":null,"slug_ville":"les-monts-d-andaine","departement_id":0,"code_postal":"61600","population":1684,"superficie_km2":"3754.99","latitude_centre":"48.6129","longitude_centre":"-0.4259","distance_km":8.19},{"id":0,"code_insee":"61063","nom_standard":"Briouze","nom_a":null,"nom_de":null,"slug_ville":"briouze","departement_id":0,"code_postal":"61220","population":1512,"superficie_km2":"1723.34","latitude_centre":"48.7084","longitude_centre":"-0.3852","distance_km":8.35},{"id":0,"code_insee":"61512","nom_standard":"Les Yveteaux","nom_a":null,"nom_de":null,"slug_ville":"les-yveteaux","departement_id":0,"code_postal":"61210","population":101,"superficie_km2":"580.70","latitude_centre":"48.7107","longitude_centre":"-0.271","distance_km":8.36},{"id":0,"code_insee":"61217","nom_standard":"La Lande-de-Lougé","nom_a":null,"nom_de":null,"slug_ville":"la-lande-de-louge","departement_id":0,"code_postal":"61210","population":57,"superficie_km2":"497.56","latitude_centre":"48.7021","longitude_centre":"-0.2499","distance_km":8.46},{"id":0,"code_insee":"61243","nom_standard":"Magny-le-Désert","nom_a":null,"nom_de":null,"slug_ville":"magny-le-desert","departement_id":0,"code_postal":"61600","population":1391,"superficie_km2":"3380.83","latitude_centre":"48.5685","longitude_centre":"-0.3217","distance_km":8.47},{"id":0,"code_insee":"61168","nom_standard":"La Ferté Macé","nom_a":null,"nom_de":null,"slug_ville":"la-ferte-mace","departement_id":0,"code_postal":"61410","population":5071,"superficie_km2":"3216.47","latitude_centre":"48.5688","longitude_centre":"-0.3592","distance_km":8.79},{"id":0,"code_insee":"61209","nom_standard":"Joué-du-Bois","nom_a":null,"nom_de":null,"slug_ville":"joue-du-bois","departement_id":0,"code_postal":"61320","population":382,"superficie_km2":"2129.73","latitude_centre":"48.5854","longitude_centre":"-0.2356","distance_km":9.32},{"id":0,"code_insee":"61295","nom_standard":"La Motte-Fouquet","nom_a":null,"nom_de":null,"slug_ville":"la-motte-fouquet","departement_id":0,"code_postal":"61600","population":156,"superficie_km2":"947.68","latitude_centre":"48.5671","longitude_centre":"-0.2695","distance_km":9.54},{"id":0,"code_insee":"61361","nom_standard":"Saint-André-de-Briouze","nom_a":null,"nom_de":null,"slug_ville":"saint-andre-de-briouze","departement_id":0,"code_postal":"61220","population":178,"superficie_km2":"1223.29","latitude_centre":"48.7327","longitude_centre":"-0.3243","distance_km":9.8}]}