{"ville":{"id":29559,"code_insee":"67210","nom_standard":"Le Hohwald","nom_a":null,"nom_de":null,"slug_ville":"le-hohwald","departement_id":0,"code_postal":"67140","population":521,"superficie_km2":"2088.47","latitude_centre":"48.4003","longitude_centre":"7.3092","dep_code":"67","dep_nom":"Bas-Rhin","dep_slug":"bas-rhin","reg_code":"44","reg_nom":"Grand Est","reg_slug":"grand-est"},"departement":{"code":"67","nom":"Bas-Rhin","slug":"bas-rhin"},"region":{"code":"44","nom":"Grand Est","slug":"grand-est"},"villes_proches":[{"id":29476,"code_insee":"67063","nom_standard":"Breitenbach","nom_a":null,"nom_de":null,"slug_ville":"breitenbach","departement_id":0,"code_postal":"67220","population":686,"superficie_km2":"1283.29","latitude_centre":"48.3736","longitude_centre":"7.2895","distance_km":3.31},{"id":29453,"code_insee":"67027","nom_standard":"Belmont","nom_a":null,"nom_de":null,"slug_ville":"belmont","departement_id":0,"code_postal":"67130","population":169,"superficie_km2":"1013.59","latitude_centre":"48.4093","longitude_centre":"7.2592","distance_km":3.82},{"id":29439,"code_insee":"67003","nom_standard":"Albé","nom_a":null,"nom_de":null,"slug_ville":"albe","departement_id":0,"code_postal":"67220","population":473,"superficie_km2":"1149.12","latitude_centre":"48.3635","longitude_centre":"7.3409","distance_km":4.71},{"id":0,"code_insee":"67321","nom_standard":"Neuviller-la-Roche","nom_a":null,"nom_de":null,"slug_ville":"neuviller-la-roche","departement_id":0,"code_postal":"67130","population":333,"superficie_km2":"919.08","latitude_centre":"48.4324","longitude_centre":"7.2605","distance_km":5.07},{"id":29452,"code_insee":"67026","nom_standard":"Bellefosse","nom_a":null,"nom_de":null,"slug_ville":"bellefosse","departement_id":0,"code_postal":"67130","population":170,"superficie_km2":"749.10","latitude_centre":"48.3964","longitude_centre":"7.2367","distance_km":5.37},{"id":0,"code_insee":"67010","nom_standard":"Andlau","nom_a":null,"nom_de":null,"slug_ville":"andlau","departement_id":0,"code_postal":"67140","population":1757,"superficie_km2":"2402.00","latitude_centre":"48.3935","longitude_centre":"7.3871","distance_km":5.8},{"id":0,"code_insee":"67426","nom_standard":"Saint-Martin","nom_a":null,"nom_de":null,"slug_ville":"saint-martin","departement_id":0,"code_postal":"67220","population":374,"superficie_km2":"415.90","latitude_centre":"48.3506","longitude_centre":"7.2846","distance_km":5.82},{"id":0,"code_insee":"67507","nom_standard":"Villé","nom_a":null,"nom_de":null,"slug_ville":"ville","departement_id":0,"code_postal":"67220","population":1799,"superficie_km2":"304.14","latitude_centre":"48.344","longitude_centre":"7.3038","distance_km":6.27},{"id":0,"code_insee":"67280","nom_standard":"Maisonsgoutte","nom_a":null,"nom_de":null,"slug_ville":"maisonsgoutte","departement_id":0,"code_postal":"67220","population":790,"superficie_km2":"510.60","latitude_centre":"48.3553","longitude_centre":"7.255","distance_km":6.41},{"id":0,"code_insee":"67368","nom_standard":"Ottrott","nom_a":null,"nom_de":null,"slug_ville":"ottrott","departement_id":0,"code_postal":"67530","population":1620,"superficie_km2":"2932.86","latitude_centre":"48.4452","longitude_centre":"7.3643","distance_km":6.44},{"id":0,"code_insee":"67493","nom_standard":"Triembach-au-Val","nom_a":null,"nom_de":null,"slug_ville":"triembach-au-val","departement_id":0,"code_postal":"67220","population":421,"superficie_km2":"299.45","latitude_centre":"48.3419","longitude_centre":"7.3363","distance_km":6.8},{"id":0,"code_insee":"67314","nom_standard":"Natzwiller","nom_a":null,"nom_de":null,"slug_ville":"natzwiller","departement_id":0,"code_postal":"67130","population":521,"superficie_km2":"742.04","latitude_centre":"48.4468","longitude_centre":"7.249","distance_km":6.82},{"id":0,"code_insee":"67387","nom_standard":"Reichsfeld","nom_a":null,"nom_de":null,"slug_ville":"reichsfeld","departement_id":0,"code_postal":"67140","population":284,"superficie_km2":"503.88","latitude_centre":"48.3601","longitude_centre":"7.3796","distance_km":6.86},{"id":0,"code_insee":"67477","nom_standard":"Steige","nom_a":null,"nom_de":null,"slug_ville":"steige","departement_id":0,"code_postal":"67220","population":623,"superficie_km2":"1031.55","latitude_centre":"48.365","longitude_centre":"7.2268","distance_km":7.24},{"id":29450,"code_insee":"67022","nom_standard":"Bassemberg","nom_a":null,"nom_de":null,"slug_ville":"bassemberg","departement_id":0,"code_postal":"67220","population":222,"superficie_km2":"189.23","latitude_centre":"48.3352","longitude_centre":"7.2781","distance_km":7.59},{"id":0,"code_insee":"67427","nom_standard":"Saint-Maurice","nom_a":null,"nom_de":null,"slug_ville":"saint-maurice","departement_id":0,"code_postal":"67220","population":332,"superficie_km2":"157.95","latitude_centre":"48.3322","longitude_centre":"7.3344","distance_km":7.8},{"id":0,"code_insee":"67320","nom_standard":"Neuve-Église","nom_a":null,"nom_de":null,"slug_ville":"neuve-eglise","departement_id":0,"code_postal":"67220","population":613,"superficie_km2":"576.33","latitude_centre":"48.3238","longitude_centre":"7.3093","distance_km":8.51},{"id":0,"code_insee":"67167","nom_standard":"Grendelbruch","nom_a":null,"nom_de":null,"slug_ville":"grendelbruch","departement_id":0,"code_postal":"67190","population":1195,"superficie_km2":"1498.53","latitude_centre":"48.4779","longitude_centre":"7.3035","distance_km":8.64},{"id":0,"code_insee":"67490","nom_standard":"Thanvillé","nom_a":null,"nom_de":null,"slug_ville":"thanville","departement_id":0,"code_postal":"67220","population":623,"superficie_km2":"205.64","latitude_centre":"48.3231","longitude_centre":"7.3484","distance_km":9.06},{"id":29495,"code_insee":"67092","nom_standard":"Dieffenbach-au-Val","nom_a":null,"nom_de":null,"slug_ville":"dieffenbach-au-val","departement_id":0,"code_postal":"67220","population":642,"superficie_km2":"311.74","latitude_centre":"48.3138","longitude_centre":"7.3275","distance_km":9.71}]}