{"ville":{"id":13994,"code_insee":"15131","nom_standard":"Le Monteil","nom_a":null,"nom_de":null,"slug_ville":"le-monteil","departement_id":0,"code_postal":"15240","population":261,"superficie_km2":"2336.09","latitude_centre":"45.2997","longitude_centre":"2.5092","dep_code":"15","dep_nom":"Cantal","dep_slug":"cantal","reg_code":"84","reg_nom":"Auvergne-Rhône-Alpes","reg_slug":"auvergne-rhone-alpes"},"departement":{"code":"15","nom":"Cantal","slug":"cantal"},"region":{"code":"84","nom":"Auvergne-Rhône-Alpes","slug":"auvergne-rhone-alpes"},"villes_proches":[{"id":13991,"code_insee":"15128","nom_standard":"La Monselie","nom_a":null,"nom_de":null,"slug_ville":"la-monselie","departement_id":0,"code_postal":"15240","population":112,"superficie_km2":"881.54","latitude_centre":"45.3203","longitude_centre":"2.554","distance_km":4.19},{"id":0,"code_insee":"15169","nom_standard":"Saignes","nom_a":null,"nom_de":null,"slug_ville":"saignes","departement_id":0,"code_postal":"15240","population":835,"superficie_km2":"689.76","latitude_centre":"45.3333","longitude_centre":"2.482","distance_km":4.3},{"id":13894,"code_insee":"15015","nom_standard":"Auzers","nom_a":null,"nom_de":null,"slug_ville":"auzers","departement_id":0,"code_postal":"15240","population":159,"superficie_km2":"1976.76","latitude_centre":"45.2732","longitude_centre":"2.4681","distance_km":4.36},{"id":13987,"code_insee":"15124","nom_standard":"Menet","nom_a":null,"nom_de":null,"slug_ville":"menet","departement_id":0,"code_postal":"15400","population":521,"superficie_km2":"2745.11","latitude_centre":"45.296","longitude_centre":"2.5781","distance_km":5.4},{"id":0,"code_insee":"15223","nom_standard":"Sauvat","nom_a":null,"nom_de":null,"slug_ville":"sauvat","departement_id":0,"code_postal":"15240","population":219,"superficie_km2":"1452.58","latitude_centre":"45.3068","longitude_centre":"2.4394","distance_km":5.52},{"id":0,"code_insee":"15250","nom_standard":"Vebret","nom_a":null,"nom_de":null,"slug_ville":"vebret","departement_id":0,"code_postal":"15240","population":516,"superficie_km2":"2460.84","latitude_centre":"45.351","longitude_centre":"2.5175","distance_km":5.74},{"id":0,"code_insee":"15243","nom_standard":"Trizac","nom_a":null,"nom_de":null,"slug_ville":"trizac","departement_id":0,"code_postal":"15400","population":446,"superficie_km2":"4531.17","latitude_centre":"45.2441","longitude_centre":"2.5389","distance_km":6.6},{"id":0,"code_insee":"15265","nom_standard":"Ydes","nom_a":null,"nom_de":null,"slug_ville":"ydes","departement_id":0,"code_postal":"15210","population":1641,"superficie_km2":"1771.73","latitude_centre":"45.3458","longitude_centre":"2.4521","distance_km":6.8},{"id":0,"code_insee":"15137","nom_standard":"Moussages","nom_a":null,"nom_de":null,"slug_ville":"moussages","departement_id":0,"code_postal":"15380","population":247,"superficie_km2":"1947.34","latitude_centre":"45.2389","longitude_centre":"2.4741","distance_km":7.3},{"id":13889,"code_insee":"15008","nom_standard":"Antignac","nom_a":null,"nom_de":null,"slug_ville":"antignac","departement_id":0,"code_postal":"15240","population":284,"superficie_km2":"1607.46","latitude_centre":"45.3545","longitude_centre":"2.5608","distance_km":7.31},{"id":0,"code_insee":"15246","nom_standard":"Valette","nom_a":null,"nom_de":null,"slug_ville":"valette","departement_id":0,"code_postal":"15400","population":236,"superficie_km2":"1508.48","latitude_centre":"45.2648","longitude_centre":"2.5996","distance_km":8.07},{"id":13898,"code_insee":"15019","nom_standard":"Bassignac","nom_a":null,"nom_de":null,"slug_ville":"bassignac","departement_id":0,"code_postal":"15240","population":223,"superficie_km2":"1198.41","latitude_centre":"45.3116","longitude_centre":"2.4044","distance_km":8.3},{"id":13986,"code_insee":"15123","nom_standard":"Méallet","nom_a":null,"nom_de":null,"slug_ville":"meallet","departement_id":0,"code_postal":"15200","population":153,"superficie_km2":"2191.73","latitude_centre":"45.2623","longitude_centre":"2.4172","distance_km":8.31},{"id":13978,"code_insee":"15111","nom_standard":"Madic","nom_a":null,"nom_de":null,"slug_ville":"madic","departement_id":0,"code_postal":"15210","population":202,"superficie_km2":"673.06","latitude_centre":"45.3726","longitude_centre":"2.4593","distance_km":9.0},{"id":0,"code_insee":"15185","nom_standard":"Saint-Étienne-de-Chomeil","nom_a":null,"nom_de":null,"slug_ville":"saint-etienne-de-chomeil","departement_id":0,"code_postal":"15400","population":241,"superficie_km2":"2759.16","latitude_centre":"45.3438","longitude_centre":"2.6198","distance_km":9.94},{"id":0,"code_insee":"19028","nom_standard":"Bort-les-Orgues","nom_a":null,"nom_de":null,"slug_ville":"bort-les-orgues","departement_id":0,"code_postal":"19110","population":2483,"superficie_km2":"1484.90","latitude_centre":"45.3939","longitude_centre":"2.4849","distance_km":10.65},{"id":0,"code_insee":"15218","nom_standard":"Saint-Vincent-de-Salers","nom_a":null,"nom_de":null,"slug_ville":"saint-vincent-de-salers","departement_id":0,"code_postal":"15380","population":70,"superficie_km2":"1887.55","latitude_centre":"45.2052","longitude_centre":"2.5372","distance_km":10.73},{"id":13887,"code_insee":"15006","nom_standard":"Anglards-de-Salers","nom_a":null,"nom_de":null,"slug_ville":"anglards-de-salers","departement_id":0,"code_postal":"15380","population":727,"superficie_km2":"4810.70","latitude_centre":"45.199","longitude_centre":"2.4854","distance_km":11.35},{"id":0,"code_insee":"15037","nom_standard":"Champagnac","nom_a":null,"nom_de":null,"slug_ville":"champagnac","departement_id":0,"code_postal":"15350","population":1020,"superficie_km2":"2756.67","latitude_centre":"45.3673","longitude_centre":"2.4001","distance_km":11.37},{"id":0,"code_insee":"15249","nom_standard":"Le Vaulmier","nom_a":null,"nom_de":null,"slug_ville":"le-vaulmier","departement_id":0,"code_postal":"15380","population":60,"superficie_km2":"1741.89","latitude_centre":"45.1838","longitude_centre":"2.583","distance_km":14.12}]}