{"ville":{"id":23134,"code_insee":"50300","nom_standard":"Le Mesnil-Adelée","nom_a":null,"nom_de":null,"slug_ville":"le-mesnil-adelee","departement_id":0,"code_postal":"50520","population":157,"superficie_km2":"687.62","latitude_centre":"48.6992","longitude_centre":"-1.0651","dep_code":"50","dep_nom":"Manche","dep_slug":"manche","reg_code":"28","reg_nom":"Normandie","reg_slug":"normandie"},"departement":{"code":"50","nom":"Manche","slug":"manche"},"region":{"code":"28","nom":"Normandie","slug":"normandie"},"villes_proches":[{"id":0,"code_insee":"50312","nom_standard":"Le Mesnil-Gilbert","nom_a":null,"nom_de":null,"slug_ville":"le-mesnil-gilbert","departement_id":0,"code_postal":"50670","population":146,"superficie_km2":"794.71","latitude_centre":"48.7221","longitude_centre":"-1.0599","distance_km":2.57},{"id":23051,"code_insee":"50152","nom_standard":"Les Cresnays","nom_a":null,"nom_de":null,"slug_ville":"les-cresnays","departement_id":0,"code_postal":"50370","population":227,"superficie_km2":"1001.34","latitude_centre":"48.7102","longitude_centre":"-1.1132","distance_km":3.74},{"id":0,"code_insee":"50260","nom_standard":"Juvigny les Vallées","nom_a":null,"nom_de":null,"slug_ville":"juvigny-les-vallees","departement_id":0,"code_postal":"50520","population":1674,"superficie_km2":"5796.09","latitude_centre":"48.679","longitude_centre":"-1.0161","distance_km":4.24},{"id":0,"code_insee":"50428","nom_standard":"Reffuveille","nom_a":null,"nom_de":null,"slug_ville":"reffuveille","departement_id":0,"code_postal":"50520","population":550,"superficie_km2":"2378.97","latitude_centre":"48.6771","longitude_centre":"-1.1126","distance_km":4.27},{"id":23054,"code_insee":"50158","nom_standard":"Cuves","nom_a":null,"nom_de":null,"slug_ville":"cuves","departement_id":0,"code_postal":"50670","population":256,"superficie_km2":"979.64","latitude_centre":"48.7302","longitude_centre":"-1.1028","distance_km":4.42},{"id":23117,"code_insee":"50271","nom_standard":"Lingeard","nom_a":null,"nom_de":null,"slug_ville":"lingeard","departement_id":0,"code_postal":"50670","population":80,"superficie_km2":"364.65","latitude_centre":"48.7388","longitude_centre":"-1.0255","distance_km":5.28},{"id":0,"code_insee":"50542","nom_standard":"Saint-Pois","nom_a":null,"nom_de":null,"slug_ville":"saint-pois","departement_id":0,"code_postal":"50670","population":454,"superficie_km2":"774.56","latitude_centre":"48.753","longitude_centre":"-1.0568","distance_km":6.01},{"id":0,"code_insee":"50499","nom_standard":"Saint-Laurent-de-Cuves","nom_a":null,"nom_de":null,"slug_ville":"saint-laurent-de-cuves","departement_id":0,"code_postal":"50670","population":496,"superficie_km2":"1479.46","latitude_centre":"48.7455","longitude_centre":"-1.1094","distance_km":6.09},{"id":0,"code_insee":"50397","nom_standard":"Perriers-en-Beauficel","nom_a":null,"nom_de":null,"slug_ville":"perriers-en-beauficel","departement_id":0,"code_postal":"50150","population":207,"superficie_km2":"929.39","latitude_centre":"48.7344","longitude_centre":"-0.9989","distance_km":6.24},{"id":23038,"code_insee":"50124","nom_standard":"La Chapelle-Urée","nom_a":null,"nom_de":null,"slug_ville":"la-chapelle-uree","departement_id":0,"code_postal":"50370","population":172,"superficie_km2":"463.53","latitude_centre":"48.6634","longitude_centre":"-1.1495","distance_km":7.36},{"id":0,"code_insee":"50315","nom_standard":"Le Mesnillard","nom_a":null,"nom_de":null,"slug_ville":"le-mesnillard","departement_id":0,"code_postal":"50600","population":257,"superficie_km2":"983.89","latitude_centre":"48.632","longitude_centre":"-1.0801","distance_km":7.55},{"id":23019,"code_insee":"50088","nom_standard":"Brouains","nom_a":null,"nom_de":null,"slug_ville":"brouains","departement_id":0,"code_postal":"50150","population":140,"superficie_km2":"382.77","latitude_centre":"48.7226","longitude_centre":"-0.9668","distance_km":7.67},{"id":0,"code_insee":"50525","nom_standard":"Saint-Michel-de-Montjoie","nom_a":null,"nom_de":null,"slug_ville":"saint-michel-de-montjoie","departement_id":0,"code_postal":"50670","population":342,"superficie_km2":"1445.11","latitude_centre":"48.7647","longitude_centre":"-1.0237","distance_km":7.89},{"id":23085,"code_insee":"50217","nom_standard":"Le Grand-Celland","nom_a":null,"nom_de":null,"slug_ville":"le-grand-celland","departement_id":0,"code_postal":"50370","population":592,"superficie_km2":"1272.47","latitude_centre":"48.6888","longitude_centre":"-1.1778","distance_km":8.35},{"id":0,"code_insee":"50074","nom_standard":"Brécey","nom_a":null,"nom_de":null,"slug_ville":"brecey","departement_id":0,"code_postal":"50370","population":2172,"superficie_km2":"2131.91","latitude_centre":"48.727","longitude_centre":"-1.1761","distance_km":8.71},{"id":22995,"code_insee":"50040","nom_standard":"Beauficel","nom_a":null,"nom_de":null,"slug_ville":"beauficel","departement_id":0,"code_postal":"50150","population":122,"superficie_km2":"914.77","latitude_centre":"48.7416","longitude_centre":"-0.9616","distance_km":8.94},{"id":0,"code_insee":"50436","nom_standard":"Romagny Fontenay","nom_a":null,"nom_de":null,"slug_ville":"romagny-fontenay","departement_id":0,"code_postal":"50140","population":1243,"superficie_km2":"3628.52","latitude_centre":"48.6317","longitude_centre":"-0.9934","distance_km":9.17},{"id":23118,"code_insee":"50275","nom_standard":"Les Loges-sur-Brécey","nom_a":null,"nom_de":null,"slug_ville":"les-loges-sur-brecey","departement_id":0,"code_postal":"50370","population":115,"superficie_km2":"536.91","latitude_centre":"48.754","longitude_centre":"-1.1623","distance_km":9.38},{"id":23046,"code_insee":"50144","nom_standard":"Coulouvray-Boisbenâtre","nom_a":null,"nom_de":null,"slug_ville":"coulouvray-boisbenatre","departement_id":0,"code_postal":"50670","population":531,"superficie_km2":"1737.33","latitude_centre":"48.786","longitude_centre":"-1.0997","distance_km":9.98},{"id":0,"code_insee":"50391","nom_standard":"Grandparigny","nom_a":null,"nom_de":null,"slug_ville":"grandparigny","departement_id":0,"code_postal":"50600","population":2605,"superficie_km2":"3501.00","latitude_centre":"48.6071","longitude_centre":"-1.0655","distance_km":10.24}]}