{"ville":{"id":10074,"code_insee":"01209","nom_standard":"Léaz","nom_a":null,"nom_de":null,"slug_ville":"leaz","departement_id":0,"code_postal":"01200","population":912,"superficie_km2":"1142.31","latitude_centre":"46.1114","longitude_centre":"5.8768","dep_code":"01","dep_nom":"Ain","dep_slug":"ain","reg_code":"84","reg_nom":"Auvergne-Rhône-Alpes","reg_slug":"auvergne-rhone-alpes"},"departement":{"code":"01","nom":"Ain","slug":"ain"},"region":{"code":"84","nom":"Auvergne-Rhône-Alpes","slug":"auvergne-rhone-alpes"},"villes_proches":[{"id":0,"code_insee":"74074","nom_standard":"Chevrier","nom_a":null,"nom_de":null,"slug_ville":"chevrier","departement_id":0,"code_postal":"74520","population":757,"superficie_km2":"537.91","latitude_centre":"46.1094","longitude_centre":"5.911","distance_km":2.65},{"id":0,"code_insee":"74077","nom_standard":"Clarafond-Arcine","nom_a":null,"nom_de":null,"slug_ville":"clarafond-arcine","departement_id":0,"code_postal":"74270","population":1068,"superficie_km2":"1683.80","latitude_centre":"46.0834","longitude_centre":"5.8948","distance_km":3.41},{"id":0,"code_insee":"01109","nom_standard":"Collonges","nom_a":null,"nom_de":null,"slug_ville":"collonges","departement_id":0,"code_postal":"01550","population":2398,"superficie_km2":"1633.03","latitude_centre":"46.1397","longitude_centre":"5.9007","distance_km":3.65},{"id":0,"code_insee":"74109","nom_standard":"Éloise","nom_a":null,"nom_de":null,"slug_ville":"eloise","departement_id":0,"code_postal":"01200","population":931,"superficie_km2":"892.39","latitude_centre":"46.0853","longitude_centre":"5.8474","distance_km":3.68},{"id":0,"code_insee":"74314","nom_standard":"Vulbens","nom_a":null,"nom_de":null,"slug_ville":"vulbens","departement_id":0,"code_postal":"74520","population":1783,"superficie_km2":"1239.75","latitude_centre":"46.1083","longitude_centre":"5.9339","distance_km":4.42},{"id":10033,"code_insee":"01114","nom_standard":"Confort","nom_a":null,"nom_de":null,"slug_ville":"confort","departement_id":0,"code_postal":"01200","population":668,"superficie_km2":"1129.47","latitude_centre":"46.1536","longitude_centre":"5.8358","distance_km":5.66},{"id":0,"code_insee":"74235","nom_standard":"Saint-Germain-sur-Rhône","nom_a":null,"nom_de":null,"slug_ville":"saint-germain-sur-rhone","departement_id":0,"code_postal":"74910","population":646,"superficie_km2":"786.23","latitude_centre":"46.0721","longitude_centre":"5.8294","distance_km":5.7},{"id":0,"code_insee":"74101","nom_standard":"Dingy-en-Vuache","nom_a":null,"nom_de":null,"slug_ville":"dingy-en-vuache","departement_id":0,"code_postal":"74520","population":819,"superficie_km2":"718.05","latitude_centre":"46.0873","longitude_centre":"5.9493","distance_km":6.2},{"id":0,"code_insee":"01158","nom_standard":"Farges","nom_a":null,"nom_de":null,"slug_ville":"farges","departement_id":0,"code_postal":"01550","population":1082,"superficie_km2":"1419.80","latitude_centre":"46.1657","longitude_centre":"5.9054","distance_km":6.43},{"id":0,"code_insee":"01033","nom_standard":"Valserhône","nom_a":null,"nom_de":null,"slug_ville":"valserhone","departement_id":0,"code_postal":"01200","population":16712,"superficie_km2":"6286.07","latitude_centre":"46.1234","longitude_centre":"5.7944","distance_km":6.49},{"id":0,"code_insee":"01308","nom_standard":"Pougny","nom_a":null,"nom_de":null,"slug_ville":"pougny","departement_id":0,"code_postal":"01550","population":871,"superficie_km2":"757.23","latitude_centre":"46.1457","longitude_centre":"5.9492","distance_km":6.76},{"id":0,"code_insee":"74068","nom_standard":"Chêne-en-Semine","nom_a":null,"nom_de":null,"slug_ville":"chene-en-semine","departement_id":0,"code_postal":"74270","population":544,"superficie_km2":"944.60","latitude_centre":"46.0501","longitude_centre":"5.8568","distance_km":6.99},{"id":0,"code_insee":"74288","nom_standard":"Valleiry","nom_a":null,"nom_de":null,"slug_ville":"valleiry","departement_id":0,"code_postal":"74520","population":5264,"superficie_km2":"695.83","latitude_centre":"46.1153","longitude_centre":"5.9706","distance_km":7.24},{"id":0,"code_insee":"74260","nom_standard":"Savigny","nom_a":null,"nom_de":null,"slug_ville":"savigny","departement_id":0,"code_postal":"74520","population":1041,"superficie_km2":"1037.64","latitude_centre":"46.068","longitude_centre":"5.9487","distance_km":7.35},{"id":0,"code_insee":"74071","nom_standard":"Chessenaz","nom_a":null,"nom_de":null,"slug_ville":"chessenaz","departement_id":0,"code_postal":"74270","population":239,"superficie_km2":"523.04","latitude_centre":"46.0399","longitude_centre":"5.9068","distance_km":8.28},{"id":0,"code_insee":"74130","nom_standard":"Franclens","nom_a":null,"nom_de":null,"slug_ville":"franclens","departement_id":0,"code_postal":"74910","population":541,"superficie_km2":"534.58","latitude_centre":"46.0441","longitude_centre":"5.8271","distance_km":8.41},{"id":0,"code_insee":"74291","nom_standard":"Vanzy","nom_a":null,"nom_de":null,"slug_ville":"vanzy","departement_id":0,"code_postal":"74270","population":351,"superficie_km2":"559.90","latitude_centre":"46.0342","longitude_centre":"5.8726","distance_km":8.59},{"id":0,"code_insee":"74065","nom_standard":"Chaumont","nom_a":null,"nom_de":null,"slug_ville":"chaumont","departement_id":0,"code_postal":"74270","population":555,"superficie_km2":"1226.35","latitude_centre":"46.0477","longitude_centre":"5.9445","distance_km":8.8},{"id":0,"code_insee":"01288","nom_standard":"Péron","nom_a":null,"nom_de":null,"slug_ville":"peron","departement_id":0,"code_postal":"01630","population":2916,"superficie_km2":"2598.92","latitude_centre":"46.1933","longitude_centre":"5.9141","distance_km":9.55},{"id":0,"code_insee":"74131","nom_standard":"Frangy","nom_a":null,"nom_de":null,"slug_ville":"frangy","departement_id":0,"code_postal":"74270","population":2262,"superficie_km2":"967.01","latitude_centre":"46.0231","longitude_centre":"5.9224","distance_km":10.43}]}