{"ville":{"id":35078,"code_insee":"90063","nom_standard":"Lebetain","nom_a":null,"nom_de":null,"slug_ville":"lebetain","departement_id":0,"code_postal":"90100","population":422,"superficie_km2":"491.50","latitude_centre":"47.4855","longitude_centre":"6.9705","dep_code":"90","dep_nom":"Territoire de Belfort","dep_slug":"territoire-de-belfort","reg_code":"27","reg_nom":"Bourgogne-Franche-Comté","reg_slug":"bourgogne-franche-comte"},"departement":{"code":"90","nom":"Territoire de Belfort","slug":"territoire-de-belfort"},"region":{"code":"27","nom":"Bourgogne-Franche-Comté","slug":"bourgogne-franche-comte"},"villes_proches":[{"id":0,"code_insee":"90090","nom_standard":"Saint-Dizier-l'Évêque","nom_a":null,"nom_de":null,"slug_ville":"saint-dizier-l-eveque","departement_id":0,"code_postal":"90100","population":427,"superficie_km2":"1091.31","latitude_centre":"47.4683","longitude_centre":"6.9642","distance_km":1.97},{"id":35063,"code_insee":"90045","nom_standard":"Fêche-l'Église","nom_a":null,"nom_de":null,"slug_ville":"feche-l-eglise","departement_id":0,"code_postal":"90100","population":702,"superficie_km2":"395.94","latitude_centre":"47.5008","longitude_centre":"6.9573","distance_km":1.97},{"id":16656,"code_insee":"25040","nom_standard":"Badevel","nom_a":null,"nom_de":null,"slug_ville":"badevel","departement_id":0,"code_postal":"25490","population":808,"superficie_km2":"374.08","latitude_centre":"47.5015","longitude_centre":"6.9362","distance_km":3.13},{"id":0,"code_insee":"90033","nom_standard":"Delle","nom_a":null,"nom_de":null,"slug_ville":"delle","departement_id":0,"code_postal":"90100","population":5623,"superficie_km2":"929.79","latitude_centre":"47.509","longitude_centre":"6.996","distance_km":3.24},{"id":0,"code_insee":"90105","nom_standard":"Villars-le-Sec","nom_a":null,"nom_de":null,"slug_ville":"villars-le-sec","departement_id":0,"code_postal":"90100","population":176,"superficie_km2":"298.28","latitude_centre":"47.4572","longitude_centre":"6.9862","distance_km":3.36},{"id":0,"code_insee":"90009","nom_standard":"Beaucourt","nom_a":null,"nom_de":null,"slug_ville":"beaucourt","departement_id":0,"code_postal":"90500","population":4966,"superficie_km2":"491.14","latitude_centre":"47.4868","longitude_centre":"6.9251","distance_km":3.41},{"id":0,"code_insee":"90070","nom_standard":"Montbouton","nom_a":null,"nom_de":null,"slug_ville":"montbouton","departement_id":0,"code_postal":"90500","population":422,"superficie_km2":"283.59","latitude_centre":"47.467","longitude_centre":"6.9235","distance_km":4.09},{"id":0,"code_insee":"90096","nom_standard":"Thiancourt","nom_a":null,"nom_de":null,"slug_ville":"thiancourt","departement_id":0,"code_postal":"90100","population":286,"superficie_km2":"273.73","latitude_centre":"47.5222","longitude_centre":"6.9783","distance_km":4.12},{"id":0,"code_insee":"25190","nom_standard":"Dampierre-les-Bois","nom_a":null,"nom_de":null,"slug_ville":"dampierre-les-bois","departement_id":0,"code_postal":"25490","population":1615,"superficie_km2":"476.75","latitude_centre":"47.5073","longitude_centre":"6.9181","distance_km":4.62},{"id":35055,"code_insee":"90030","nom_standard":"Croix","nom_a":null,"nom_de":null,"slug_ville":"croix","departement_id":0,"code_postal":"90100","population":180,"superficie_km2":"550.35","latitude_centre":"47.4447","longitude_centre":"6.9518","distance_km":4.75},{"id":17051,"code_insee":"25586","nom_standard":"Vandoncourt","nom_a":null,"nom_de":null,"slug_ville":"vandoncourt","departement_id":0,"code_postal":"25230","population":788,"superficie_km2":"863.28","latitude_centre":"47.4597","longitude_centre":"6.9076","distance_km":5.53},{"id":0,"code_insee":"25196","nom_standard":"Dasle","nom_a":null,"nom_de":null,"slug_ville":"dasle","departement_id":0,"code_postal":"25230","population":1363,"superficie_km2":"561.40","latitude_centre":"47.4822","longitude_centre":"6.897","distance_km":5.54},{"id":0,"code_insee":"90053","nom_standard":"Grandvillars","nom_a":null,"nom_de":null,"slug_ville":"grandvillars","departement_id":0,"code_postal":"90600","population":2947,"superficie_km2":"1527.85","latitude_centre":"47.5378","longitude_centre":"6.9754","distance_km":5.83},{"id":0,"code_insee":"90056","nom_standard":"Joncherey","nom_a":null,"nom_de":null,"slug_ville":"joncherey","departement_id":0,"code_postal":"90100","population":1451,"superficie_km2":"532.18","latitude_centre":"47.5322","longitude_centre":"7.008","distance_km":5.91},{"id":0,"code_insee":"90069","nom_standard":"Méziré","nom_a":null,"nom_de":null,"slug_ville":"mezire","departement_id":0,"code_postal":"90120","population":1255,"superficie_km2":"394.91","latitude_centre":"47.5318","longitude_centre":"6.9239","distance_km":6.23},{"id":0,"code_insee":"25237","nom_standard":"Fesches-le-Châtel","nom_a":null,"nom_de":null,"slug_ville":"fesches-le-chatel","departement_id":0,"code_postal":"25490","population":2129,"superficie_km2":"345.65","latitude_centre":"47.519","longitude_centre":"6.9034","distance_km":6.27},{"id":0,"code_insee":"90072","nom_standard":"Morvillars","nom_a":null,"nom_de":null,"slug_ville":"morvillars","departement_id":0,"code_postal":"90120","population":1113,"superficie_km2":"563.50","latitude_centre":"47.5398","longitude_centre":"6.9353","distance_km":6.59},{"id":35061,"code_insee":"90043","nom_standard":"Faverois","nom_a":null,"nom_de":null,"slug_ville":"faverois","departement_id":0,"code_postal":"90100","population":593,"superficie_km2":"652.28","latitude_centre":"47.5291","longitude_centre":"7.0364","distance_km":6.93},{"id":0,"code_insee":"25004","nom_standard":"Abbévillers","nom_a":null,"nom_de":null,"slug_ville":"abbevillers","departement_id":0,"code_postal":"25310","population":1071,"superficie_km2":"1121.71","latitude_centre":"47.4263","longitude_centre":"6.9195","distance_km":7.62},{"id":35044,"code_insee":"90014","nom_standard":"Boron","nom_a":null,"nom_de":null,"slug_ville":"boron","departement_id":0,"code_postal":"90100","population":484,"superficie_km2":"609.19","latitude_centre":"47.5556","longitude_centre":"7.016","distance_km":8.51}]}