{"ville":{"id":27756,"code_insee":"62493","nom_standard":"Lebucquière","nom_a":null,"nom_de":null,"slug_ville":"lebucquiere","departement_id":0,"code_postal":"62124","population":232,"superficie_km2":"478.93","latitude_centre":"50.1087","longitude_centre":"2.9547","dep_code":"62","dep_nom":"Pas-de-Calais","dep_slug":"pas-de-calais","reg_code":"32","reg_nom":"Hauts-de-France","reg_slug":"hauts-de-france"},"departement":{"code":"62","nom":"Pas-de-Calais","slug":"pas-de-calais"},"region":{"code":"32","nom":"Hauts-de-France","slug":"hauts-de-france"},"villes_proches":[{"id":0,"code_insee":"62840","nom_standard":"Vélu","nom_a":null,"nom_de":null,"slug_ville":"velu","departement_id":0,"code_postal":"62124","population":130,"superficie_km2":"316.92","latitude_centre":"50.1022","longitude_centre":"2.9738","distance_km":1.54},{"id":27502,"code_insee":"62122","nom_standard":"Beugny","nom_a":null,"nom_de":null,"slug_ville":"beugny","departement_id":0,"code_postal":"62124","population":351,"superficie_km2":"575.54","latitude_centre":"50.118","longitude_centre":"2.9336","distance_km":1.83},{"id":27701,"code_insee":"62410","nom_standard":"Haplincourt","nom_a":null,"nom_de":null,"slug_ville":"haplincourt","departement_id":0,"code_postal":"62124","population":191,"superficie_km2":"508.03","latitude_centre":"50.0924","longitude_centre":"2.938","distance_km":2.17},{"id":27498,"code_insee":"62117","nom_standard":"Bertincourt","nom_a":null,"nom_de":null,"slug_ville":"bertincourt","departement_id":0,"code_postal":"62124","population":920,"superficie_km2":"751.24","latitude_centre":"50.0894","longitude_centre":"2.9794","distance_km":2.78},{"id":27482,"code_insee":"62096","nom_standard":"Beaumetz-lès-Cambrai","nom_a":null,"nom_de":null,"slug_ville":"beaumetz-les-cambrai","departement_id":0,"code_postal":"62124","population":528,"superficie_km2":"994.88","latitude_centre":"50.128","longitude_centre":"2.9825","distance_km":2.92},{"id":0,"code_insee":"62591","nom_standard":"Morchies","nom_a":null,"nom_de":null,"slug_ville":"morchies","departement_id":0,"code_postal":"62124","population":210,"superficie_km2":"667.77","latitude_centre":"50.1367","longitude_centre":"2.957","distance_km":3.12},{"id":27661,"code_insee":"62353","nom_standard":"Frémicourt","nom_a":null,"nom_de":null,"slug_ville":"fremicourt","departement_id":0,"code_postal":"62450","population":239,"superficie_km2":"568.89","latitude_centre":"50.1122","longitude_centre":"2.904","distance_km":3.64},{"id":27468,"code_insee":"62079","nom_standard":"Bancourt","nom_a":null,"nom_de":null,"slug_ville":"bancourt","departement_id":0,"code_postal":"62450","population":83,"superficie_km2":"456.90","latitude_centre":"50.1033","longitude_centre":"2.8935","distance_km":4.41},{"id":27470,"code_insee":"62082","nom_standard":"Barastre","nom_a":null,"nom_de":null,"slug_ville":"barastre","departement_id":0,"code_postal":"62124","population":308,"superficie_km2":"763.36","latitude_centre":"50.0685","longitude_centre":"2.9386","distance_km":4.62},{"id":0,"code_insee":"62855","nom_standard":"Villers-au-Flos","nom_a":null,"nom_de":null,"slug_ville":"villers-au-flos","departement_id":0,"code_postal":"62450","population":245,"superficie_km2":"584.21","latitude_centre":"50.0805","longitude_centre":"2.9046","distance_km":4.75},{"id":26341,"code_insee":"59176","nom_standard":"Doignies","nom_a":null,"nom_de":null,"slug_ville":"doignies","departement_id":0,"code_postal":"59400","population":325,"superficie_km2":"733.67","latitude_centre":"50.1334","longitude_centre":"3.0153","distance_km":5.12},{"id":27553,"code_insee":"62189","nom_standard":"Bus","nom_a":null,"nom_de":null,"slug_ville":"bus","departement_id":0,"code_postal":"62124","population":132,"superficie_km2":"324.30","latitude_centre":"50.0628","longitude_centre":"2.9666","distance_km":5.17},{"id":0,"code_insee":"62839","nom_standard":"Vaulx-Vraucourt","nom_a":null,"nom_de":null,"slug_ville":"vaulx-vraucourt","departement_id":0,"code_postal":"62159","population":1099,"superficie_km2":"1402.38","latitude_centre":"50.1427","longitude_centre":"2.903","distance_km":5.28},{"id":27751,"code_insee":"62484","nom_standard":"Lagnicourt-Marcel","nom_a":null,"nom_de":null,"slug_ville":"lagnicourt-marcel","departement_id":0,"code_postal":"62159","population":309,"superficie_km2":"845.69","latitude_centre":"50.1569","longitude_centre":"2.9592","distance_km":5.37},{"id":0,"code_insee":"62731","nom_standard":"Ruyaulcourt","nom_a":null,"nom_de":null,"slug_ville":"ruyaulcourt","departement_id":0,"code_postal":"62124","population":285,"superficie_km2":"644.66","latitude_centre":"50.0824","longitude_centre":"3.0205","distance_km":5.53},{"id":0,"code_insee":"62909","nom_standard":"Ytres","nom_a":null,"nom_de":null,"slug_ville":"ytres","departement_id":0,"code_postal":"62124","population":425,"superficie_km2":"428.31","latitude_centre":"50.0637","longitude_centre":"2.9957","distance_km":5.8},{"id":0,"code_insee":"62494","nom_standard":"Léchelle","nom_a":null,"nom_de":null,"slug_ville":"lechelle","departement_id":0,"code_postal":"62124","population":44,"superficie_km2":"372.58","latitude_centre":"50.0545","longitude_centre":"2.978","distance_km":6.25},{"id":0,"code_insee":"62715","nom_standard":"Rocquigny","nom_a":null,"nom_de":null,"slug_ville":"rocquigny","departement_id":0,"code_postal":"62450","population":265,"superficie_km2":"372.47","latitude_centre":"50.0557","longitude_centre":"2.9242","distance_km":6.28},{"id":0,"code_insee":"62619","nom_standard":"Noreuil","nom_a":null,"nom_de":null,"slug_ville":"noreuil","departement_id":0,"code_postal":"62128","population":130,"superficie_km2":"488.91","latitude_centre":"50.1689","longitude_centre":"2.9398","distance_km":6.78},{"id":0,"code_insee":"62673","nom_standard":"Quéant","nom_a":null,"nom_de":null,"slug_ville":"queant","departement_id":0,"code_postal":"62860","population":631,"superficie_km2":"903.03","latitude_centre":"50.1723","longitude_centre":"2.9851","distance_km":7.4}]}