{"ville":{"id":24069,"code_insee":"52280","nom_standard":"Lecey","nom_a":null,"nom_de":null,"slug_ville":"lecey","departement_id":0,"code_postal":"52360","population":196,"superficie_km2":"782.97","latitude_centre":"47.8607","longitude_centre":"5.4357","dep_code":"52","dep_nom":"Haute-Marne","dep_slug":"haute-marne","reg_code":"44","reg_nom":"Grand Est","reg_slug":"grand-est"},"departement":{"code":"52","nom":"Haute-Marne","slug":"haute-marne"},"region":{"code":"44","nom":"Grand Est","slug":"grand-est"},"villes_proches":[{"id":23951,"code_insee":"52116","nom_standard":"Chatenay-Vaudin","nom_a":null,"nom_de":null,"slug_ville":"chatenay-vaudin","departement_id":0,"code_postal":"52360","population":46,"superficie_km2":"371.69","latitude_centre":"47.8503","longitude_centre":"5.4484","distance_km":1.5},{"id":0,"code_insee":"52453","nom_standard":"Saint-Maurice","nom_a":null,"nom_de":null,"slug_ville":"saint-maurice","departement_id":0,"code_postal":"52200","population":125,"superficie_km2":"357.04","latitude_centre":"47.8541","longitude_centre":"5.417","distance_km":1.58},{"id":0,"code_insee":"52363","nom_standard":"Orbigny-au-Val","nom_a":null,"nom_de":null,"slug_ville":"orbigny-au-val","departement_id":0,"code_postal":"52360","population":95,"superficie_km2":"745.93","latitude_centre":"47.8827","longitude_centre":"5.4206","distance_km":2.69},{"id":0,"code_insee":"52362","nom_standard":"Orbigny-au-Mont","nom_a":null,"nom_de":null,"slug_ville":"orbigny-au-mont","departement_id":0,"code_postal":"52360","population":138,"superficie_km2":"921.64","latitude_centre":"47.8863","longitude_centre":"5.4596","distance_km":3.36},{"id":23950,"code_insee":"52115","nom_standard":"Chatenay-Mâcheron","nom_a":null,"nom_de":null,"slug_ville":"chatenay-macheron","departement_id":0,"code_postal":"52200","population":97,"superficie_km2":"603.14","latitude_centre":"47.8556","longitude_centre":"5.3877","distance_km":3.63},{"id":23978,"code_insee":"52155","nom_standard":"Culmont","nom_a":null,"nom_de":null,"slug_ville":"culmont","departement_id":0,"code_postal":"52600","population":538,"superficie_km2":"838.60","latitude_centre":"47.8274","longitude_centre":"5.444","distance_km":3.75},{"id":0,"code_insee":"52457","nom_standard":"Saint-Vallier-sur-Marne","nom_a":null,"nom_de":null,"slug_ville":"saint-vallier-sur-marne","departement_id":0,"code_postal":"52200","population":173,"superficie_km2":"660.72","latitude_centre":"47.8337","longitude_centre":"5.4043","distance_km":3.81},{"id":23933,"code_insee":"52090","nom_standard":"Celsoy","nom_a":null,"nom_de":null,"slug_ville":"celsoy","departement_id":0,"code_postal":"52600","population":87,"superficie_km2":"548.34","latitude_centre":"47.8632","longitude_centre":"5.4941","distance_km":4.37},{"id":0,"code_insee":"52380","nom_standard":"Peigney","nom_a":null,"nom_de":null,"slug_ville":"peigney","departement_id":0,"code_postal":"52200","population":381,"superficie_km2":"831.88","latitude_centre":"47.8785","longitude_centre":"5.373","distance_km":5.08},{"id":0,"code_insee":"52392","nom_standard":"Plesnoy","nom_a":null,"nom_de":null,"slug_ville":"plesnoy","departement_id":0,"code_postal":"52360","population":106,"superficie_km2":"917.11","latitude_centre":"47.8915","longitude_centre":"5.4932","distance_km":5.49},{"id":0,"code_insee":"52492","nom_standard":"Torcenay","nom_a":null,"nom_de":null,"slug_ville":"torcenay","departement_id":0,"code_postal":"52600","population":546,"superficie_km2":"844.95","latitude_centre":"47.8139","longitude_centre":"5.4688","distance_km":5.76},{"id":23898,"code_insee":"52037","nom_standard":"Bannes","nom_a":null,"nom_de":null,"slug_ville":"bannes","departement_id":0,"code_postal":"52360","population":360,"superficie_km2":"1010.01","latitude_centre":"47.903","longitude_centre":"5.3906","distance_km":5.78},{"id":0,"code_insee":"52348","nom_standard":"Neuilly-l'Évêque","nom_a":null,"nom_de":null,"slug_ville":"neuilly-l-eveque","departement_id":0,"code_postal":"52360","population":601,"superficie_km2":"2393.02","latitude_centre":"47.9182","longitude_centre":"5.4393","distance_km":6.4},{"id":23953,"code_insee":"52119","nom_standard":"Chaudenay","nom_a":null,"nom_de":null,"slug_ville":"chaudenay","departement_id":0,"code_postal":"52600","population":338,"superficie_km2":"468.08","latitude_centre":"47.821","longitude_centre":"5.5071","distance_km":6.92},{"id":0,"code_insee":"52093","nom_standard":"Chalindrey","nom_a":null,"nom_de":null,"slug_ville":"chalindrey","departement_id":0,"code_postal":"52600","population":2353,"superficie_km2":"2021.48","latitude_centre":"47.7926","longitude_centre":"5.4399","distance_km":7.58},{"id":0,"code_insee":"52397","nom_standard":"Poiseul","nom_a":null,"nom_de":null,"slug_ville":"poiseul","departement_id":0,"code_postal":"52360","population":72,"superficie_km2":"450.05","latitude_centre":"47.9227","longitude_centre":"5.4906","distance_km":8.02},{"id":23943,"code_insee":"52105","nom_standard":"Changey","nom_a":null,"nom_de":null,"slug_ville":"changey","departement_id":0,"code_postal":"52360","population":285,"superficie_km2":"662.88","latitude_centre":"47.9249","longitude_centre":"5.3851","distance_km":8.07},{"id":0,"code_insee":"52374","nom_standard":"Le Pailly","nom_a":null,"nom_de":null,"slug_ville":"le-pailly","departement_id":0,"code_postal":"52600","population":270,"superficie_km2":"716.30","latitude_centre":"47.7874","longitude_centre":"5.4151","distance_km":8.29},{"id":0,"code_insee":"52354","nom_standard":"Noidant-Chatenoy","nom_a":null,"nom_de":null,"slug_ville":"noidant-chatenoy","departement_id":0,"code_postal":"52600","population":79,"superficie_km2":"524.62","latitude_centre":"47.791","longitude_centre":"5.3772","distance_km":8.9},{"id":24019,"code_insee":"52207","nom_standard":"Frécourt","nom_a":null,"nom_de":null,"slug_ville":"frecourt","departement_id":0,"code_postal":"52360","population":86,"superficie_km2":"622.85","latitude_centre":"47.9482","longitude_centre":"5.4546","distance_km":9.83}]}