{"ville":{"id":6674,"code_insee":"64328","nom_standard":"Ledeuix","nom_a":null,"nom_de":null,"slug_ville":"ledeuix","departement_id":665,"code_postal":"64400","population":1027,"superficie_km2":"14.00","latitude_centre":"43.2319984","longitude_centre":"-0.6110000","dep_code":"64","dep_nom":"Pyrénées-Atlantiques","dep_slug":"pyrenees-atlantiques","reg_code":"15","reg_nom":"Nouvelle-Aquitaine","reg_slug":"nouvelle-aquitaine"},"departement":{"code":"64","nom":"Pyrénées-Atlantiques","slug":"pyrenees-atlantiques"},"region":{"code":"15","nom":"Nouvelle-Aquitaine","slug":"nouvelle-aquitaine"},"villes_proches":[{"id":6639,"code_insee":"64126","nom_standard":"Bidos","nom_a":null,"nom_de":null,"slug_ville":"bidos","departement_id":665,"code_postal":"64400","population":1109,"superficie_km2":"1.00","latitude_centre":"43.1749992","longitude_centre":"-0.6050000","distance_km":6.36},{"id":6683,"code_insee":"64393","nom_standard":"Monein","nom_a":null,"nom_de":null,"slug_ville":"monein","departement_id":665,"code_postal":"64360","population":4426,"superficie_km2":"81.00","latitude_centre":"43.2910004","longitude_centre":"-0.5620000","distance_km":7.67},{"id":6695,"code_insee":"64422","nom_standard":"Oloron-Sainte-Marie","nom_a":null,"nom_de":null,"slug_ville":"oloron-sainte-marie","departement_id":665,"code_postal":"64400","population":10616,"superficie_km2":"69.00","latitude_centre":"43.1559982","longitude_centre":"-0.5880000","distance_km":8.65},{"id":6615,"code_insee":"64007","nom_standard":"Agnos","nom_a":null,"nom_de":null,"slug_ville":"agnos","departement_id":665,"code_postal":"64400","population":1041,"superficie_km2":"9.00","latitude_centre":"43.1539993","longitude_centre":"-0.6290000","distance_km":8.79},{"id":6673,"code_insee":"64324","nom_standard":"Lasseube","nom_a":null,"nom_de":null,"slug_ville":"lasseube","departement_id":665,"code_postal":"64290","population":1741,"superficie_km2":"49.00","latitude_centre":"43.2140007","longitude_centre":"-0.4830000","distance_km":10.56},{"id":6694,"code_insee":"64421","nom_standard":"Ogeu-les-Bains","nom_a":null,"nom_de":null,"slug_ville":"ogeu-les-bains","departement_id":665,"code_postal":"64680","population":1272,"superficie_km2":"23.00","latitude_centre":"43.1559982","longitude_centre":"-0.5040000","distance_km":12.11},{"id":6619,"code_insee":"64037","nom_standard":"Arbus","nom_a":null,"nom_de":null,"slug_ville":"arbus","departement_id":665,"code_postal":"64230","population":1245,"superficie_km2":"14.00","latitude_centre":"43.3240013","longitude_centre":"-0.5060000","distance_km":13.3},{"id":6624,"code_insee":"64060","nom_standard":"Artiguelouve","nom_a":null,"nom_de":null,"slug_ville":"artiguelouve","departement_id":665,"code_postal":"64230","population":2005,"superficie_km2":"11.00","latitude_centre":"43.3139992","longitude_centre":"-0.4730000","distance_km":14.42},{"id":6691,"code_insee":"64416","nom_standard":"Navarrenx","nom_a":null,"nom_de":null,"slug_ville":"navarrenx","departement_id":665,"code_postal":"64190","population":1050,"superficie_km2":"7.00","latitude_centre":"43.3289986","longitude_centre":"-0.7360000","distance_km":14.79},{"id":6689,"code_insee":"64410","nom_standard":"Mourenx","nom_a":null,"nom_de":null,"slug_ville":"mourenx","departement_id":665,"code_postal":"64150","population":5846,"superficie_km2":"6.00","latitude_centre":"43.3740006","longitude_centre":"-0.6180000","distance_km":15.8},{"id":6670,"code_insee":"64315","nom_standard":"Laroin","nom_a":null,"nom_de":null,"slug_ville":"laroin","departement_id":665,"code_postal":"64110","population":1061,"superficie_km2":"7.00","latitude_centre":"43.2970009","longitude_centre":"-0.4370000","distance_km":15.83},{"id":6656,"code_insee":"64230","nom_standard":"Gan","nom_a":null,"nom_de":null,"slug_ville":"gan","departement_id":665,"code_postal":"64290","population":5622,"superficie_km2":"39.00","latitude_centre":"43.2089996","longitude_centre":"-0.4100000","distance_km":16.49},{"id":6667,"code_insee":"64284","nom_standard":"Jurançon","nom_a":null,"nom_de":null,"slug_ville":"jurancon","departement_id":665,"code_postal":"64110","population":7064,"superficie_km2":"19.00","latitude_centre":"43.2700005","longitude_centre":"-0.4070000","distance_km":17.05},{"id":6650,"code_insee":"64188","nom_standard":"Chéraute","nom_a":null,"nom_de":null,"slug_ville":"cheraute","departement_id":665,"code_postal":"64130","population":1057,"superficie_km2":"37.00","latitude_centre":"43.2299995","longitude_centre":"-0.8220000","distance_km":17.1},{"id":6668,"code_insee":"64301","nom_standard":"Lagor","nom_a":null,"nom_de":null,"slug_ville":"lagor","departement_id":665,"code_postal":"64150","population":1131,"superficie_km2":"21.00","latitude_centre":"43.3829994","longitude_centre":"-0.6670000","distance_km":17.39},{"id":6653,"code_insee":"64198","nom_standard":"Denguin","nom_a":null,"nom_de":null,"slug_ville":"denguin","departement_id":665,"code_postal":"64230","population":1771,"superficie_km2":"12.00","latitude_centre":"43.3709984","longitude_centre":"-0.5000000","distance_km":17.88},{"id":6626,"code_insee":"64062","nom_standard":"Arudy","nom_a":null,"nom_de":null,"slug_ville":"arudy","departement_id":665,"code_postal":"64260","population":2248,"superficie_km2":"28.00","latitude_centre":"43.0999985","longitude_centre":"-0.4740000","distance_km":18.41},{"id":6699,"code_insee":"64448","nom_standard":"Poey-de-Lescar","nom_a":null,"nom_de":null,"slug_ville":"poey-de-lescar","departement_id":665,"code_postal":"64230","population":1821,"superficie_km2":"7.00","latitude_centre":"43.3559990","longitude_centre":"-0.4570000","distance_km":18.59},{"id":6625,"code_insee":"64061","nom_standard":"Artix","nom_a":null,"nom_de":null,"slug_ville":"artix","departement_id":665,"code_postal":"64170","population":3440,"superficie_km2":"9.00","latitude_centre":"43.3979988","longitude_centre":"-0.5740000","distance_km":18.7},{"id":6676,"code_insee":"64335","nom_standard":"Lescar","nom_a":null,"nom_de":null,"slug_ville":"lescar","departement_id":665,"code_postal":"64230","population":9524,"superficie_km2":"27.00","latitude_centre":"43.3400002","longitude_centre":"-0.4280000","distance_km":19.07}]}