{"ville":{"id":14528,"code_insee":"17204","nom_standard":"Léoville","nom_a":null,"nom_de":null,"slug_ville":"leoville","departement_id":0,"code_postal":"17500","population":300,"superficie_km2":"1025.55","latitude_centre":"45.3764","longitude_centre":"-0.3317","dep_code":"17","dep_nom":"Charente-Maritime","dep_slug":"charente-maritime","reg_code":"75","reg_nom":"Nouvelle-Aquitaine","reg_slug":"nouvelle-aquitaine"},"departement":{"code":"17","nom":"Charente-Maritime","slug":"charente-maritime"},"region":{"code":"75","nom":"Nouvelle-Aquitaine","slug":"nouvelle-aquitaine"},"villes_proches":[{"id":0,"code_insee":"17468","nom_standard":"Vibrac","nom_a":null,"nom_de":null,"slug_ville":"vibrac","departement_id":0,"code_postal":"17130","population":162,"superficie_km2":"504.88","latitude_centre":"45.3535","longitude_centre":"-0.3362","distance_km":2.57},{"id":0,"code_insee":"17249","nom_standard":"Mortiers","nom_a":null,"nom_de":null,"slug_ville":"mortiers","departement_id":0,"code_postal":"17500","population":173,"superficie_km2":"670.22","latitude_centre":"45.3987","longitude_centre":"-0.3227","distance_km":2.58},{"id":14456,"code_insee":"17096","nom_standard":"Chaunac","nom_a":null,"nom_de":null,"slug_ville":"chaunac","departement_id":0,"code_postal":"17130","population":67,"superficie_km2":"223.46","latitude_centre":"45.3592","longitude_centre":"-0.3605","distance_km":2.95},{"id":0,"code_insee":"17372","nom_standard":"Saint-Médard","nom_a":null,"nom_de":null,"slug_ville":"saint-medard","departement_id":0,"code_postal":"17500","population":91,"superficie_km2":"387.25","latitude_centre":"45.4003","longitude_centre":"-0.3527","distance_km":3.12},{"id":0,"code_insee":"17231","nom_standard":"Messac","nom_a":null,"nom_de":null,"slug_ville":"messac","departement_id":0,"code_postal":"17130","population":102,"superficie_km2":"727.01","latitude_centre":"45.3492","longitude_centre":"-0.3147","distance_km":3.3},{"id":0,"code_insee":"17458","nom_standard":"Vanzac","nom_a":null,"nom_de":null,"slug_ville":"vanzac","departement_id":0,"code_postal":"17500","population":198,"superficie_km2":"642.19","latitude_centre":"45.3555","longitude_centre":"-0.3009","distance_km":3.35},{"id":14501,"code_insee":"17163","nom_standard":"Fontaines-d'Ozillac","nom_a":null,"nom_de":null,"slug_ville":"fontaines-d-ozillac","departement_id":0,"code_postal":"17500","population":510,"superficie_km2":"1393.52","latitude_centre":"45.3796","longitude_centre":"-0.3874","distance_km":4.37},{"id":0,"code_insee":"17341","nom_standard":"Saint-Germain-de-Vibrac","nom_a":null,"nom_de":null,"slug_ville":"saint-germain-de-vibrac","departement_id":0,"code_postal":"17500","population":186,"superficie_km2":"719.30","latitude_centre":"45.4213","longitude_centre":"-0.3283","distance_km":5.0},{"id":0,"code_insee":"17282","nom_standard":"Pommiers-Moulons","nom_a":null,"nom_de":null,"slug_ville":"pommiers-moulons","departement_id":0,"code_postal":"17130","population":212,"superficie_km2":"958.66","latitude_centre":"45.3275","longitude_centre":"-0.3432","distance_km":5.51},{"id":0,"code_insee":"17229","nom_standard":"Mérignac","nom_a":null,"nom_de":null,"slug_ville":"merignac","departement_id":0,"code_postal":"17210","population":237,"superficie_km2":"449.11","latitude_centre":"45.3297","longitude_centre":"-0.3025","distance_km":5.67},{"id":0,"code_insee":"16025","nom_standard":"Baignes-Sainte-Radegonde","nom_a":null,"nom_de":null,"slug_ville":"baignes-sainte-radegonde","departement_id":0,"code_postal":"16360","population":1254,"superficie_km2":"3130.58","latitude_centre":"45.3757","longitude_centre":"-0.2583","distance_km":5.73},{"id":14496,"code_insee":"17156","nom_standard":"Expiremont","nom_a":null,"nom_de":null,"slug_ville":"expiremont","departement_id":0,"code_postal":"17130","population":112,"superficie_km2":"573.16","latitude_centre":"45.3323","longitude_centre":"-0.3746","distance_km":5.94},{"id":0,"code_insee":"17454","nom_standard":"Tugéras-Saint-Maurice","nom_a":null,"nom_de":null,"slug_ville":"tugeras-saint-maurice","departement_id":0,"code_postal":"17130","population":381,"superficie_km2":"1391.99","latitude_centre":"45.3576","longitude_centre":"-0.4045","distance_km":6.06},{"id":0,"code_insee":"17357","nom_standard":"Saint-Maigrin","nom_a":null,"nom_de":null,"slug_ville":"saint-maigrin","departement_id":0,"code_postal":"17520","population":534,"superficie_km2":"2141.11","latitude_centre":"45.4138","longitude_centre":"-0.274","distance_km":6.13},{"id":14436,"code_insee":"17061","nom_standard":"Bran","nom_a":null,"nom_de":null,"slug_ville":"bran","departement_id":0,"code_postal":"17210","population":137,"superficie_km2":"422.48","latitude_centre":"45.3497","longitude_centre":"-0.2619","distance_km":6.21},{"id":0,"code_insee":"17270","nom_standard":"Ozillac","nom_a":null,"nom_de":null,"slug_ville":"ozillac","departement_id":0,"code_postal":"17500","population":613,"superficie_km2":"1587.41","latitude_centre":"45.4068","longitude_centre":"-0.4022","distance_km":6.46},{"id":0,"code_insee":"17276","nom_standard":"Le Pin","nom_a":null,"nom_de":null,"slug_ville":"le-pin","departement_id":0,"code_postal":"17210","population":71,"superficie_km2":"252.69","latitude_centre":"45.317","longitude_centre":"-0.2954","distance_km":7.19},{"id":14449,"code_insee":"17082","nom_standard":"Champagnac","nom_a":null,"nom_de":null,"slug_ville":"champagnac","departement_id":0,"code_postal":"17500","population":488,"superficie_km2":"1293.38","latitude_centre":"45.4324","longitude_centre":"-0.3785","distance_km":7.22},{"id":0,"code_insee":"17233","nom_standard":"Meux","nom_a":null,"nom_de":null,"slug_ville":"meux","departement_id":0,"code_postal":"17500","population":327,"superficie_km2":"838.85","latitude_centre":"45.444","longitude_centre":"-0.3587","distance_km":7.81},{"id":0,"code_insee":"17433","nom_standard":"Sousmoulins","nom_a":null,"nom_de":null,"slug_ville":"sousmoulins","departement_id":0,"code_postal":"17130","population":229,"superficie_km2":"778.29","latitude_centre":"45.3058","longitude_centre":"-0.3275","distance_km":7.86}]}