{"ville":{"id":21724,"code_insee":"42158","nom_standard":"Les Noës","nom_a":null,"nom_de":null,"slug_ville":"les-noes","departement_id":0,"code_postal":"42370","population":209,"superficie_km2":"1564.63","latitude_centre":"46.0304","longitude_centre":"3.8368","dep_code":"42","dep_nom":"Loire","dep_slug":"loire","reg_code":"84","reg_nom":"Auvergne-Rhône-Alpes","reg_slug":"auvergne-rhone-alpes"},"departement":{"code":"42","nom":"Loire","slug":"loire"},"region":{"code":"84","nom":"Auvergne-Rhône-Alpes","slug":"auvergne-rhone-alpes"},"villes_proches":[{"id":21636,"code_insee":"42008","nom_standard":"Arcon","nom_a":null,"nom_de":null,"slug_ville":"arcon","departement_id":0,"code_postal":"42370","population":106,"superficie_km2":"1918.63","latitude_centre":"46.0091","longitude_centre":"3.8669","distance_km":3.32},{"id":11101,"code_insee":"03248","nom_standard":"Saint-Nicolas-des-Biefs","nom_a":null,"nom_de":null,"slug_ville":"saint-nicolas-des-biefs","departement_id":0,"code_postal":"03250","population":146,"superficie_km2":"2908.36","latitude_centre":"46.0569","longitude_centre":"3.7909","distance_km":4.61},{"id":0,"code_insee":"42281","nom_standard":"Saint-Rirand","nom_a":null,"nom_de":null,"slug_ville":"saint-rirand","departement_id":0,"code_postal":"42370","population":132,"superficie_km2":"1655.32","latitude_centre":"46.0737","longitude_centre":"3.8372","distance_km":4.81},{"id":0,"code_insee":"42182","nom_standard":"Renaison","nom_a":null,"nom_de":null,"slug_ville":"renaison","departement_id":0,"code_postal":"42370","population":3231,"superficie_km2":"2337.46","latitude_centre":"46.0454","longitude_centre":"3.911","distance_km":5.97},{"id":10943,"code_insee":"03050","nom_standard":"La Chabanne","nom_a":null,"nom_de":null,"slug_ville":"la-chabanne","departement_id":0,"code_postal":"03250","population":169,"superficie_km2":"2015.37","latitude_centre":"46.0268","longitude_centre":"3.7526","distance_km":6.51},{"id":11010,"code_insee":"03139","nom_standard":"Laprugne","nom_a":null,"nom_de":null,"slug_ville":"laprugne","departement_id":0,"code_postal":"03250","population":308,"superficie_km2":"3466.02","latitude_centre":"45.9941","longitude_centre":"3.768","distance_km":6.67},{"id":0,"code_insee":"42233","nom_standard":"Saint-Haon-le-Vieux","nom_a":null,"nom_de":null,"slug_ville":"saint-haon-le-vieux","departement_id":0,"code_postal":"42370","population":953,"superficie_km2":"1646.81","latitude_centre":"46.0733","longitude_centre":"3.9019","distance_km":6.93},{"id":0,"code_insee":"42232","nom_standard":"Saint-Haon-le-Châtel","nom_a":null,"nom_de":null,"slug_ville":"saint-haon-le-chatel","departement_id":0,"code_postal":"42370","population":625,"superficie_km2":"87.53","latitude_centre":"46.0662","longitude_centre":"3.9172","distance_km":7.37},{"id":0,"code_insee":"42199","nom_standard":"Saint-André-d'Apchon","nom_a":null,"nom_de":null,"slug_ville":"saint-andre-d-apchon","departement_id":0,"code_postal":"42370","population":1966,"superficie_km2":"1355.72","latitude_centre":"46.0275","longitude_centre":"3.9325","distance_km":7.4},{"id":0,"code_insee":"42198","nom_standard":"Saint-Alban-les-Eaux","nom_a":null,"nom_de":null,"slug_ville":"saint-alban-les-eaux","departement_id":0,"code_postal":"42370","population":912,"superficie_km2":"786.74","latitude_centre":"46.0056","longitude_centre":"3.9309","distance_km":7.77},{"id":21666,"code_insee":"42061","nom_standard":"Cherier","nom_a":null,"nom_de":null,"slug_ville":"cherier","departement_id":0,"code_postal":"42430","population":523,"superficie_km2":"2879.48","latitude_centre":"45.9686","longitude_centre":"3.8858","distance_km":7.85},{"id":0,"code_insee":"42314","nom_standard":"La Tuilière","nom_a":null,"nom_de":null,"slug_ville":"la-tuiliere","departement_id":0,"code_postal":"42830","population":273,"superficie_km2":"3161.68","latitude_centre":"45.9589","longitude_centre":"3.8129","distance_km":8.16},{"id":11079,"code_insee":"03224","nom_standard":"Saint-Clément","nom_a":null,"nom_de":null,"slug_ville":"saint-clement","departement_id":0,"code_postal":"03250","population":284,"superficie_km2":"2612.73","latitude_centre":"46.0544","longitude_centre":"3.726","distance_km":8.96},{"id":0,"code_insee":"42331","nom_standard":"Villemontais","nom_a":null,"nom_de":null,"slug_ville":"villemontais","departement_id":0,"code_postal":"42155","population":1042,"superficie_km2":"1320.24","latitude_centre":"45.9812","longitude_centre":"3.932","distance_km":9.16},{"id":0,"code_insee":"42003","nom_standard":"Ambierle","nom_a":null,"nom_de":null,"slug_ville":"ambierle","departement_id":0,"code_postal":"42820","population":1865,"superficie_km2":"3081.45","latitude_centre":"46.1068","longitude_centre":"3.8953","distance_km":9.62},{"id":0,"code_insee":"42203","nom_standard":"Saint-Bonnet-des-Quarts","nom_a":null,"nom_de":null,"slug_ville":"saint-bonnet-des-quarts","departement_id":0,"code_postal":"42310","population":340,"superficie_km2":"3290.67","latitude_centre":"46.1272","longitude_centre":"3.8304","distance_km":10.77},{"id":0,"code_insee":"42276","nom_standard":"Saint-Priest-la-Prugne","nom_a":null,"nom_de":null,"slug_ville":"saint-priest-la-prugne","departement_id":0,"code_postal":"42830","population":402,"superficie_km2":"3725.86","latitude_centre":"45.9494","longitude_centre":"3.7505","distance_km":11.21},{"id":0,"code_insee":"42248","nom_standard":"Saint-Just-en-Chevalet","nom_a":null,"nom_de":null,"slug_ville":"saint-just-en-chevalet","departement_id":0,"code_postal":"42430","population":1169,"superficie_km2":"2920.05","latitude_centre":"45.9255","longitude_centre":"3.834","distance_km":11.67},{"id":10956,"code_insee":"03066","nom_standard":"Châtel-Montagne","nom_a":null,"nom_de":null,"slug_ville":"chatel-montagne","departement_id":0,"code_postal":"03250","population":326,"superficie_km2":"3669.09","latitude_centre":"46.1021","longitude_centre":"3.7183","distance_km":12.13},{"id":21659,"code_insee":"42049","nom_standard":"Changy","nom_a":null,"nom_de":null,"slug_ville":"changy","departement_id":0,"code_postal":"42310","population":690,"superficie_km2":"1375.48","latitude_centre":"46.148","longitude_centre":"3.9036","distance_km":14.05}]}