{"ville":{"id":34885,"code_insee":"89281","nom_standard":"Les Ormes","nom_a":null,"nom_de":null,"slug_ville":"les-ormes","departement_id":0,"code_postal":"89110","population":281,"superficie_km2":"864.89","latitude_centre":"47.8459","longitude_centre":"3.2598","dep_code":"89","dep_nom":"Yonne","dep_slug":"yonne","reg_code":"27","reg_nom":"Bourgogne-Franche-Comté","reg_slug":"bourgogne-franche-comte"},"departement":{"code":"89","nom":"Yonne","slug":"yonne"},"region":{"code":"27","nom":"Bourgogne-Franche-Comté","slug":"bourgogne-franche-comte"},"villes_proches":[{"id":0,"code_insee":"89397","nom_standard":"Sommecaise","nom_a":null,"nom_de":null,"slug_ville":"sommecaise","departement_id":0,"code_postal":"89110","population":388,"superficie_km2":"1568.09","latitude_centre":"47.838","longitude_centre":"3.2205","distance_km":3.06},{"id":0,"code_insee":"89334","nom_standard":"Le Val d'Ocre","nom_a":null,"nom_de":null,"slug_ville":"le-val-d-ocre","departement_id":0,"code_postal":"89110","population":563,"superficie_km2":"2959.81","latitude_centre":"47.8243","longitude_centre":"3.296","distance_km":3.62},{"id":34797,"code_insee":"89163","nom_standard":"La Ferté-Loupière","nom_a":null,"nom_de":null,"slug_ville":"la-ferte-loupiere","departement_id":0,"code_postal":"89110","population":559,"superficie_km2":"3057.74","latitude_centre":"47.8874","longitude_centre":"3.2414","distance_km":4.81},{"id":34742,"code_insee":"89088","nom_standard":"Chassy","nom_a":null,"nom_de":null,"slug_ville":"chassy","departement_id":0,"code_postal":"89110","population":472,"superficie_km2":"1665.03","latitude_centre":"47.8503","longitude_centre":"3.3281","distance_km":5.12},{"id":34863,"code_insee":"89251","nom_standard":"Merry-la-Vallée","nom_a":null,"nom_de":null,"slug_ville":"merry-la-vallee","departement_id":0,"code_postal":"89110","population":358,"superficie_km2":"1836.02","latitude_centre":"47.7879","longitude_centre":"3.3119","distance_km":7.53},{"id":0,"code_insee":"89003","nom_standard":"Montholon","nom_a":null,"nom_de":null,"slug_ville":"montholon","departement_id":0,"code_postal":"89110","population":2709,"superficie_km2":"4972.54","latitude_centre":"47.9004","longitude_centre":"3.3211","distance_km":7.59},{"id":0,"code_insee":"89472","nom_standard":"Villiers-Saint-Benoît","nom_a":null,"nom_de":null,"slug_ville":"villiers-saint-benoit","departement_id":0,"code_postal":"89130","population":427,"superficie_km2":"3425.70","latitude_centre":"47.7815","longitude_centre":"3.2218","distance_km":7.7},{"id":0,"code_insee":"89361","nom_standard":"Saint-Maurice-Thizouaille","nom_a":null,"nom_de":null,"slug_ville":"saint-maurice-thizouaille","departement_id":0,"code_postal":"89110","population":256,"superficie_km2":"196.03","latitude_centre":"47.8331","longitude_centre":"3.3626","distance_km":7.8},{"id":0,"code_insee":"89360","nom_standard":"Saint-Maurice-le-Vieil","nom_a":null,"nom_de":null,"slug_ville":"saint-maurice-le-vieil","departement_id":0,"code_postal":"89110","population":370,"superficie_km2":"492.50","latitude_centre":"47.8215","longitude_centre":"3.3718","distance_km":8.79},{"id":34786,"code_insee":"89150","nom_standard":"Égleny","nom_a":null,"nom_de":null,"slug_ville":"egleny","departement_id":0,"code_postal":"89240","population":457,"superficie_km2":"800.23","latitude_centre":"47.8099","longitude_centre":"3.3761","distance_km":9.56},{"id":0,"code_insee":"89388","nom_standard":"Sépeaux-Saint Romain","nom_a":null,"nom_de":null,"slug_ville":"sepeaux-saint-romain","departement_id":0,"code_postal":"89116","population":506,"superficie_km2":"3054.30","latitude_centre":"47.9346","longitude_centre":"3.2402","distance_km":9.97},{"id":0,"code_insee":"89384","nom_standard":"Senan","nom_a":null,"nom_de":null,"slug_ville":"senan","departement_id":0,"code_postal":"89710","population":672,"superficie_km2":"1793.11","latitude_centre":"47.9189","longitude_centre":"3.3444","distance_km":10.28},{"id":0,"code_insee":"89304","nom_standard":"Poilly-sur-Tholon","nom_a":null,"nom_de":null,"slug_ville":"poilly-sur-tholon","departement_id":0,"code_postal":"89110","population":666,"superficie_km2":"1964.86","latitude_centre":"47.8516","longitude_centre":"3.4018","distance_km":10.62},{"id":34701,"code_insee":"89033","nom_standard":"Beauvoir","nom_a":null,"nom_de":null,"slug_ville":"beauvoir","departement_id":0,"code_postal":"89240","population":386,"superficie_km2":"675.31","latitude_centre":"47.7902","longitude_centre":"3.3823","distance_km":11.05},{"id":34783,"code_insee":"89147","nom_standard":"Dracy","nom_a":null,"nom_de":null,"slug_ville":"dracy","departement_id":0,"code_postal":"89130","population":236,"superficie_km2":"2215.46","latitude_centre":"47.7476","longitude_centre":"3.2331","distance_km":11.11},{"id":0,"code_insee":"89286","nom_standard":"Parly","nom_a":null,"nom_de":null,"slug_ville":"parly","departement_id":0,"code_postal":"89240","population":817,"superficie_km2":"2087.04","latitude_centre":"47.7579","longitude_centre":"3.3408","distance_km":11.5},{"id":34705,"code_insee":"89037","nom_standard":"Béon","nom_a":null,"nom_de":null,"slug_ville":"beon","departement_id":0,"code_postal":"89410","population":519,"superficie_km2":"1551.52","latitude_centre":"47.9468","longitude_centre":"3.3161","distance_km":11.98},{"id":0,"code_insee":"89419","nom_standard":"Toucy","nom_a":null,"nom_de":null,"slug_ville":"toucy","departement_id":0,"code_postal":"89130","population":2571,"superficie_km2":"3523.42","latitude_centre":"47.7328","longitude_centre":"3.2882","distance_km":12.75},{"id":0,"code_insee":"89313","nom_standard":"Précy-sur-Vrin","nom_a":null,"nom_de":null,"slug_ville":"precy-sur-vrin","departement_id":0,"code_postal":"89116","population":427,"superficie_km2":"2154.99","latitude_centre":"47.9746","longitude_centre":"3.229","distance_km":14.49},{"id":34727,"code_insee":"89063","nom_standard":"La Celle-Saint-Cyr","nom_a":null,"nom_de":null,"slug_ville":"la-celle-saint-cyr","departement_id":0,"code_postal":"89116","population":840,"superficie_km2":"1874.26","latitude_centre":"47.9796","longitude_centre":"3.2788","distance_km":14.93}]}