{"ville":{"id":14949,"code_insee":"19009","nom_standard":"Les Angles-sur-Corrèze","nom_a":null,"nom_de":null,"slug_ville":"les-angles-sur-correze","departement_id":0,"code_postal":"19000","population":125,"superficie_km2":"477.89","latitude_centre":"45.3103","longitude_centre":"1.801","dep_code":"19","dep_nom":"Corrèze","dep_slug":"correze","reg_code":"75","reg_nom":"Nouvelle-Aquitaine","reg_slug":"nouvelle-aquitaine"},"departement":{"code":"19","nom":"Corrèze","slug":"correze"},"region":{"code":"75","nom":"Nouvelle-Aquitaine","slug":"nouvelle-aquitaine"},"villes_proches":[{"id":0,"code_insee":"19085","nom_standard":"Gimel-les-Cascades","nom_a":null,"nom_de":null,"slug_ville":"gimel-les-cascades","departement_id":0,"code_postal":"19800","population":755,"superficie_km2":"2094.67","latitude_centre":"45.3013","longitude_centre":"1.8339","distance_km":2.76},{"id":0,"code_insee":"19016","nom_standard":"Bar","nom_a":null,"nom_de":null,"slug_ville":"bar","departement_id":0,"code_postal":"19800","population":311,"superficie_km2":"2088.32","latitude_centre":"45.3407","longitude_centre":"1.8143","distance_km":3.54},{"id":0,"code_insee":"19146","nom_standard":"Naves","nom_a":null,"nom_de":null,"slug_ville":"naves","departement_id":0,"code_postal":"19460","population":2281,"superficie_km2":"3646.65","latitude_centre":"45.3124","longitude_centre":"1.7504","distance_km":3.96},{"id":0,"code_insee":"19041","nom_standard":"Chanac-les-Mines","nom_a":null,"nom_de":null,"slug_ville":"chanac-les-mines","departement_id":0,"code_postal":"19150","population":437,"superficie_km2":"1314.60","latitude_centre":"45.2716","longitude_centre":"1.8133","distance_km":4.41},{"id":0,"code_insee":"19272","nom_standard":"Tulle","nom_a":null,"nom_de":null,"slug_ville":"tulle","departement_id":0,"code_postal":"19000","population":13401,"superficie_km2":"2472.87","latitude_centre":"45.2685","longitude_centre":"1.7663","distance_km":5.38},{"id":0,"code_insee":"19155","nom_standard":"Orliac-de-Bar","nom_a":null,"nom_de":null,"slug_ville":"orliac-de-bar","departement_id":0,"code_postal":"19390","population":256,"superficie_km2":"1497.19","latitude_centre":"45.3705","longitude_centre":"1.8044","distance_km":6.7},{"id":0,"code_insee":"19101","nom_standard":"Laguenne-sur-Avalouze","nom_a":null,"nom_de":null,"slug_ville":"laguenne-sur-avalouze","departement_id":0,"code_postal":"19150","population":1577,"superficie_km2":"1217.58","latitude_centre":"45.2475","longitude_centre":"1.8065","distance_km":7.0},{"id":0,"code_insee":"19236","nom_standard":"Saint-Priest-de-Gimel","nom_a":null,"nom_de":null,"slug_ville":"saint-priest-de-gimel","departement_id":0,"code_postal":"19800","population":480,"superficie_km2":"1788.02","latitude_centre":"45.3083","longitude_centre":"1.8968","distance_km":7.49},{"id":0,"code_insee":"19220","nom_standard":"Saint-Martial-de-Gimel","nom_a":null,"nom_de":null,"slug_ville":"saint-martial-de-gimel","departement_id":0,"code_postal":"19150","population":489,"superficie_km2":"2400.50","latitude_centre":"45.2705","longitude_centre":"1.8895","distance_km":8.22},{"id":0,"code_insee":"19062","nom_standard":"Corrèze","nom_a":null,"nom_de":null,"slug_ville":"correze","departement_id":0,"code_postal":"19800","population":1171,"superficie_km2":"3467.68","latitude_centre":"45.3678","longitude_centre":"1.872","distance_km":8.47},{"id":0,"code_insee":"19240","nom_standard":"Saint-Salvadour","nom_a":null,"nom_de":null,"slug_ville":"saint-salvadour","departement_id":0,"code_postal":"19700","population":332,"superficie_km2":"1982.80","latitude_centre":"45.3868","longitude_centre":"1.7653","distance_km":8.95},{"id":0,"code_insee":"19255","nom_standard":"Seilhac","nom_a":null,"nom_de":null,"slug_ville":"seilhac","departement_id":0,"code_postal":"19700","population":1805,"superficie_km2":"2549.88","latitude_centre":"45.3658","longitude_centre":"1.7179","distance_km":8.96},{"id":0,"code_insee":"19194","nom_standard":"Saint-Clément","nom_a":null,"nom_de":null,"slug_ville":"saint-clement","departement_id":0,"code_postal":"19700","population":1386,"superficie_km2":"2686.67","latitude_centre":"45.3344","longitude_centre":"1.6876","distance_km":9.26},{"id":0,"code_insee":"19096","nom_standard":"Ladignac-sur-Rondelles","nom_a":null,"nom_de":null,"slug_ville":"ladignac-sur-rondelles","departement_id":0,"code_postal":"19150","population":404,"superficie_km2":"1024.66","latitude_centre":"45.2273","longitude_centre":"1.8226","distance_km":9.38},{"id":0,"code_insee":"19075","nom_standard":"Espagnac","nom_a":null,"nom_de":null,"slug_ville":"espagnac","departement_id":0,"code_postal":"19150","population":381,"superficie_km2":"2388.85","latitude_centre":"45.2424","longitude_centre":"1.8919","distance_km":10.37},{"id":0,"code_insee":"19038","nom_standard":"Chameyrat","nom_a":null,"nom_de":null,"slug_ville":"chameyrat","departement_id":0,"code_postal":"19330","population":1481,"superficie_km2":"1933.89","latitude_centre":"45.2452","longitude_centre":"1.7046","distance_km":10.45},{"id":0,"code_insee":"19158","nom_standard":"Pandrignes","nom_a":null,"nom_de":null,"slug_ville":"pandrignes","departement_id":0,"code_postal":"19150","population":172,"superficie_km2":"845.04","latitude_centre":"45.22","longitude_centre":"1.8632","distance_km":11.16},{"id":0,"code_insee":"19137","nom_standard":"Meyrignac-l'Église","nom_a":null,"nom_de":null,"slug_ville":"meyrignac-l-eglise","departement_id":0,"code_postal":"19800","population":64,"superficie_km2":"1009.68","latitude_centre":"45.4054","longitude_centre":"1.8607","distance_km":11.56},{"id":0,"code_insee":"19203","nom_standard":"Sainte-Fortunade","nom_a":null,"nom_de":null,"slug_ville":"sainte-fortunade","departement_id":0,"code_postal":"19490","population":1798,"superficie_km2":"3841.61","latitude_centre":"45.2051","longitude_centre":"1.7633","distance_km":12.06},{"id":0,"code_insee":"19020","nom_standard":"Beaumont","nom_a":null,"nom_de":null,"slug_ville":"beaumont","departement_id":0,"code_postal":"19390","population":114,"superficie_km2":"1112.90","latitude_centre":"45.4226","longitude_centre":"1.7904","distance_km":12.51}]}