{"ville":{"id":8352,"code_insee":"78165","nom_standard":"Les Clayes-sous-Bois","nom_a":null,"nom_de":null,"slug_ville":"les-clayes-sous-bois","departement_id":679,"code_postal":"78340","population":17237,"superficie_km2":"6.00","latitude_centre":"48.8190002","longitude_centre":"1.9840000","dep_code":"78","dep_nom":"Yvelines","dep_slug":"yvelines","reg_code":"10","reg_nom":"Île-de-France","reg_slug":"ile-de-france"},"departement":{"code":"78","nom":"Yvelines","slug":"yvelines"},"region":{"code":"10","nom":"Île-de-France","slug":"ile-de-france"},"villes_proches":[{"id":8456,"code_insee":"78674","nom_standard":"Villepreux","nom_a":null,"nom_de":null,"slug_ville":"villepreux","departement_id":679,"code_postal":"78450","population":11150,"superficie_km2":"10.00","latitude_centre":"48.8310013","longitude_centre":"2.0130000","distance_km":2.51},{"id":8422,"code_insee":"78490","nom_standard":"Plaisir","nom_a":null,"nom_de":null,"slug_ville":"plaisir","departement_id":679,"code_postal":"78370","population":31375,"superficie_km2":"18.00","latitude_centre":"48.8129997","longitude_centre":"1.9470000","distance_km":2.79},{"id":8330,"code_insee":"78073","nom_standard":"Bois-d'Arcy","nom_a":null,"nom_de":null,"slug_ville":"bois-d-arcy","departement_id":679,"code_postal":"78390","population":15435,"superficie_km2":"6.00","latitude_centre":"48.8040009","longitude_centre":"2.0190001","distance_km":3.06},{"id":8349,"code_insee":"78152","nom_standard":"Chavenay","nom_a":null,"nom_de":null,"slug_ville":"chavenay","departement_id":679,"code_postal":"78450","population":1746,"superficie_km2":"6.00","latitude_centre":"48.8479996","longitude_centre":"1.9830000","distance_km":3.23},{"id":8443,"code_insee":"78615","nom_standard":"Thiverval-Grignon","nom_a":null,"nom_de":null,"slug_ville":"thiverval-grignon","departement_id":679,"code_postal":"78850","population":1192,"superficie_km2":"11.00","latitude_centre":"48.8440018","longitude_centre":"1.9340000","distance_km":4.6},{"id":8367,"code_insee":"78242","nom_standard":"Fontenay-le-Fleury","nom_a":null,"nom_de":null,"slug_ville":"fontenay-le-fleury","departement_id":679,"code_postal":"78330","population":13455,"superficie_km2":"6.00","latitude_centre":"48.8180008","longitude_centre":"2.0469999","distance_km":4.61},{"id":8360,"code_insee":"78208","nom_standard":"Élancourt","nom_a":null,"nom_de":null,"slug_ville":"elancourt","departement_id":679,"code_postal":"78990","population":26082,"superficie_km2":"9.00","latitude_centre":"48.7779999","longitude_centre":"1.9600000","distance_km":4.89},{"id":8446,"code_insee":"78621","nom_standard":"Trappes","nom_a":null,"nom_de":null,"slug_ville":"trappes","departement_id":679,"code_postal":"78190","population":33717,"superficie_km2":"14.00","latitude_centre":"48.7750015","longitude_centre":"1.9930000","distance_km":4.94},{"id":8411,"code_insee":"78423","nom_standard":"Montigny-le-Bretonneux","nom_a":null,"nom_de":null,"slug_ville":"montigny-le-bretonneux","departement_id":679,"code_postal":"78180","population":31777,"superficie_km2":"11.00","latitude_centre":"48.7799988","longitude_centre":"2.0300000","distance_km":5.49},{"id":8436,"code_insee":"78571","nom_standard":"Saint-Nom-la-Bretèche","nom_a":null,"nom_de":null,"slug_ville":"saint-nom-la-breteche","departement_id":679,"code_postal":"78860","population":4886,"superficie_km2":"12.00","latitude_centre":"48.8629990","longitude_centre":"2.0190001","distance_km":5.52},{"id":8414,"code_insee":"78442","nom_standard":"Neauphle-le-Château","nom_a":null,"nom_de":null,"slug_ville":"neauphle-le-chateau","departement_id":679,"code_postal":"78640","population":3340,"superficie_km2":"2.00","latitude_centre":"48.8129997","longitude_centre":"1.9050000","distance_km":5.82},{"id":8416,"code_insee":"78455","nom_standard":"Noisy-le-Roi","nom_a":null,"nom_de":null,"slug_ville":"noisy-le-roi","departement_id":679,"code_postal":"78590","population":7631,"superficie_km2":"6.00","latitude_centre":"48.8460007","longitude_centre":"2.0550001","distance_km":6},{"id":8432,"code_insee":"78545","nom_standard":"Saint-Cyr-l'École","nom_a":null,"nom_de":null,"slug_ville":"saint-cyr-l-ecole","departement_id":679,"code_postal":"78210","population":20971,"superficie_km2":"5.00","latitude_centre":"48.8069992","longitude_centre":"2.0660000","distance_km":6.15},{"id":8433,"code_insee":"78550","nom_standard":"Saint-Germain-de-la-Grange","nom_a":null,"nom_de":null,"slug_ville":"saint-germain-de-la-grange","departement_id":679,"code_postal":"78640","population":1841,"superficie_km2":"5.00","latitude_centre":"48.8330002","longitude_centre":"1.9020000","distance_km":6.2},{"id":8381,"code_insee":"78321","nom_standard":"Jouars-Pontchartrain","nom_a":null,"nom_de":null,"slug_ville":"jouars-pontchartrain","departement_id":679,"code_postal":"78760","population":5814,"superficie_km2":"10.00","latitude_centre":"48.7900009","longitude_centre":"1.9080000","distance_km":6.43},{"id":8364,"code_insee":"78233","nom_standard":"Feucherolles","nom_a":null,"nom_de":null,"slug_ville":"feucherolles","departement_id":679,"code_postal":"78810","population":3020,"superficie_km2":"13.00","latitude_centre":"48.8800011","longitude_centre":"1.9800000","distance_km":6.79},{"id":8401,"code_insee":"78383","nom_standard":"Maurepas","nom_a":null,"nom_de":null,"slug_ville":"maurepas","departement_id":679,"code_postal":"78310","population":18611,"superficie_km2":"8.00","latitude_centre":"48.7700005","longitude_centre":"1.9240000","distance_km":7},{"id":8325,"code_insee":"78043","nom_standard":"Bailly","nom_a":null,"nom_de":null,"slug_ville":"bailly","departement_id":679,"code_postal":"78870","population":3650,"superficie_km2":"7.00","latitude_centre":"48.8370018","longitude_centre":"2.0810001","distance_km":7.38},{"id":8457,"code_insee":"78683","nom_standard":"Villiers-Saint-Frédéric","nom_a":null,"nom_de":null,"slug_ville":"villiers-saint-frederic","departement_id":679,"code_postal":"78640","population":3068,"superficie_km2":"5.00","latitude_centre":"48.8199997","longitude_centre":"1.8820000","distance_km":7.47},{"id":8452,"code_insee":"78644","nom_standard":"La Verrière","nom_a":null,"nom_de":null,"slug_ville":"la-verriere","departement_id":679,"code_postal":"78320","population":6183,"superficie_km2":"2.00","latitude_centre":"48.7550011","longitude_centre":"1.9510000","distance_km":7.52}]}