{"ville":{"id":34015,"code_insee":"86130","nom_standard":"Leugny","nom_a":null,"nom_de":null,"slug_ville":"leugny","departement_id":0,"code_postal":"86220","population":362,"superficie_km2":"1572.83","latitude_centre":"46.8996","longitude_centre":"0.6959","dep_code":"86","dep_nom":"Vienne","dep_slug":"vienne","reg_code":"75","reg_nom":"Nouvelle-Aquitaine","reg_slug":"nouvelle-aquitaine"},"departement":{"code":"86","nom":"Vienne","slug":"vienne"},"region":{"code":"75","nom":"Nouvelle-Aquitaine","slug":"nouvelle-aquitaine"},"villes_proches":[{"id":20414,"code_insee":"37114","nom_standard":"La Guerche","nom_a":null,"nom_de":null,"slug_ville":"la-guerche","departement_id":0,"code_postal":"37350","population":174,"superficie_km2":"538.40","latitude_centre":"46.8924","longitude_centre":"0.7259","distance_km":2.42},{"id":0,"code_insee":"86241","nom_standard":"Saint-Rémy-sur-Creuse","nom_a":null,"nom_de":null,"slug_ville":"saint-remy-sur-creuse","departement_id":0,"code_postal":"86220","population":462,"superficie_km2":"1304.41","latitude_centre":"46.9337","longitude_centre":"0.6812","distance_km":3.95},{"id":0,"code_insee":"86143","nom_standard":"Mairé","nom_a":null,"nom_de":null,"slug_ville":"maire","departement_id":0,"code_postal":"86270","population":173,"superficie_km2":"2052.79","latitude_centre":"46.8607","longitude_centre":"0.7195","distance_km":4.68},{"id":0,"code_insee":"37001","nom_standard":"Abilly","nom_a":null,"nom_de":null,"slug_ville":"abilly","departement_id":0,"code_postal":"37160","population":1116,"superficie_km2":"3060.91","latitude_centre":"46.939","longitude_centre":"0.7406","distance_km":5.54},{"id":0,"code_insee":"86186","nom_standard":"Oyré","nom_a":null,"nom_de":null,"slug_ville":"oyre","departement_id":0,"code_postal":"86220","population":962,"superficie_km2":"3325.58","latitude_centre":"46.8603","longitude_centre":"0.646","distance_km":5.79},{"id":20349,"code_insee":"37019","nom_standard":"Barrou","nom_a":null,"nom_de":null,"slug_ville":"barrou","departement_id":0,"code_postal":"37350","population":478,"superficie_km2":"3102.67","latitude_centre":"46.8812","longitude_centre":"0.7743","distance_km":6.3},{"id":0,"code_insee":"86092","nom_standard":"Dangé-Saint-Romain","nom_a":null,"nom_de":null,"slug_ville":"dange-saint-romain","departement_id":0,"code_postal":"86220","population":2959,"superficie_km2":"3487.75","latitude_centre":"46.926","longitude_centre":"0.6063","distance_km":7.41},{"id":0,"code_insee":"86111","nom_standard":"Ingrandes","nom_a":null,"nom_de":null,"slug_ville":"ingrandes","departement_id":0,"code_postal":"86220","population":1709,"superficie_km2":"3511.61","latitude_centre":"46.8703","longitude_centre":"0.606","distance_km":7.57},{"id":33965,"code_insee":"86042","nom_standard":"Buxeuil","nom_a":null,"nom_de":null,"slug_ville":"buxeuil","departement_id":0,"code_postal":"37160","population":887,"superficie_km2":"1202.61","latitude_centre":"46.9687","longitude_centre":"0.6618","distance_km":8.11},{"id":20413,"code_insee":"37113","nom_standard":"Le Grand-Pressigny","nom_a":null,"nom_de":null,"slug_ville":"le-grand-pressigny","departement_id":0,"code_postal":"37350","population":872,"superficie_km2":"4039.57","latitude_centre":"46.9173","longitude_centre":"0.8128","distance_km":9.1},{"id":34014,"code_insee":"86129","nom_standard":"Lésigny","nom_a":null,"nom_de":null,"slug_ville":"lesigny","departement_id":0,"code_postal":"86270","population":524,"superficie_km2":"1314.51","latitude_centre":"46.8346","longitude_centre":"0.7692","distance_km":9.13},{"id":0,"code_insee":"86183","nom_standard":"Les Ormes","nom_a":null,"nom_de":null,"slug_ville":"les-ormes","departement_id":0,"code_postal":"86220","population":1613,"superficie_km2":"2392.96","latitude_centre":"46.965","longitude_centre":"0.621","distance_km":9.23},{"id":33987,"code_insee":"86086","nom_standard":"Coussay-les-Bois","nom_a":null,"nom_de":null,"slug_ville":"coussay-les-bois","departement_id":0,"code_postal":"86270","population":919,"superficie_km2":"4362.68","latitude_centre":"46.8111","longitude_centre":"0.7262","distance_km":10.11},{"id":0,"code_insee":"86279","nom_standard":"Vaux-sur-Vienne","nom_a":null,"nom_de":null,"slug_ville":"vaux-sur-vienne","departement_id":0,"code_postal":"86220","population":538,"superficie_km2":"691.36","latitude_centre":"46.9087","longitude_centre":"0.5631","distance_km":10.14},{"id":20443,"code_insee":"37168","nom_standard":"Neuilly-le-Brignon","nom_a":null,"nom_de":null,"slug_ville":"neuilly-le-brignon","departement_id":0,"code_postal":"37160","population":278,"superficie_km2":"2196.62","latitude_centre":"46.9697","longitude_centre":"0.7827","distance_km":10.21},{"id":0,"code_insee":"37115","nom_standard":"Descartes","nom_a":null,"nom_de":null,"slug_ville":"descartes","departement_id":0,"code_postal":"37160","population":3369,"superficie_km2":"3818.15","latitude_centre":"46.9958","longitude_centre":"0.6871","distance_km":10.72},{"id":0,"code_insee":"86245","nom_standard":"Senillé-Saint-Sauveur","nom_a":null,"nom_de":null,"slug_ville":"senille-saint-sauveur","departement_id":0,"code_postal":"86100","population":1706,"superficie_km2":"5094.63","latitude_centre":"46.7943","longitude_centre":"0.6335","distance_km":12.63},{"id":20430,"code_insee":"37145","nom_standard":"Marcé-sur-Esves","nom_a":null,"nom_de":null,"slug_ville":"marce-sur-esves","departement_id":0,"code_postal":"37160","population":251,"superficie_km2":"1097.33","latitude_centre":"47.0301","longitude_centre":"0.6596","distance_km":14.77},{"id":20388,"code_insee":"37080","nom_standard":"Civray-sur-Esves","nom_a":null,"nom_de":null,"slug_ville":"civray-sur-esves","departement_id":0,"code_postal":"37160","population":212,"superficie_km2":"1330.11","latitude_centre":"47.0346","longitude_centre":"0.7121","distance_km":15.06},{"id":34011,"code_insee":"86125","nom_standard":"Leigné-les-Bois","nom_a":null,"nom_de":null,"slug_ville":"leigne-les-bois","departement_id":0,"code_postal":"86450","population":547,"superficie_km2":"3004.60","latitude_centre":"46.7614","longitude_centre":"0.7072","distance_km":15.39}]}