{"ville":{"id":9644,"code_insee":"92044","nom_standard":"Levallois-Perret","nom_a":null,"nom_de":null,"slug_ville":"levallois-perret","departement_id":693,"code_postal":"92300","population":68009,"superficie_km2":"2.00","latitude_centre":"48.8950005","longitude_centre":"2.2869999","dep_code":"92","dep_nom":"Hauts-de-Seine","dep_slug":"hauts-de-seine","reg_code":"10","reg_nom":"Île-de-France","reg_slug":"ile-de-france"},"departement":{"code":"92","nom":"Hauts-de-Seine","slug":"hauts-de-seine"},"region":{"code":"10","nom":"Île-de-France","slug":"ile-de-france"},"villes_proches":[{"id":9636,"code_insee":"92024","nom_standard":"Clichy","nom_a":null,"nom_de":null,"slug_ville":"clichy","departement_id":693,"code_postal":"92110","population":64849,"superficie_km2":"3.00","latitude_centre":"48.9039993","longitude_centre":"2.3060000","distance_km":1.71},{"id":9650,"code_insee":"92051","nom_standard":"Neuilly-sur-Seine","nom_a":null,"nom_de":null,"slug_ville":"neuilly-sur-seine","departement_id":693,"code_postal":"92200","population":59267,"superficie_km2":"4.00","latitude_centre":"48.8849983","longitude_centre":"2.2660000","distance_km":1.9},{"id":9627,"code_insee":"92004","nom_standard":"Asnières-sur-Seine","nom_a":null,"nom_de":null,"slug_ville":"asnieres-sur-seine","departement_id":693,"code_postal":"92600","population":89662,"superficie_km2":"5.00","latitude_centre":"48.9150009","longitude_centre":"2.2880001","distance_km":2.23},{"id":9638,"code_insee":"92026","nom_standard":"Courbevoie","nom_a":null,"nom_de":null,"slug_ville":"courbevoie","departement_id":693,"code_postal":"92400","population":81516,"superficie_km2":"4.00","latitude_centre":"48.8979988","longitude_centre":"2.2560000","distance_km":2.29},{"id":9629,"code_insee":"92009","nom_standard":"Bois-Colombes","nom_a":null,"nom_de":null,"slug_ville":"bois-colombes","departement_id":693,"code_postal":"92270","population":29765,"superficie_km2":"2.00","latitude_centre":"48.9150009","longitude_centre":"2.2670000","distance_km":2.66},{"id":9641,"code_insee":"92035","nom_standard":"La Garenne-Colombes","nom_a":null,"nom_de":null,"slug_ville":"la-garenne-colombes","departement_id":693,"code_postal":"92250","population":29932,"superficie_km2":"2.00","latitude_centre":"48.9070015","longitude_centre":"2.2449999","distance_km":3.35},{"id":9694,"code_insee":"93070","nom_standard":"Saint-Ouen-sur-Seine","nom_a":null,"nom_de":null,"slug_ville":"saint-ouen-sur-seine","departement_id":694,"code_postal":"93400","population":53207,"superficie_km2":"4.00","latitude_centre":"48.9099999","longitude_centre":"2.3329999","distance_km":3.75},{"id":9652,"code_insee":"92062","nom_standard":"Puteaux","nom_a":null,"nom_de":null,"slug_ville":"puteaux","departement_id":693,"code_postal":"92800","population":43672,"superficie_km2":"3.00","latitude_centre":"48.8839989","longitude_centre":"2.2379999","distance_km":3.79},{"id":9637,"code_insee":"92025","nom_standard":"Colombes","nom_a":null,"nom_de":null,"slug_ville":"colombes","departement_id":693,"code_postal":"92700","population":88870,"superficie_km2":"8.00","latitude_centre":"48.9220009","longitude_centre":"2.2470000","distance_km":4.19},{"id":9642,"code_insee":"92036","nom_standard":"Gennevilliers","nom_a":null,"nom_de":null,"slug_ville":"gennevilliers","departement_id":693,"code_postal":"92230","population":49410,"superficie_km2":"12.00","latitude_centre":"48.9339981","longitude_centre":"2.2939999","distance_km":4.37},{"id":9661,"code_insee":"92078","nom_standard":"Villeneuve-la-Garenne","nom_a":null,"nom_de":null,"slug_ville":"villeneuve-la-garenne","departement_id":693,"code_postal":"92390","population":25371,"superficie_km2":"3.00","latitude_centre":"48.9360008","longitude_centre":"2.3239999","distance_km":5.3},{"id":9657,"code_insee":"92073","nom_standard":"Suresnes","nom_a":null,"nom_de":null,"slug_ville":"suresnes","departement_id":693,"code_postal":"92150","population":49104,"superficie_km2":"4.00","latitude_centre":"48.8699989","longitude_centre":"2.2200000","distance_km":5.63},{"id":9677,"code_insee":"93039","nom_standard":"L'Île-Saint-Denis","nom_a":null,"nom_de":null,"slug_ville":"l-ile-saint-denis","departement_id":694,"code_postal":"93450","population":8664,"superficie_km2":"2.00","latitude_centre":"48.9399986","longitude_centre":"2.3260000","distance_km":5.76},{"id":9649,"code_insee":"92050","nom_standard":"Nanterre","nom_a":null,"nom_de":null,"slug_ville":"nanterre","departement_id":693,"code_postal":"92000","population":97351,"superficie_km2":"12.00","latitude_centre":"48.8959999","longitude_centre":"2.2070000","distance_km":5.85},{"id":7897,"code_insee":"75056","nom_standard":"Paris","nom_a":null,"nom_de":null,"slug_ville":"paris","departement_id":676,"code_postal":"75000","population":2133111,"superficie_km2":"105.00","latitude_centre":"48.8534000","longitude_centre":"2.3488000","distance_km":6.47},{"id":9762,"code_insee":"95063","nom_standard":"Bezons","nom_a":null,"nom_de":null,"slug_ville":"bezons","departement_id":696,"code_postal":"95870","population":32017,"superficie_km2":"4.00","latitude_centre":"48.9259987","longitude_centre":"2.2110000","distance_km":6.54},{"id":9693,"code_insee":"93066","nom_standard":"Saint-Denis","nom_a":null,"nom_de":null,"slug_ville":"saint-denis","departement_id":694,"code_postal":"93210","population":113942,"superficie_km2":"12.00","latitude_centre":"48.9300003","longitude_centre":"2.3590000","distance_km":6.54},{"id":9674,"code_insee":"93031","nom_standard":"Épinay-sur-Seine","nom_a":null,"nom_de":null,"slug_ville":"epinay-sur-seine","departement_id":694,"code_postal":"93800","population":53489,"superficie_km2":"5.00","latitude_centre":"48.9550018","longitude_centre":"2.3139999","distance_km":6.96},{"id":9751,"code_insee":"95018","nom_standard":"Argenteuil","nom_a":null,"nom_de":null,"slug_ville":"argenteuil","departement_id":696,"code_postal":"95100","population":107221,"superficie_km2":"17.00","latitude_centre":"48.9510002","longitude_centre":"2.2409999","distance_km":7.08},{"id":9662,"code_insee":"93001","nom_standard":"Aubervilliers","nom_a":null,"nom_de":null,"slug_ville":"aubervilliers","departement_id":694,"code_postal":"93300","population":90071,"superficie_km2":"6.00","latitude_centre":"48.9119988","longitude_centre":"2.3840001","distance_km":7.34}]}