{"ville":{"id":34463,"code_insee":"88271","nom_standard":"Lignéville","nom_a":null,"nom_de":null,"slug_ville":"ligneville","departement_id":0,"code_postal":"88800","population":298,"superficie_km2":"1253.50","latitude_centre":"48.1618","longitude_centre":"5.9513","dep_code":"88","dep_nom":"Vosges","dep_slug":"vosges","reg_code":"44","reg_nom":"Grand Est","reg_slug":"grand-est"},"departement":{"code":"88","nom":"Vosges","slug":"vosges"},"region":{"code":"44","nom":"Grand Est","slug":"grand-est"},"villes_proches":[{"id":0,"code_insee":"88411","nom_standard":"Saint-Baslemont","nom_a":null,"nom_de":null,"slug_ville":"saint-baslemont","departement_id":0,"code_postal":"88260","population":87,"superficie_km2":"1265.36","latitude_centre":"48.1417","longitude_centre":"5.9941","distance_km":3.88},{"id":34354,"code_insee":"88140","nom_standard":"Dombrot-le-Sec","nom_a":null,"nom_de":null,"slug_ville":"dombrot-le-sec","departement_id":0,"code_postal":"88140","population":355,"superficie_km2":"1898.22","latitude_centre":"48.1452","longitude_centre":"5.8978","distance_km":4.38},{"id":0,"code_insee":"88360","nom_standard":"Provenchères-lès-Darney","nom_a":null,"nom_de":null,"slug_ville":"provencheres-les-darney","departement_id":0,"code_postal":"88260","population":143,"superficie_km2":"906.19","latitude_centre":"48.1216","longitude_centre":"5.9633","distance_km":4.56},{"id":0,"code_insee":"88490","nom_standard":"Valleroy-le-Sec","nom_a":null,"nom_de":null,"slug_ville":"valleroy-le-sec","departement_id":0,"code_postal":"88800","population":190,"superficie_km2":"595.13","latitude_centre":"48.1844","longitude_centre":"6.0027","distance_km":4.57},{"id":0,"code_insee":"88472","nom_standard":"Thuillières","nom_a":null,"nom_de":null,"slug_ville":"thuillieres","departement_id":0,"code_postal":"88260","population":108,"superficie_km2":"752.90","latitude_centre":"48.1514","longitude_centre":"6.0122","distance_km":4.66},{"id":0,"code_insee":"88517","nom_standard":"Viviers-le-Gras","nom_a":null,"nom_de":null,"slug_ville":"viviers-le-gras","departement_id":0,"code_postal":"88260","population":181,"superficie_km2":"913.30","latitude_centre":"48.1215","longitude_centre":"5.931","distance_km":4.73},{"id":0,"code_insee":"88516","nom_standard":"Vittel","nom_a":null,"nom_de":null,"slug_ville":"vittel","departement_id":0,"code_postal":"88800","population":4780,"superficie_km2":"2415.23","latitude_centre":"48.2062","longitude_centre":"5.9552","distance_km":4.95},{"id":0,"code_insee":"88114","nom_standard":"Contrexéville","nom_a":null,"nom_de":null,"slug_ville":"contrexeville","departement_id":0,"code_postal":"88140","population":2923,"superficie_km2":"1504.04","latitude_centre":"48.186","longitude_centre":"5.8906","distance_km":5.24},{"id":0,"code_insee":"88309","nom_standard":"Monthureux-le-Sec","nom_a":null,"nom_de":null,"slug_ville":"monthureux-le-sec","departement_id":0,"code_postal":"88800","population":175,"superficie_km2":"1142.95","latitude_centre":"48.1691","longitude_centre":"6.0254","distance_km":5.56},{"id":34403,"code_insee":"88199","nom_standard":"Gignéville","nom_a":null,"nom_de":null,"slug_ville":"gigneville","departement_id":0,"code_postal":"88320","population":77,"superficie_km2":"560.09","latitude_centre":"48.1127","longitude_centre":"5.9189","distance_km":5.97},{"id":0,"code_insee":"88332","nom_standard":"Norroy","nom_a":null,"nom_de":null,"slug_ville":"norroy","departement_id":0,"code_postal":"88800","population":203,"superficie_km2":"725.12","latitude_centre":"48.2153","longitude_centre":"5.919","distance_km":6.41},{"id":0,"code_insee":"88461","nom_standard":"Suriauville","nom_a":null,"nom_de":null,"slug_ville":"suriauville","departement_id":0,"code_postal":"88140","population":200,"superficie_km2":"1348.58","latitude_centre":"48.168","longitude_centre":"5.8649","distance_km":6.44},{"id":34428,"code_insee":"88231","nom_standard":"Haréville","nom_a":null,"nom_de":null,"slug_ville":"hareville","departement_id":0,"code_postal":"88800","population":465,"superficie_km2":"656.94","latitude_centre":"48.2025","longitude_centre":"6.0188","distance_km":6.75},{"id":0,"code_insee":"88287","nom_standard":"Marey","nom_a":null,"nom_de":null,"slug_ville":"marey","departement_id":0,"code_postal":"88320","population":72,"superficie_km2":"790.07","latitude_centre":"48.1051","longitude_centre":"5.9076","distance_km":7.09},{"id":0,"code_insee":"88381","nom_standard":"Relanges","nom_a":null,"nom_de":null,"slug_ville":"relanges","departement_id":0,"code_postal":"88260","population":189,"superficie_km2":"1388.33","latitude_centre":"48.1105","longitude_centre":"6.0184","distance_km":7.57},{"id":0,"code_insee":"88466","nom_standard":"They-sous-Montfort","nom_a":null,"nom_de":null,"slug_ville":"they-sous-montfort","departement_id":0,"code_postal":"88800","population":121,"superficie_km2":"1032.00","latitude_centre":"48.2297","longitude_centre":"5.9708","distance_km":7.69},{"id":0,"code_insee":"88285","nom_standard":"Mandres-sur-Vair","nom_a":null,"nom_de":null,"slug_ville":"mandres-sur-vair","departement_id":0,"code_postal":"88800","population":421,"superficie_km2":"1200.84","latitude_centre":"48.2212","longitude_centre":"5.8867","distance_km":8.16},{"id":0,"code_insee":"88330","nom_standard":"Nonville","nom_a":null,"nom_de":null,"slug_ville":"nonville","departement_id":0,"code_postal":"88260","population":185,"superficie_km2":"895.30","latitude_centre":"48.0908","longitude_centre":"5.983","distance_km":8.24},{"id":0,"code_insee":"88456","nom_standard":"Serocourt","nom_a":null,"nom_de":null,"slug_ville":"serocourt","departement_id":0,"code_postal":"88320","population":84,"superficie_km2":"1111.38","latitude_centre":"48.0973","longitude_centre":"5.8951","distance_km":8.3},{"id":0,"code_insee":"88434","nom_standard":"Saint-Remimont","nom_a":null,"nom_de":null,"slug_ville":"saint-remimont","departement_id":0,"code_postal":"88800","population":206,"superficie_km2":"462.18","latitude_centre":"48.2413","longitude_centre":"5.9123","distance_km":9.3}]}