{"ville":{"id":15033,"code_insee":"19115","nom_standard":"Ligneyrac","nom_a":null,"nom_de":null,"slug_ville":"ligneyrac","departement_id":0,"code_postal":"19500","population":290,"superficie_km2":"850.04","latitude_centre":"45.0487","longitude_centre":"1.6185","dep_code":"19","dep_nom":"Corrèze","dep_slug":"correze","reg_code":"75","reg_nom":"Nouvelle-Aquitaine","reg_slug":"nouvelle-aquitaine"},"departement":{"code":"19","nom":"Corrèze","slug":"correze"},"region":{"code":"75","nom":"Nouvelle-Aquitaine","slug":"nouvelle-aquitaine"},"villes_proches":[{"id":0,"code_insee":"19179","nom_standard":"Saillac","nom_a":null,"nom_de":null,"slug_ville":"saillac","departement_id":0,"code_postal":"19500","population":214,"superficie_km2":"433.39","latitude_centre":"45.041","longitude_centre":"1.6413","distance_km":1.99},{"id":14987,"code_insee":"19057","nom_standard":"Collonges-la-Rouge","nom_a":null,"nom_de":null,"slug_ville":"collonges-la-rouge","departement_id":0,"code_postal":"19500","population":478,"superficie_km2":"1411.39","latitude_centre":"45.0613","longitude_centre":"1.6539","distance_km":3.11},{"id":0,"code_insee":"19150","nom_standard":"Noailhac","nom_a":null,"nom_de":null,"slug_ville":"noailhac","departement_id":0,"code_postal":"19500","population":348,"superficie_km2":"1357.43","latitude_centre":"45.0792","longitude_centre":"1.6215","distance_km":3.4},{"id":0,"code_insee":"46065","nom_standard":"Cavagnac","nom_a":null,"nom_de":null,"slug_ville":"cavagnac","departement_id":0,"code_postal":"46110","population":432,"superficie_km2":"1033.66","latitude_centre":"45.0145","longitude_centre":"1.6399","distance_km":4.16},{"id":0,"code_insee":"19273","nom_standard":"Turenne","nom_a":null,"nom_de":null,"slug_ville":"turenne","departement_id":0,"code_postal":"19500","population":801,"superficie_km2":"2714.41","latitude_centre":"45.0695","longitude_centre":"1.567","distance_km":4.66},{"id":14980,"code_insee":"19050","nom_standard":"Chauffour-sur-Vell","nom_a":null,"nom_de":null,"slug_ville":"chauffour-sur-vell","departement_id":0,"code_postal":"19500","population":408,"superficie_km2":"732.32","latitude_centre":"45.0202","longitude_centre":"1.6715","distance_km":5.23},{"id":0,"code_insee":"19138","nom_standard":"Meyssac","nom_a":null,"nom_de":null,"slug_ville":"meyssac","departement_id":0,"code_postal":"19500","population":1310,"superficie_km2":"1152.89","latitude_centre":"45.0484","longitude_centre":"1.6867","distance_km":5.36},{"id":0,"code_insee":"46083","nom_standard":"Cressensac-Sarrazac","nom_a":null,"nom_de":null,"slug_ville":"cressensac-sarrazac","departement_id":0,"code_postal":"46600","population":1165,"superficie_km2":"4133.90","latitude_centre":"45.0175","longitude_centre":"1.5499","distance_km":6.41},{"id":0,"code_insee":"46232","nom_standard":"Le Vignon-en-Quercy","nom_a":null,"nom_de":null,"slug_ville":"le-vignon-en-quercy","departement_id":0,"code_postal":"46110","population":955,"superficie_km2":"2167.40","latitude_centre":"44.988","longitude_centre":"1.6083","distance_km":6.8},{"id":15015,"code_insee":"19093","nom_standard":"Jugeals-Nazareth","nom_a":null,"nom_de":null,"slug_ville":"jugeals-nazareth","departement_id":0,"code_postal":"19500","population":943,"superficie_km2":"1123.60","latitude_centre":"45.09","longitude_centre":"1.5517","distance_km":6.97},{"id":15020,"code_insee":"19099","nom_standard":"Lagleygeolle","nom_a":null,"nom_de":null,"slug_ville":"lagleygeolle","departement_id":0,"code_postal":"19500","population":225,"superficie_km2":"1947.59","latitude_centre":"45.0855","longitude_centre":"1.6938","distance_km":7.19},{"id":0,"code_insee":"19217","nom_standard":"Saint-Julien-Maumont","nom_a":null,"nom_de":null,"slug_ville":"saint-julien-maumont","departement_id":0,"code_postal":"19500","population":184,"superficie_km2":"642.11","latitude_centre":"45.0351","longitude_centre":"1.7086","distance_km":7.24},{"id":0,"code_insee":"46074","nom_standard":"Condat","nom_a":null,"nom_de":null,"slug_ville":"condat","departement_id":0,"code_postal":"46110","population":410,"superficie_km2":"612.03","latitude_centre":"44.9915","longitude_centre":"1.6682","distance_km":7.46},{"id":15024,"code_insee":"19105","nom_standard":"Lanteuil","nom_a":null,"nom_de":null,"slug_ville":"lanteuil","departement_id":0,"code_postal":"19190","population":517,"superficie_km2":"2247.69","latitude_centre":"45.1182","longitude_centre":"1.643","distance_km":7.96},{"id":0,"code_insee":"19184","nom_standard":"Saint-Bazile-de-Meyssac","nom_a":null,"nom_de":null,"slug_ville":"saint-bazile-de-meyssac","departement_id":0,"code_postal":"19500","population":142,"superficie_km2":"452.11","latitude_centre":"45.0552","longitude_centre":"1.7252","distance_km":8.41},{"id":0,"code_insee":"46312","nom_standard":"Strenquels","nom_a":null,"nom_de":null,"slug_ville":"strenquels","departement_id":0,"code_postal":"46110","population":258,"superficie_km2":"908.90","latitude_centre":"44.9733","longitude_centre":"1.6377","distance_km":8.52},{"id":14964,"code_insee":"19029","nom_standard":"Branceilles","nom_a":null,"nom_de":null,"slug_ville":"branceilles","departement_id":0,"code_postal":"19500","population":279,"superficie_km2":"1157.93","latitude_centre":"45.0062","longitude_centre":"1.7119","distance_km":8.73},{"id":0,"code_insee":"19063","nom_standard":"Cosnac","nom_a":null,"nom_de":null,"slug_ville":"cosnac","departement_id":0,"code_postal":"19360","population":3044,"superficie_km2":"2030.89","latitude_centre":"45.1301","longitude_centre":"1.5837","distance_km":9.45},{"id":0,"code_insee":"46283","nom_standard":"Saint-Michel-de-Bannières","nom_a":null,"nom_de":null,"slug_ville":"saint-michel-de-bannieres","departement_id":0,"code_postal":"46110","population":354,"superficie_km2":"774.07","latitude_centre":"44.9752","longitude_centre":"1.6826","distance_km":9.6},{"id":14973,"code_insee":"19043","nom_standard":"La Chapelle-aux-Brocs","nom_a":null,"nom_de":null,"slug_ville":"la-chapelle-aux-brocs","departement_id":0,"code_postal":"19360","population":448,"superficie_km2":"500.66","latitude_centre":"45.1427","longitude_centre":"1.6289","distance_km":10.48}]}