{"ville":{"id":31146,"code_insee":"72163","nom_standard":"Ligron","nom_a":null,"nom_de":null,"slug_ville":"ligron","departement_id":0,"code_postal":"72270","population":494,"superficie_km2":"1368.43","latitude_centre":"47.7699","longitude_centre":"-0.0114","dep_code":"72","dep_nom":"Sarthe","dep_slug":"sarthe","reg_code":"52","reg_nom":"Pays de la Loire","reg_slug":"pays-de-la-loire"},"departement":{"code":"72","nom":"Sarthe","slug":"sarthe"},"region":{"code":"52","nom":"Pays de la Loire","slug":"pays-de-la-loire"},"villes_proches":[{"id":31105,"code_insee":"72100","nom_standard":"Courcelles-la-Forêt","nom_a":null,"nom_de":null,"slug_ville":"courcelles-la-foret","departement_id":0,"code_postal":"72270","population":397,"superficie_km2":"1963.48","latitude_centre":"47.7965","longitude_centre":"-0.0239","distance_km":3.1},{"id":31075,"code_insee":"72044","nom_standard":"Bousse","nom_a":null,"nom_de":null,"slug_ville":"bousse","departement_id":0,"code_postal":"72270","population":431,"superficie_km2":"1203.22","latitude_centre":"47.7641","longitude_centre":"-0.065","distance_km":4.06},{"id":0,"code_insee":"72084","nom_standard":"Clermont-Créans","nom_a":null,"nom_de":null,"slug_ville":"clermont-creans","departement_id":0,"code_postal":"72200","population":1293,"superficie_km2":"1814.86","latitude_centre":"47.7292","longitude_centre":"-0.0197","distance_km":4.57},{"id":31129,"code_insee":"72135","nom_standard":"La Fontaine-Saint-Martin","nom_a":null,"nom_de":null,"slug_ville":"la-fontaine-saint-martin","departement_id":0,"code_postal":"72330","population":599,"superficie_km2":"1383.87","latitude_centre":"47.7962","longitude_centre":"0.0484","distance_km":5.34},{"id":0,"code_insee":"72185","nom_standard":"Mareil-sur-Loir","nom_a":null,"nom_de":null,"slug_ville":"mareil-sur-loir","departement_id":0,"code_postal":"72200","population":653,"superficie_km2":"1202.52","latitude_centre":"47.7232","longitude_centre":"0.0065","distance_km":5.36},{"id":0,"code_insee":"72291","nom_standard":"Saint-Jean-de-la-Motte","nom_a":null,"nom_de":null,"slug_ville":"saint-jean-de-la-motte","departement_id":0,"code_postal":"72510","population":955,"superficie_km2":"3244.54","latitude_centre":"47.7557","longitude_centre":"0.0615","distance_km":5.67},{"id":0,"code_insee":"72195","nom_standard":"Mézeray","nom_a":null,"nom_de":null,"slug_ville":"mezeray","departement_id":0,"code_postal":"72270","population":1841,"superficie_km2":"3332.49","latitude_centre":"47.8317","longitude_centre":"-0.0213","distance_km":6.91},{"id":0,"code_insee":"72377","nom_standard":"Villaines-sous-Malicorne","nom_a":null,"nom_de":null,"slug_ville":"villaines-sous-malicorne","departement_id":0,"code_postal":"72270","population":1032,"superficie_km2":"1950.84","latitude_centre":"47.7539","longitude_centre":"-0.1058","distance_km":7.28},{"id":0,"code_insee":"72179","nom_standard":"Malicorne-sur-Sarthe","nom_a":null,"nom_de":null,"slug_ville":"malicorne-sur-sarthe","departement_id":0,"code_postal":"72270","population":1854,"superficie_km2":"1514.55","latitude_centre":"47.8124","longitude_centre":"-0.0874","distance_km":7.39},{"id":31054,"code_insee":"72009","nom_standard":"Arthezé","nom_a":null,"nom_de":null,"slug_ville":"artheze","departement_id":0,"code_postal":"72270","population":350,"superficie_km2":"871.87","latitude_centre":"47.7914","longitude_centre":"-0.1131","distance_km":7.97},{"id":0,"code_insee":"72051","nom_standard":"Cérans-Foulletourte","nom_a":null,"nom_de":null,"slug_ville":"cerans-foulletourte","departement_id":0,"code_postal":"72330","population":3341,"superficie_km2":"3245.17","latitude_centre":"47.8337","longitude_centre":"0.0708","distance_km":9.38},{"id":0,"code_insee":"72154","nom_standard":"La Flèche","nom_a":null,"nom_de":null,"slug_ville":"la-fleche","departement_id":0,"code_postal":"72200","population":14947,"superficie_km2":"7917.72","latitude_centre":"47.6908","longitude_centre":"-0.0605","distance_km":9.53},{"id":0,"code_insee":"72226","nom_standard":"Oizé","nom_a":null,"nom_de":null,"slug_ville":"oize","departement_id":0,"code_postal":"72330","population":1322,"superficie_km2":"1687.84","latitude_centre":"47.8056","longitude_centre":"0.1097","distance_km":9.88},{"id":0,"code_insee":"72293","nom_standard":"Saint-Jean-du-Bois","nom_a":null,"nom_de":null,"slug_ville":"saint-jean-du-bois","departement_id":0,"code_postal":"72430","population":616,"superficie_km2":"1469.08","latitude_centre":"47.8647","longitude_centre":"-0.03","distance_km":10.63},{"id":0,"code_insee":"72175","nom_standard":"Luché-Pringé","nom_a":null,"nom_de":null,"slug_ville":"luche-pringe","departement_id":0,"code_postal":"72800","population":1535,"superficie_km2":"4942.10","latitude_centre":"47.7053","longitude_centre":"0.1019","distance_km":11.11},{"id":31121,"code_insee":"72123","nom_standard":"Dureil","nom_a":null,"nom_de":null,"slug_ville":"dureil","departement_id":0,"code_postal":"72270","population":61,"superficie_km2":"805.89","latitude_centre":"47.8298","longitude_centre":"-0.1333","distance_km":11.28},{"id":0,"code_insee":"72223","nom_standard":"Noyen-sur-Sarthe","nom_a":null,"nom_de":null,"slug_ville":"noyen-sur-sarthe","departement_id":0,"code_postal":"72430","population":2556,"superficie_km2":"4287.92","latitude_centre":"47.8569","longitude_centre":"-0.1031","distance_km":11.85},{"id":0,"code_insee":"72346","nom_standard":"La Suze-sur-Sarthe","nom_a":null,"nom_de":null,"slug_ville":"la-suze-sur-sarthe","departement_id":0,"code_postal":"72210","population":4693,"superficie_km2":"2150.80","latitude_centre":"47.8766","longitude_centre":"0.0243","distance_km":12.16},{"id":0,"code_insee":"72357","nom_standard":"Thorée-les-Pins","nom_a":null,"nom_de":null,"slug_ville":"thoree-les-pins","departement_id":0,"code_postal":"72800","population":744,"superficie_km2":"2813.95","latitude_centre":"47.664","longitude_centre":"0.0385","distance_km":12.35},{"id":31127,"code_insee":"72131","nom_standard":"Fercé-sur-Sarthe","nom_a":null,"nom_de":null,"slug_ville":"ferce-sur-sarthe","departement_id":0,"code_postal":"72430","population":575,"superficie_km2":"1218.19","latitude_centre":"47.8968","longitude_centre":"-0.0329","distance_km":14.2}]}