{"ville":{"id":32250,"code_insee":"77252","nom_standard":"Limoges-Fourches","nom_a":null,"nom_de":null,"slug_ville":"limoges-fourches","departement_id":0,"code_postal":"77550","population":625,"superficie_km2":"797.28","latitude_centre":"48.6257","longitude_centre":"2.6662","dep_code":"77","dep_nom":"Seine-et-Marne","dep_slug":"seine-et-marne","reg_code":"11","reg_nom":"Île-de-France","reg_slug":"ile-de-france"},"departement":{"code":"77","nom":"Seine-et-Marne","slug":"seine-et-marne"},"region":{"code":"11","nom":"Île-de-France","slug":"ile-de-france"},"villes_proches":[{"id":0,"code_insee":"77253","nom_standard":"Lissy","nom_a":null,"nom_de":null,"slug_ville":"lissy","departement_id":0,"code_postal":"77550","population":352,"superficie_km2":"673.41","latitude_centre":"48.6185","longitude_centre":"2.703","distance_km":2.82},{"id":0,"code_insee":"77306","nom_standard":"Montereau-sur-le-Jard","nom_a":null,"nom_de":null,"slug_ville":"montereau-sur-le-jard","departement_id":0,"code_postal":"77950","population":499,"superficie_km2":"1139.77","latitude_centre":"48.5969","longitude_centre":"2.6728","distance_km":3.24},{"id":0,"code_insee":"77175","nom_standard":"Évry-Grégy-sur-Yerre","nom_a":null,"nom_de":null,"slug_ville":"evry-gregy-sur-yerre","departement_id":0,"code_postal":"77166","population":3321,"superficie_km2":"1908.35","latitude_centre":"48.6531","longitude_centre":"2.641","distance_km":3.57},{"id":0,"code_insee":"77384","nom_standard":"Réau","nom_a":null,"nom_de":null,"slug_ville":"reau","departement_id":0,"code_postal":"77550","population":2127,"superficie_km2":"1331.80","latitude_centre":"48.6077","longitude_centre":"2.6249","distance_km":3.64},{"id":0,"code_insee":"77455","nom_standard":"Soignolles-en-Brie","nom_a":null,"nom_de":null,"slug_ville":"soignolles-en-brie","departement_id":0,"code_postal":"77111","population":2021,"superficie_km2":"1077.78","latitude_centre":"48.6465","longitude_centre":"2.7108","distance_km":4.01},{"id":32164,"code_insee":"77081","nom_standard":"Champdeuil","nom_a":null,"nom_de":null,"slug_ville":"champdeuil","departement_id":0,"code_postal":"77390","population":739,"superficie_km2":"401.67","latitude_centre":"48.6223","longitude_centre":"2.7316","distance_km":4.82},{"id":0,"code_insee":"77410","nom_standard":"Saint-Germain-Laxis","nom_a":null,"nom_de":null,"slug_ville":"saint-germain-laxis","departement_id":0,"code_postal":"77950","population":742,"superficie_km2":"721.86","latitude_centre":"48.5895","longitude_centre":"2.7046","distance_km":4.92},{"id":0,"code_insee":"77296","nom_standard":"Moissy-Cramayel","nom_a":null,"nom_de":null,"slug_ville":"moissy-cramayel","departement_id":0,"code_postal":"77550","population":18511,"superficie_km2":"1426.54","latitude_centre":"48.6247","longitude_centre":"2.5958","distance_km":5.18},{"id":0,"code_insee":"77457","nom_standard":"Solers","nom_a":null,"nom_de":null,"slug_ville":"solers","departement_id":0,"code_postal":"77111","population":1336,"superficie_km2":"626.83","latitude_centre":"48.6595","longitude_centre":"2.7261","distance_km":5.79},{"id":0,"code_insee":"77217","nom_standard":"Grisy-Suisnes","nom_a":null,"nom_de":null,"slug_ville":"grisy-suisnes","departement_id":0,"code_postal":"77166","population":2948,"superficie_km2":"1827.15","latitude_centre":"48.68","longitude_centre":"2.6801","distance_km":6.12},{"id":0,"code_insee":"77528","nom_standard":"Voisenon","nom_a":null,"nom_de":null,"slug_ville":"voisenon","departement_id":0,"code_postal":"77950","population":1170,"superficie_km2":"339.75","latitude_centre":"48.5695","longitude_centre":"2.6637","distance_km":6.25},{"id":0,"code_insee":"77127","nom_standard":"Coubert","nom_a":null,"nom_de":null,"slug_ville":"coubert","departement_id":0,"code_postal":"77170","population":2005,"superficie_km2":"838.83","latitude_centre":"48.6782","longitude_centre":"2.7074","distance_km":6.58},{"id":32193,"code_insee":"77145","nom_standard":"Crisenoy","nom_a":null,"nom_de":null,"slug_ville":"crisenoy","departement_id":0,"code_postal":"77390","population":611,"superficie_km2":"1289.27","latitude_centre":"48.6006","longitude_centre":"2.7476","distance_km":6.6},{"id":0,"code_insee":"77394","nom_standard":"Rubelles","nom_a":null,"nom_de":null,"slug_ville":"rubelles","departement_id":0,"code_postal":"77950","population":3537,"superficie_km2":"391.52","latitude_centre":"48.5654","longitude_centre":"2.6808","distance_km":6.79},{"id":0,"code_insee":"77495","nom_standard":"Vert-Saint-Denis","nom_a":null,"nom_de":null,"slug_ville":"vert-saint-denis","departement_id":0,"code_postal":"77240","population":9291,"superficie_km2":"1618.22","latitude_centre":"48.5654","longitude_centre":"2.6266","distance_km":7.31},{"id":0,"code_insee":"77053","nom_standard":"Brie-Comte-Robert","nom_a":null,"nom_de":null,"slug_ville":"brie-comte-robert","departement_id":0,"code_postal":"77170","population":19003,"superficie_km2":"1993.90","latitude_centre":"48.6904","longitude_centre":"2.6131","distance_km":8.18},{"id":0,"code_insee":"77067","nom_standard":"Cesson","nom_a":null,"nom_de":null,"slug_ville":"cesson","departement_id":0,"code_postal":"77240","population":11222,"superficie_km2":"700.49","latitude_centre":"48.5693","longitude_centre":"2.5898","distance_km":8.42},{"id":0,"code_insee":"77269","nom_standard":"Maincy","nom_a":null,"nom_de":null,"slug_ville":"maincy","departement_id":0,"code_postal":"77950","population":1828,"superficie_km2":"1026.75","latitude_centre":"48.5541","longitude_centre":"2.7038","distance_km":8.43},{"id":0,"code_insee":"77288","nom_standard":"Melun","nom_a":null,"nom_de":null,"slug_ville":"melun","departement_id":0,"code_postal":"77000","population":45995,"superficie_km2":"800.45","latitude_centre":"48.5421","longitude_centre":"2.6552","distance_km":9.33},{"id":0,"code_insee":"77285","nom_standard":"Le Mée-sur-Seine","nom_a":null,"nom_de":null,"slug_ville":"le-mee-sur-seine","departement_id":0,"code_postal":"77350","population":19527,"superficie_km2":"556.69","latitude_centre":"48.5401","longitude_centre":"2.6301","distance_km":9.88}]}