{"ville":{"id":9426,"code_insee":"89228","nom_standard":"Lindry","nom_a":null,"nom_de":null,"slug_ville":"lindry","departement_id":690,"code_postal":"89240","population":1354,"superficie_km2":"15.00","latitude_centre":"47.8009987","longitude_centre":"3.4289999","dep_code":"89","dep_nom":"Yonne","dep_slug":"yonne","reg_code":"02","reg_nom":"Bourgogne-Franche-Comté","reg_slug":"bourgogne-franche-comte"},"departement":{"code":"89","nom":"Yonne","slug":"yonne"},"region":{"code":"02","nom":"Bourgogne-Franche-Comté","slug":"bourgogne-franche-comte"},"villes_proches":[{"id":9407,"code_insee":"89083","nom_standard":"Charbuy","nom_a":null,"nom_de":null,"slug_ville":"charbuy","departement_id":690,"code_postal":"89113","population":1863,"superficie_km2":"23.00","latitude_centre":"47.8279991","longitude_centre":"3.4660001","distance_km":4.08},{"id":9436,"code_insee":"89311","nom_standard":"Pourrain","nom_a":null,"nom_de":null,"slug_ville":"pourrain","departement_id":690,"code_postal":"89240","population":1320,"superficie_km2":"24.00","latitude_centre":"47.7659988","longitude_centre":"3.4119999","distance_km":4.09},{"id":9460,"code_insee":"89453","nom_standard":"Villefargeau","nom_a":null,"nom_de":null,"slug_ville":"villefargeau","departement_id":690,"code_postal":"89240","population":1109,"superficie_km2":"14.00","latitude_centre":"47.7879982","longitude_centre":"3.4860001","distance_km":4.5},{"id":9442,"code_insee":"89346","nom_standard":"Saint-Georges-sur-Baulche","nom_a":null,"nom_de":null,"slug_ville":"saint-georges-sur-baulche","departement_id":690,"code_postal":"89000","population":3201,"superficie_km2":"10.00","latitude_centre":"47.8019981","longitude_centre":"3.5170000","distance_km":6.57},{"id":9412,"code_insee":"89102","nom_standard":"Chevannes","nom_a":null,"nom_de":null,"slug_ville":"chevannes","departement_id":690,"code_postal":"89240","population":2153,"superficie_km2":"24.00","latitude_centre":"47.7540016","longitude_centre":"3.4920001","distance_km":7.03},{"id":9417,"code_insee":"89167","nom_standard":"Fleury-la-Vallée","nom_a":null,"nom_de":null,"slug_ville":"fleury-la-vallee","departement_id":690,"code_postal":"89113","population":1050,"superficie_km2":"15.00","latitude_centre":"47.8650017","longitude_centre":"3.4449999","distance_km":7.22},{"id":9434,"code_insee":"89295","nom_standard":"Perrigny","nom_a":null,"nom_de":null,"slug_ville":"perrigny","departement_id":690,"code_postal":"89000","population":1260,"superficie_km2":"13.00","latitude_centre":"47.8260002","longitude_centre":"3.5290000","distance_km":7.97},{"id":9415,"code_insee":"89139","nom_standard":"Diges","nom_a":null,"nom_de":null,"slug_ville":"diges","departement_id":690,"code_postal":"89240","population":1069,"superficie_km2":"36.00","latitude_centre":"47.7200012","longitude_centre":"3.4040000","distance_km":9.2},{"id":9398,"code_insee":"89013","nom_standard":"Appoigny","nom_a":null,"nom_de":null,"slug_ville":"appoigny","departement_id":690,"code_postal":"89380","population":3170,"superficie_km2":"22.00","latitude_centre":"47.8660011","longitude_centre":"3.5200000","distance_km":9.92},{"id":9419,"code_insee":"89196","nom_standard":"Valravillon","nom_a":null,"nom_de":null,"slug_ville":"valravillon","departement_id":690,"code_postal":"89113","population":1755,"superficie_km2":"12.00","latitude_centre":"47.8969994","longitude_centre":"3.4270000","distance_km":10.68},{"id":9397,"code_insee":"89003","nom_standard":"Montholon","nom_a":null,"nom_de":null,"slug_ville":"montholon","departement_id":690,"code_postal":"89710","population":2772,"superficie_km2":"18.00","latitude_centre":"47.8709984","longitude_centre":"3.3280001","distance_km":10.84},{"id":9399,"code_insee":"89024","nom_standard":"Auxerre","nom_a":null,"nom_de":null,"slug_ville":"auxerre","departement_id":690,"code_postal":"89000","population":34778,"superficie_km2":"50.00","latitude_centre":"47.7939987","longitude_centre":"3.5820000","distance_km":11.45},{"id":9453,"code_insee":"89419","nom_standard":"Toucy","nom_a":null,"nom_de":null,"slug_ville":"toucy","departement_id":690,"code_postal":"89130","population":2569,"superficie_km2":"35.00","latitude_centre":"47.7340012","longitude_centre":"3.2939999","distance_km":12.54},{"id":9420,"code_insee":"89198","nom_standard":"Gurgy","nom_a":null,"nom_de":null,"slug_ville":"gurgy","departement_id":690,"code_postal":"89250","population":1690,"superficie_km2":"13.00","latitude_centre":"47.8779984","longitude_centre":"3.5599999","distance_km":13},{"id":9431,"code_insee":"89263","nom_standard":"Monéteau","nom_a":null,"nom_de":null,"slug_ville":"moneteau","departement_id":690,"code_postal":"89470","population":4111,"superficie_km2":"19.00","latitude_centre":"47.8489990","longitude_centre":"3.5880001","distance_km":13.02},{"id":9406,"code_insee":"89077","nom_standard":"Champs-sur-Yonne","nom_a":null,"nom_de":null,"slug_ville":"champs-sur-yonne","departement_id":690,"code_postal":"89290","population":1555,"superficie_km2":"4.00","latitude_centre":"47.7509995","longitude_centre":"3.6020000","distance_km":14.07},{"id":9408,"code_insee":"89085","nom_standard":"Charmoy","nom_a":null,"nom_de":null,"slug_ville":"charmoy","departement_id":690,"code_postal":"89400","population":1104,"superficie_km2":"7.00","latitude_centre":"47.9420013","longitude_centre":"3.4940000","distance_km":16.41},{"id":9446,"code_insee":"89382","nom_standard":"Seignelay","nom_a":null,"nom_de":null,"slug_ville":"seignelay","departement_id":690,"code_postal":"89250","population":1443,"superficie_km2":"14.00","latitude_centre":"47.9020004","longitude_centre":"3.5940001","distance_km":16.66},{"id":9455,"code_insee":"89438","nom_standard":"Venoy","nom_a":null,"nom_de":null,"slug_ville":"venoy","departement_id":690,"code_postal":"89290","population":1747,"superficie_km2":"23.00","latitude_centre":"47.8059998","longitude_centre":"3.6540000","distance_km":16.81},{"id":9410,"code_insee":"89099","nom_standard":"Cheny","nom_a":null,"nom_de":null,"slug_ville":"cheny","departement_id":690,"code_postal":"89400","population":2265,"superficie_km2":"10.00","latitude_centre":"47.9449997","longitude_centre":"3.5369999","distance_km":17.92}]}