{"ville":{"id":24354,"code_insee":"53135","nom_standard":"Livré-la-Touche","nom_a":null,"nom_de":null,"slug_ville":"livre-la-touche","departement_id":0,"code_postal":"53400","population":729,"superficie_km2":"3006.84","latitude_centre":"47.8906","longitude_centre":"-0.995","dep_code":"53","dep_nom":"Mayenne","dep_slug":"mayenne","reg_code":"52","reg_nom":"Pays de la Loire","reg_slug":"pays-de-la-loire"},"departement":{"code":"53","nom":"Mayenne","slug":"mayenne"},"region":{"code":"52","nom":"Pays de la Loire","slug":"pays-de-la-loire"},"villes_proches":[{"id":24274,"code_insee":"53012","nom_standard":"Athée","nom_a":null,"nom_de":null,"slug_ville":"athee","departement_id":0,"code_postal":"53400","population":451,"superficie_km2":"1729.52","latitude_centre":"47.8868","longitude_centre":"-0.9335","distance_km":4.61},{"id":0,"code_insee":"53018","nom_standard":"Ballots","nom_a":null,"nom_de":null,"slug_ville":"ballots","departement_id":0,"code_postal":"53350","population":1278,"superficie_km2":"3606.05","latitude_centre":"47.9026","longitude_centre":"-1.0561","distance_km":4.75},{"id":0,"code_insee":"53165","nom_standard":"Niafles","nom_a":null,"nom_de":null,"slug_ville":"niafles","departement_id":0,"code_postal":"53400","population":344,"superficie_km2":"798.23","latitude_centre":"47.846","longitude_centre":"-1.0003","distance_km":4.98},{"id":0,"code_insee":"53084","nom_standard":"Craon","nom_a":null,"nom_de":null,"slug_ville":"craon","departement_id":0,"code_postal":"53400","population":4431,"superficie_km2":"2432.25","latitude_centre":"47.8431","longitude_centre":"-0.9396","distance_km":6.71},{"id":24304,"code_insee":"53058","nom_standard":"La Chapelle-Craonnaise","nom_a":null,"nom_de":null,"slug_ville":"la-chapelle-craonnaise","departement_id":0,"code_postal":"53230","population":308,"superficie_km2":"1047.72","latitude_centre":"47.8998","longitude_centre":"-0.9044","distance_km":6.83},{"id":0,"code_insee":"53258","nom_standard":"La Selle-Craonnaise","nom_a":null,"nom_de":null,"slug_ville":"la-selle-craonnaise","departement_id":0,"code_postal":"53800","population":895,"superficie_km2":"2937.82","latitude_centre":"47.8446","longitude_centre":"-1.0591","distance_km":7.0},{"id":0,"code_insee":"53151","nom_standard":"Méral","nom_a":null,"nom_de":null,"slug_ville":"meral","departement_id":0,"code_postal":"53230","population":1053,"superficie_km2":"2970.08","latitude_centre":"47.9549","longitude_centre":"-1.0187","distance_km":7.36},{"id":0,"code_insee":"53077","nom_standard":"Cossé-le-Vivien","nom_a":null,"nom_de":null,"slug_ville":"cosse-le-vivien","departement_id":0,"code_postal":"53230","population":3174,"superficie_km2":"4488.65","latitude_centre":"47.9452","longitude_centre":"-0.9284","distance_km":7.84},{"id":0,"code_insee":"53191","nom_standard":"La Roë","nom_a":null,"nom_de":null,"slug_ville":"la-roe","departement_id":0,"code_postal":"53350","population":248,"superficie_km2":"877.34","latitude_centre":"47.8932","longitude_centre":"-1.1072","distance_km":8.37},{"id":24348,"code_insee":"53128","nom_standard":"Laubrières","nom_a":null,"nom_de":null,"slug_ville":"laubrieres","departement_id":0,"code_postal":"53540","population":324,"superficie_km2":"854.20","latitude_centre":"47.9478","longitude_centre":"-1.0691","distance_km":8.42},{"id":24327,"code_insee":"53090","nom_standard":"Denazé","nom_a":null,"nom_de":null,"slug_ville":"denaze","departement_id":0,"code_postal":"53400","population":194,"superficie_km2":"927.02","latitude_centre":"47.8818","longitude_centre":"-0.881","distance_km":8.56},{"id":0,"code_insee":"53240","nom_standard":"Saint-Martin-du-Limet","nom_a":null,"nom_de":null,"slug_ville":"saint-martin-du-limet","departement_id":0,"code_postal":"53800","population":420,"superficie_km2":"1230.24","latitude_centre":"47.8143","longitude_centre":"-1.0294","distance_km":8.86},{"id":0,"code_insee":"53250","nom_standard":"Saint-Poix","nom_a":null,"nom_de":null,"slug_ville":"saint-poix","departement_id":0,"code_postal":"53540","population":383,"superficie_km2":"749.20","latitude_centre":"47.9646","longitude_centre":"-1.0472","distance_km":9.1},{"id":24287,"code_insee":"53035","nom_standard":"Bouchamps-lès-Craon","nom_a":null,"nom_de":null,"slug_ville":"bouchamps-les-craon","departement_id":0,"code_postal":"53800","population":595,"superficie_km2":"1815.46","latitude_centre":"47.8075","longitude_centre":"-0.9851","distance_km":9.27},{"id":0,"code_insee":"53180","nom_standard":"Pommerieux","nom_a":null,"nom_de":null,"slug_ville":"pommerieux","departement_id":0,"code_postal":"53400","population":667,"superficie_km2":"2311.77","latitude_centre":"47.832","longitude_centre":"-0.8999","distance_km":9.63},{"id":0,"code_insee":"53253","nom_standard":"Saint-Saturnin-du-Limet","nom_a":null,"nom_de":null,"slug_ville":"saint-saturnin-du-limet","departement_id":0,"code_postal":"53800","population":515,"superficie_km2":"1071.46","latitude_centre":"47.8135","longitude_centre":"-1.0915","distance_km":11.2},{"id":24310,"code_insee":"53068","nom_standard":"Chérancé","nom_a":null,"nom_de":null,"slug_ville":"cherance","departement_id":0,"code_postal":"53400","population":155,"superficie_km2":"871.55","latitude_centre":"47.8006","longitude_centre":"-0.9265","distance_km":11.24},{"id":24281,"code_insee":"53026","nom_standard":"Beaulieu-sur-Oudon","nom_a":null,"nom_de":null,"slug_ville":"beaulieu-sur-oudon","departement_id":0,"code_postal":"53320","population":483,"superficie_km2":"2019.90","latitude_centre":"47.9941","longitude_centre":"-0.9848","distance_km":11.53},{"id":0,"code_insee":"53188","nom_standard":"Renazé","nom_a":null,"nom_de":null,"slug_ville":"renaze","departement_id":0,"code_postal":"53800","population":2504,"superficie_km2":"1676.21","latitude_centre":"47.7846","longitude_centre":"-1.0363","distance_km":12.18},{"id":24286,"code_insee":"53033","nom_standard":"La Boissière","nom_a":null,"nom_de":null,"slug_ville":"la-boissiere","departement_id":0,"code_postal":"53800","population":115,"superficie_km2":"631.35","latitude_centre":"47.773","longitude_centre":"-0.9788","distance_km":13.13}]}