{"ville":{"id":20995,"code_insee":"39299","nom_standard":"Longwy-sur-le-Doubs","nom_a":null,"nom_de":null,"slug_ville":"longwy-sur-le-doubs","departement_id":0,"code_postal":"39120","population":496,"superficie_km2":"1718.01","latitude_centre":"46.9619","longitude_centre":"5.3529","dep_code":"39","dep_nom":"Jura","dep_slug":"jura","reg_code":"27","reg_nom":"Bourgogne-Franche-Comté","reg_slug":"bourgogne-franche-comte"},"departement":{"code":"39","nom":"Jura","slug":"jura"},"region":{"code":"27","nom":"Bourgogne-Franche-Comté","slug":"bourgogne-franche-comte"},"villes_proches":[{"id":20871,"code_insee":"39138","nom_standard":"Chemin","nom_a":null,"nom_de":null,"slug_ville":"chemin","departement_id":0,"code_postal":"39120","population":312,"superficie_km2":"927.20","latitude_centre":"46.9758","longitude_centre":"5.3171","distance_km":3.13},{"id":0,"code_insee":"39412","nom_standard":"Peseux","nom_a":null,"nom_de":null,"slug_ville":"peseux","departement_id":0,"code_postal":"39120","population":293,"superficie_km2":"549.71","latitude_centre":"46.9922","longitude_centre":"5.3644","distance_km":3.48},{"id":0,"code_insee":"39415","nom_standard":"Petit-Noir","nom_a":null,"nom_de":null,"slug_ville":"petit-noir","departement_id":0,"code_postal":"39120","population":1056,"superficie_km2":"2106.74","latitude_centre":"46.9292","longitude_centre":"5.3377","distance_km":3.81},{"id":0,"code_insee":"39128","nom_standard":"Chaussin","nom_a":null,"nom_de":null,"slug_ville":"chaussin","departement_id":0,"code_postal":"39120","population":1606,"superficie_km2":"1600.41","latitude_centre":"46.9743","longitude_centre":"5.4046","distance_km":4.16},{"id":20779,"code_insee":"39022","nom_standard":"Asnans-Beauvoisin","nom_a":null,"nom_de":null,"slug_ville":"asnans-beauvoisin","departement_id":0,"code_postal":"39120","population":713,"superficie_km2":"1638.41","latitude_centre":"46.9385","longitude_centre":"5.4001","distance_km":4.43},{"id":0,"code_insee":"39490","nom_standard":"Saint-Loup","nom_a":null,"nom_de":null,"slug_ville":"saint-loup","departement_id":0,"code_postal":"39120","population":248,"superficie_km2":"959.29","latitude_centre":"46.9954","longitude_centre":"5.3122","distance_km":4.84},{"id":20772,"code_insee":"39011","nom_standard":"Annoire","nom_a":null,"nom_de":null,"slug_ville":"annoire","departement_id":0,"code_postal":"39120","population":423,"superficie_km2":"1564.57","latitude_centre":"46.9585","longitude_centre":"5.2796","distance_km":5.58},{"id":20839,"code_insee":"39099","nom_standard":"Champdivers","nom_a":null,"nom_de":null,"slug_ville":"champdivers","departement_id":0,"code_postal":"39500","population":445,"superficie_km2":"771.29","latitude_centre":"47.0084","longitude_centre":"5.3888","distance_km":5.84},{"id":0,"code_insee":"71207","nom_standard":"Fretterans","nom_a":null,"nom_de":null,"slug_ville":"fretterans","departement_id":0,"code_postal":"71270","population":281,"superficie_km2":"1048.12","latitude_centre":"46.9244","longitude_centre":"5.2867","distance_km":6.53},{"id":0,"code_insee":"39385","nom_standard":"Neublans-Abergement","nom_a":null,"nom_de":null,"slug_ville":"neublans-abergement","departement_id":0,"code_postal":"39120","population":536,"superficie_km2":"1110.87","latitude_centre":"46.9032","longitude_centre":"5.3444","distance_km":6.56},{"id":20967,"code_insee":"39266","nom_standard":"Les Hays","nom_a":null,"nom_de":null,"slug_ville":"les-hays","departement_id":0,"code_postal":"39120","population":362,"superficie_km2":"688.35","latitude_centre":"46.9078","longitude_centre":"5.3914","distance_km":6.69},{"id":0,"code_insee":"39477","nom_standard":"Saint-Baraing","nom_a":null,"nom_de":null,"slug_ville":"saint-baraing","departement_id":0,"code_postal":"39120","population":257,"superficie_km2":"633.41","latitude_centre":"46.9859","longitude_centre":"5.437","distance_km":6.92},{"id":15727,"code_insee":"21637","nom_standard":"Tichey","nom_a":null,"nom_de":null,"slug_ville":"tichey","departement_id":0,"code_postal":"21250","population":208,"superficie_km2":"689.26","latitude_centre":"47.0128","longitude_centre":"5.2931","distance_km":7.25},{"id":20832,"code_insee":"39090","nom_standard":"Chaînée-des-Coupis","nom_a":null,"nom_de":null,"slug_ville":"chainee-des-coupis","departement_id":0,"code_postal":"39120","population":183,"superficie_km2":"521.61","latitude_centre":"46.9213","longitude_centre":"5.4341","distance_km":7.64},{"id":0,"code_insee":"39476","nom_standard":"Saint-Aubin","nom_a":null,"nom_de":null,"slug_ville":"saint-aubin","departement_id":0,"code_postal":"39410","population":1871,"superficie_km2":"3379.40","latitude_centre":"47.031","longitude_centre":"5.3354","distance_km":7.8},{"id":20927,"code_insee":"39211","nom_standard":"Les Essards-Taignevaux","nom_a":null,"nom_de":null,"slug_ville":"les-essards-taignevaux","departement_id":0,"code_postal":"39120","population":248,"superficie_km2":"545.79","latitude_centre":"46.904","longitude_centre":"5.414","distance_km":7.94},{"id":0,"code_insee":"39338","nom_standard":"Molay","nom_a":null,"nom_de":null,"slug_ville":"molay","departement_id":0,"code_postal":"39500","population":505,"superficie_km2":"639.06","latitude_centre":"47.0155","longitude_centre":"5.4228","distance_km":7.98},{"id":0,"code_insee":"71013","nom_standard":"Authumes","nom_a":null,"nom_de":null,"slug_ville":"authumes","departement_id":0,"code_postal":"71270","population":285,"superficie_km2":"1291.00","latitude_centre":"46.8849","longitude_centre":"5.307","distance_km":9.24},{"id":0,"code_insee":"39526","nom_standard":"Tavaux","nom_a":null,"nom_de":null,"slug_ville":"tavaux","departement_id":0,"code_postal":"39500","population":3888,"superficie_km2":"1399.38","latitude_centre":"47.0396","longitude_centre":"5.4026","distance_km":9.43},{"id":20785,"code_insee":"39029","nom_standard":"Aumur","nom_a":null,"nom_de":null,"slug_ville":"aumur","departement_id":0,"code_postal":"39410","population":393,"superficie_km2":"916.22","latitude_centre":"47.0609","longitude_centre":"5.333","distance_km":11.11}]}