{"ville":{"id":11999,"code_insee":"08259","nom_standard":"Longwé","nom_a":null,"nom_de":null,"slug_ville":"longwe","departement_id":0,"code_postal":"08400","population":64,"superficie_km2":"1080.12","latitude_centre":"49.3862","longitude_centre":"4.797","dep_code":"08","dep_nom":"Ardennes","dep_slug":"ardennes","reg_code":"44","reg_nom":"Grand Est","reg_slug":"grand-est"},"departement":{"code":"08","nom":"Ardennes","slug":"ardennes"},"region":{"code":"44","nom":"Grand Est","slug":"grand-est"},"villes_proches":[{"id":11901,"code_insee":"08135","nom_standard":"La Croix-aux-Bois","nom_a":null,"nom_de":null,"slug_ville":"la-croix-aux-bois","departement_id":0,"code_postal":"08400","population":168,"superficie_km2":"587.05","latitude_centre":"49.4061","longitude_centre":"4.7899","distance_km":2.27},{"id":0,"code_insee":"08333","nom_standard":"Olizy-Primat","nom_a":null,"nom_de":null,"slug_ville":"olizy-primat","departement_id":0,"code_postal":"08250","population":223,"superficie_km2":"2141.18","latitude_centre":"49.3568","longitude_centre":"4.7845","distance_km":3.39},{"id":11924,"code_insee":"08164","nom_standard":"Falaise","nom_a":null,"nom_de":null,"slug_ville":"falaise","departement_id":0,"code_postal":"08400","population":346,"superficie_km2":"949.24","latitude_centre":"49.3815","longitude_centre":"4.7441","distance_km":3.86},{"id":0,"code_insee":"08453","nom_standard":"Toges","nom_a":null,"nom_de":null,"slug_ville":"toges","departement_id":0,"code_postal":"08400","population":90,"superficie_km2":"349.25","latitude_centre":"49.4256","longitude_centre":"4.785","distance_km":4.47},{"id":11855,"code_insee":"08075","nom_standard":"Boult-aux-Bois","nom_a":null,"nom_de":null,"slug_ville":"boult-aux-bois","departement_id":0,"code_postal":"08240","population":157,"superficie_km2":"1516.49","latitude_centre":"49.4171","longitude_centre":"4.8365","distance_km":4.47},{"id":11832,"code_insee":"08045","nom_standard":"Ballay","nom_a":null,"nom_de":null,"slug_ville":"ballay","departement_id":0,"code_postal":"08400","population":242,"superficie_km2":"1039.90","latitude_centre":"49.4232","longitude_centre":"4.756","distance_km":5.07},{"id":11864,"code_insee":"08086","nom_standard":"Briquenay","nom_a":null,"nom_de":null,"slug_ville":"briquenay","departement_id":0,"code_postal":"08240","population":89,"superficie_km2":"1451.16","latitude_centre":"49.4029","longitude_centre":"4.8699","distance_km":5.59},{"id":11949,"code_insee":"08198","nom_standard":"Grandpré","nom_a":null,"nom_de":null,"slug_ville":"grandpre","departement_id":0,"code_postal":"08250","population":503,"superficie_km2":"4232.05","latitude_centre":"49.3532","longitude_centre":"4.8568","distance_km":5.68},{"id":0,"code_insee":"08406","nom_standard":"Savigny-sur-Aisne","nom_a":null,"nom_de":null,"slug_ville":"savigny-sur-aisne","departement_id":0,"code_postal":"08400","population":334,"superficie_km2":"1032.32","latitude_centre":"49.36","longitude_centre":"4.7211","distance_km":6.22},{"id":11860,"code_insee":"08082","nom_standard":"Brécy-Brières","nom_a":null,"nom_de":null,"slug_ville":"brecy-brieres","departement_id":0,"code_postal":"08400","population":73,"superficie_km2":"874.62","latitude_centre":"49.3358","longitude_centre":"4.7585","distance_km":6.26},{"id":0,"code_insee":"08350","nom_standard":"Quatre-Champs","nom_a":null,"nom_de":null,"slug_ville":"quatre-champs","departement_id":0,"code_postal":"08400","population":241,"superficie_km2":"1154.45","latitude_centre":"49.4488","longitude_centre":"4.7794","distance_km":7.08},{"id":0,"code_insee":"08490","nom_standard":"Vouziers","nom_a":null,"nom_de":null,"slug_ville":"vouziers","departement_id":0,"code_postal":"08400","population":3825,"superficie_km2":"4257.14","latitude_centre":"49.4194","longitude_centre":"4.7073","distance_km":7.47},{"id":0,"code_insee":"08310","nom_standard":"Mouron","nom_a":null,"nom_de":null,"slug_ville":"mouron","departement_id":0,"code_postal":"08250","population":78,"superficie_km2":"639.36","latitude_centre":"49.3161","longitude_centre":"4.7817","distance_km":7.87},{"id":11939,"code_insee":"08186","nom_standard":"Germont","nom_a":null,"nom_de":null,"slug_ville":"germont","departement_id":0,"code_postal":"08240","population":51,"superficie_km2":"488.97","latitude_centre":"49.4338","longitude_centre":"4.8778","distance_km":7.89},{"id":0,"code_insee":"08325","nom_standard":"Noirval","nom_a":null,"nom_de":null,"slug_ville":"noirval","departement_id":0,"code_postal":"08400","population":28,"superficie_km2":"492.14","latitude_centre":"49.4573","longitude_centre":"4.7948","distance_km":7.91},{"id":0,"code_insee":"08461","nom_standard":"Vandy","nom_a":null,"nom_de":null,"slug_ville":"vandy","departement_id":0,"code_postal":"08400","population":204,"superficie_km2":"1118.30","latitude_centre":"49.4428","longitude_centre":"4.7195","distance_km":8.43},{"id":11840,"code_insee":"08057","nom_standard":"Belleville-et-Châtillon-sur-Bar","nom_a":null,"nom_de":null,"slug_ville":"belleville-et-chatillon-sur-bar","departement_id":0,"code_postal":"08240","population":240,"superficie_km2":"2142.22","latitude_centre":"49.4624","longitude_centre":"4.8178","distance_km":8.61},{"id":0,"code_insee":"08412","nom_standard":"Senuc","nom_a":null,"nom_de":null,"slug_ville":"senuc","departement_id":0,"code_postal":"08250","population":153,"superficie_km2":"1353.91","latitude_centre":"49.3082","longitude_centre":"4.8438","distance_km":9.31},{"id":11872,"code_insee":"08097","nom_standard":"Challerange","nom_a":null,"nom_de":null,"slug_ville":"challerange","departement_id":0,"code_postal":"08400","population":417,"superficie_km2":"1104.48","latitude_centre":"49.3085","longitude_centre":"4.7441","distance_km":9.45},{"id":0,"code_insee":"08464","nom_standard":"Vaux-lès-Mouron","nom_a":null,"nom_de":null,"slug_ville":"vaux-les-mouron","departement_id":0,"code_postal":"08250","population":77,"superficie_km2":"223.01","latitude_centre":"49.2976","longitude_centre":"4.787","distance_km":9.88}]}