{"ville":{"id":34466,"code_insee":"88274","nom_standard":"Longchamp-sous-Châtenois","nom_a":null,"nom_de":null,"slug_ville":"longchamp-sous-chatenois","departement_id":0,"code_postal":"88170","population":82,"superficie_km2":"495.05","latitude_centre":"48.2868","longitude_centre":"5.8346","dep_code":"88","dep_nom":"Vosges","dep_slug":"vosges","reg_code":"44","reg_nom":"Grand Est","reg_slug":"grand-est"},"departement":{"code":"88","nom":"Vosges","slug":"vosges"},"region":{"code":"44","nom":"Grand Est","slug":"grand-est"},"villes_proches":[{"id":34342,"code_insee":"88125","nom_standard":"Darney-aux-Chênes","nom_a":null,"nom_de":null,"slug_ville":"darney-aux-chenes","departement_id":0,"code_postal":"88170","population":59,"superficie_km2":"247.58","latitude_centre":"48.2832","longitude_centre":"5.8101","distance_km":1.86},{"id":0,"code_insee":"88095","nom_standard":"Châtenois","nom_a":null,"nom_de":null,"slug_ville":"chatenois","departement_id":0,"code_postal":"88170","population":1723,"superficie_km2":"1761.35","latitude_centre":"48.3119","longitude_centre":"5.8251","distance_km":2.88},{"id":0,"code_insee":"88324","nom_standard":"La Neuveville-sous-Châtenois","nom_a":null,"nom_de":null,"slug_ville":"la-neuveville-sous-chatenois","departement_id":0,"code_postal":"88170","population":363,"superficie_km2":"744.57","latitude_centre":"48.2862","longitude_centre":"5.874","distance_km":2.92},{"id":0,"code_insee":"88440","nom_standard":"Sandaucourt","nom_a":null,"nom_de":null,"slug_ville":"sandaucourt","departement_id":0,"code_postal":"88170","population":181,"superficie_km2":"1082.68","latitude_centre":"48.2609","longitude_centre":"5.846","distance_km":3.0},{"id":0,"code_insee":"88336","nom_standard":"Ollainville","nom_a":null,"nom_de":null,"slug_ville":"ollainville","departement_id":0,"code_postal":"88170","population":72,"superficie_km2":"631.91","latitude_centre":"48.2701","longitude_centre":"5.8026","distance_km":3.01},{"id":0,"code_insee":"88401","nom_standard":"Rouvres-la-Chétive","nom_a":null,"nom_de":null,"slug_ville":"rouvres-la-chetive","departement_id":0,"code_postal":"88170","population":468,"superficie_km2":"1130.94","latitude_centre":"48.3048","longitude_centre":"5.7783","distance_km":4.62},{"id":34335,"code_insee":"88117","nom_standard":"Courcelles-sous-Châtenois","nom_a":null,"nom_de":null,"slug_ville":"courcelles-sous-chatenois","departement_id":0,"code_postal":"88170","population":74,"superficie_km2":"237.96","latitude_centre":"48.3269","longitude_centre":"5.8147","distance_km":4.7},{"id":34436,"code_insee":"88241","nom_standard":"Houécourt","nom_a":null,"nom_de":null,"slug_ville":"houecourt","departement_id":0,"code_postal":"88170","population":421,"superficie_km2":"987.97","latitude_centre":"48.2915","longitude_centre":"5.8977","distance_km":4.7},{"id":34255,"code_insee":"88017","nom_standard":"Aulnois","nom_a":null,"nom_de":null,"slug_ville":"aulnois","departement_id":0,"code_postal":"88300","population":159,"superficie_km2":"442.99","latitude_centre":"48.2617","longitude_centre":"5.7787","distance_km":4.99},{"id":0,"code_insee":"88514","nom_standard":"Viocourt","nom_a":null,"nom_de":null,"slug_ville":"viocourt","departement_id":0,"code_postal":"88170","population":165,"superficie_km2":"479.34","latitude_centre":"48.3242","longitude_centre":"5.8724","distance_km":5.01},{"id":34355,"code_insee":"88141","nom_standard":"Dombrot-sur-Vair","nom_a":null,"nom_de":null,"slug_ville":"dombrot-sur-vair","departement_id":0,"code_postal":"88170","population":239,"superficie_km2":"913.98","latitude_centre":"48.2659","longitude_centre":"5.9007","distance_km":5.42},{"id":34267,"code_insee":"88031","nom_standard":"Balléville","nom_a":null,"nom_de":null,"slug_ville":"balleville","departement_id":0,"code_postal":"88170","population":97,"superficie_km2":"627.51","latitude_centre":"48.3363","longitude_centre":"5.8467","distance_km":5.58},{"id":34259,"code_insee":"88022","nom_standard":"Auzainvilliers","nom_a":null,"nom_de":null,"slug_ville":"auzainvilliers","departement_id":0,"code_postal":"88140","population":191,"superficie_km2":"823.85","latitude_centre":"48.2375","longitude_centre":"5.8559","distance_km":5.7},{"id":34424,"code_insee":"88227","nom_standard":"Hagnéville-et-Roncourt","nom_a":null,"nom_de":null,"slug_ville":"hagneville-et-roncourt","departement_id":0,"code_postal":"88300","population":78,"superficie_km2":"855.51","latitude_centre":"48.2459","longitude_centre":"5.7871","distance_km":5.75},{"id":34351,"code_insee":"88137","nom_standard":"Dolaincourt","nom_a":null,"nom_de":null,"slug_ville":"dolaincourt","departement_id":0,"code_postal":"88170","population":85,"superficie_km2":"262.10","latitude_centre":"48.3405","longitude_centre":"5.8085","distance_km":6.28},{"id":0,"code_insee":"88431","nom_standard":"Saint-Paul","nom_a":null,"nom_de":null,"slug_ville":"saint-paul","departement_id":0,"code_postal":"88170","population":145,"superficie_km2":"493.46","latitude_centre":"48.3317","longitude_centre":"5.888","distance_km":6.37},{"id":0,"code_insee":"88316","nom_standard":"Morville","nom_a":null,"nom_de":null,"slug_ville":"morville","departement_id":0,"code_postal":"88140","population":42,"superficie_km2":"345.54","latitude_centre":"48.234","longitude_centre":"5.7951","distance_km":6.56},{"id":0,"code_insee":"88523","nom_standard":"Vouxey","nom_a":null,"nom_de":null,"slug_ville":"vouxey","departement_id":0,"code_postal":"88170","population":172,"superficie_km2":"2328.01","latitude_centre":"48.3455","longitude_centre":"5.7951","distance_km":7.15},{"id":0,"code_insee":"88496","nom_standard":"Vaudoncourt","nom_a":null,"nom_de":null,"slug_ville":"vaudoncourt","departement_id":0,"code_postal":"88140","population":146,"superficie_km2":"575.32","latitude_centre":"48.2223","longitude_centre":"5.8035","distance_km":7.53},{"id":0,"code_insee":"88079","nom_standard":"Bulgnéville","nom_a":null,"nom_de":null,"slug_ville":"bulgneville","departement_id":0,"code_postal":"88140","population":1516,"superficie_km2":"1334.67","latitude_centre":"48.212","longitude_centre":"5.8412","distance_km":8.33}]}