{"ville":{"id":7569,"code_insee":"72168","nom_standard":"Loué","nom_a":null,"nom_de":null,"slug_ville":"loue","departement_id":673,"code_postal":"72540","population":2050,"superficie_km2":"16.00","latitude_centre":"47.9980011","longitude_centre":"-0.1380000","dep_code":"72","dep_nom":"Sarthe","dep_slug":"sarthe","reg_code":"17","reg_nom":"Pays de la Loire","reg_slug":"pays-de-la-loire"},"departement":{"code":"72","nom":"Sarthe","slug":"sarthe"},"region":{"code":"17","nom":"Pays de la Loire","slug":"pays-de-la-loire"},"villes_proches":[{"id":7534,"code_insee":"72050","nom_standard":"Brûlon","nom_a":null,"nom_de":null,"slug_ville":"brulon","departement_id":673,"code_postal":"72350","population":1529,"superficie_km2":"16.00","latitude_centre":"47.9809990","longitude_centre":"-0.2300000","distance_km":7.1},{"id":7550,"code_insee":"72096","nom_standard":"Coulans-sur-Gée","nom_a":null,"nom_de":null,"slug_ville":"coulans-sur-gee","departement_id":673,"code_postal":"72550","population":1633,"superficie_km2":"27.00","latitude_centre":"48.0219994","longitude_centre":"0.0170000","distance_km":11.84},{"id":7627,"code_insee":"72351","nom_standard":"Tennie","nom_a":null,"nom_de":null,"slug_ville":"tennie","departement_id":673,"code_postal":"72240","population":1034,"superficie_km2":"33.00","latitude_centre":"48.1100006","longitude_centre":"-0.0860000","distance_km":13.04},{"id":7544,"code_insee":"72073","nom_standard":"Chaufour-Notre-Dame","nom_a":null,"nom_de":null,"slug_ville":"chaufour-notre-dame","departement_id":673,"code_postal":"72550","population":1156,"superficie_km2":"11.00","latitude_centre":"48.0180016","longitude_centre":"0.0630000","distance_km":15.12},{"id":7570,"code_insee":"72169","nom_standard":"Louplande","nom_a":null,"nom_de":null,"slug_ville":"louplande","departement_id":673,"code_postal":"72210","population":1486,"superficie_km2":"18.00","latitude_centre":"47.9410019","longitude_centre":"0.0490000","distance_km":15.3},{"id":7590,"code_insee":"72223","nom_standard":"Noyen-sur-Sarthe","nom_a":null,"nom_de":null,"slug_ville":"noyen-sur-sarthe","departement_id":673,"code_postal":"72430","population":2613,"superficie_km2":"43.00","latitude_centre":"47.8590012","longitude_centre":"-0.1000000","distance_km":15.71},{"id":7556,"code_insee":"72127","nom_standard":"Étival-lès-le-Mans","nom_a":null,"nom_de":null,"slug_ville":"etival-les-le-mans","departement_id":673,"code_postal":"72700","population":1887,"superficie_km2":"10.00","latitude_centre":"47.9630013","longitude_centre":"0.0770000","distance_km":16.47},{"id":7547,"code_insee":"72089","nom_standard":"Conlie","nom_a":null,"nom_de":null,"slug_ville":"conlie","departement_id":673,"code_postal":"72240","population":1835,"superficie_km2":"17.00","latitude_centre":"48.1220017","longitude_centre":"-0.0130000","distance_km":16.63},{"id":7608,"code_insee":"72280","nom_standard":"Saint-Georges-du-Bois","nom_a":null,"nom_de":null,"slug_ville":"saint-georges-du-bois","departement_id":673,"code_postal":"72700","population":2173,"superficie_km2":"7.00","latitude_centre":"47.9720001","longitude_centre":"0.1010000","distance_km":18.02},{"id":7625,"code_insee":"72346","nom_standard":"La Suze-sur-Sarthe","nom_a":null,"nom_de":null,"slug_ville":"la-suze-sur-sarthe","departement_id":673,"code_postal":"72210","population":4563,"superficie_km2":"21.00","latitude_centre":"47.8769989","longitude_centre":"0.0250000","distance_km":18.12},{"id":7598,"code_insee":"72247","nom_standard":"Pruillé-le-Chétif","nom_a":null,"nom_de":null,"slug_ville":"pruille-le-chetif","departement_id":673,"code_postal":"72700","population":1338,"superficie_km2":"10.00","latitude_centre":"47.9930000","longitude_centre":"0.1060000","distance_km":18.16},{"id":7636,"code_insee":"72381","nom_standard":"Voivres-lès-le-Mans","nom_a":null,"nom_de":null,"slug_ville":"voivres-les-le-mans","departement_id":673,"code_postal":"72210","population":1359,"superficie_km2":"12.00","latitude_centre":"47.9280014","longitude_centre":"0.0840000","distance_km":18.27},{"id":7553,"code_insee":"72119","nom_standard":"Domfront-en-Champagne","nom_a":null,"nom_de":null,"slug_ville":"domfront-en-champagne","departement_id":673,"code_postal":"72240","population":1055,"superficie_km2":"21.00","latitude_centre":"48.1090012","longitude_centre":"0.0450000","distance_km":18.37},{"id":7565,"code_insee":"72151","nom_standard":"Juigné-sur-Sarthe","nom_a":null,"nom_de":null,"slug_ville":"juigne-sur-sarthe","departement_id":673,"code_postal":"72300","population":1139,"superficie_km2":"21.00","latitude_centre":"47.8680000","longitude_centre":"-0.2920000","distance_km":18.46},{"id":7522,"code_insee":"72016","nom_standard":"Auvers-le-Hamon","nom_a":null,"nom_de":null,"slug_ville":"auvers-le-hamon","departement_id":673,"code_postal":"72300","population":1471,"superficie_km2":"48.00","latitude_centre":"47.9039993","longitude_centre":"-0.3450000","distance_km":18.63},{"id":7630,"code_insee":"72360","nom_standard":"Trangé","nom_a":null,"nom_de":null,"slug_ville":"trange","departement_id":673,"code_postal":"72650","population":1596,"superficie_km2":"11.00","latitude_centre":"48.0289993","longitude_centre":"0.1160000","distance_km":19.21},{"id":7600,"code_insee":"72253","nom_standard":"Roëzé-sur-Sarthe","nom_a":null,"nom_de":null,"slug_ville":"roeze-sur-sarthe","departement_id":673,"code_postal":"72210","population":2569,"superficie_km2":"27.00","latitude_centre":"47.8940010","longitude_centre":"0.0720000","distance_km":19.45},{"id":7517,"code_insee":"72001","nom_standard":"Aigné","nom_a":null,"nom_de":null,"slug_ville":"aigne","departement_id":673,"code_postal":"72650","population":1687,"superficie_km2":"13.00","latitude_centre":"48.0670013","longitude_centre":"0.1060000","distance_km":19.7},{"id":5081,"code_insee":"53255","nom_standard":"Sainte-Suzanne-et-Chammes","nom_a":null,"nom_de":null,"slug_ville":"sainte-suzanne-et-chammes","departement_id":654,"code_postal":"53270","population":1224,"superficie_km2":"23.00","latitude_centre":"48.1030006","longitude_centre":"-0.3550000","distance_km":19.91},{"id":7592,"code_insee":"72228","nom_standard":"Parcé-sur-Sarthe","nom_a":null,"nom_de":null,"slug_ville":"parce-sur-sarthe","departement_id":673,"code_postal":"72300","population":2046,"superficie_km2":"41.00","latitude_centre":"47.8209992","longitude_centre":"-0.1930000","distance_km":20.1}]}