{"ville":{"id":24698,"code_insee":"54330","nom_standard":"Lupcourt","nom_a":null,"nom_de":null,"slug_ville":"lupcourt","departement_id":0,"code_postal":"54210","population":428,"superficie_km2":"687.55","latitude_centre":"48.6006","longitude_centre":"6.2203","dep_code":"54","dep_nom":"Meurthe-et-Moselle","dep_slug":"meurthe-et-moselle","reg_code":"44","reg_nom":"Grand Est","reg_slug":"grand-est"},"departement":{"code":"54","nom":"Meurthe-et-Moselle","slug":"meurthe-et-moselle"},"region":{"code":"44","nom":"Grand Est","slug":"grand-est"},"villes_proches":[{"id":0,"code_insee":"54571","nom_standard":"Ville-en-Vermois","nom_a":null,"nom_de":null,"slug_ville":"ville-en-vermois","departement_id":0,"code_postal":"54210","population":599,"superficie_km2":"1055.13","latitude_centre":"48.6162","longitude_centre":"6.2396","distance_km":2.24},{"id":24474,"code_insee":"54037","nom_standard":"Azelot","nom_a":null,"nom_de":null,"slug_ville":"azelot","departement_id":0,"code_postal":"54210","population":411,"superficie_km2":"472.28","latitude_centre":"48.5807","longitude_centre":"6.2281","distance_km":2.29},{"id":0,"code_insee":"54459","nom_standard":"Richardménil","nom_a":null,"nom_de":null,"slug_ville":"richardmenil","departement_id":0,"code_postal":"54630","population":2389,"superficie_km2":"705.64","latitude_centre":"48.5952","longitude_centre":"6.1772","distance_km":3.23},{"id":24531,"code_insee":"54108","nom_standard":"Burthecourt-aux-Chênes","nom_a":null,"nom_de":null,"slug_ville":"burthecourt-aux-chenes","departement_id":0,"code_postal":"54210","population":151,"superficie_km2":"562.44","latitude_centre":"48.5773","longitude_centre":"6.2487","distance_km":3.33},{"id":0,"code_insee":"54197","nom_standard":"Fléville-devant-Nancy","nom_a":null,"nom_de":null,"slug_ville":"fleville-devant-nancy","departement_id":0,"code_postal":"54710","population":2171,"superficie_km2":"747.63","latitude_centre":"48.6283","longitude_centre":"6.2012","distance_km":3.39},{"id":0,"code_insee":"54345","nom_standard":"Manoncourt-en-Vermois","nom_a":null,"nom_de":null,"slug_ville":"manoncourt-en-vermois","departement_id":0,"code_postal":"54210","population":345,"superficie_km2":"669.19","latitude_centre":"48.5999","longitude_centre":"6.2699","distance_km":3.65},{"id":0,"code_insee":"54196","nom_standard":"Flavigny-sur-Moselle","nom_a":null,"nom_de":null,"slug_ville":"flavigny-sur-moselle","departement_id":0,"code_postal":"54630","population":1661,"superficie_km2":"1764.78","latitude_centre":"48.5735","longitude_centre":"6.1906","distance_km":3.72},{"id":0,"code_insee":"54328","nom_standard":"Ludres","nom_a":null,"nom_de":null,"slug_ville":"ludres","departement_id":0,"code_postal":"54710","population":5843,"superficie_km2":"822.60","latitude_centre":"48.6213","longitude_centre":"6.1751","distance_km":4.04},{"id":24555,"code_insee":"54141","nom_standard":"Coyviller","nom_a":null,"nom_de":null,"slug_ville":"coyviller","departement_id":0,"code_postal":"54210","population":157,"superficie_km2":"454.66","latitude_centre":"48.5848","longitude_centre":"6.2835","distance_km":4.97},{"id":0,"code_insee":"54366","nom_standard":"Messein","nom_a":null,"nom_de":null,"slug_ville":"messein","departement_id":0,"code_postal":"54850","population":1981,"superficie_km2":"519.09","latitude_centre":"48.6124","longitude_centre":"6.1463","distance_km":5.6},{"id":0,"code_insee":"54265","nom_standard":"Houdemont","nom_a":null,"nom_de":null,"slug_ville":"houdemont","departement_id":0,"code_postal":"54180","population":2066,"superficie_km2":"363.65","latitude_centre":"48.6409","longitude_centre":"6.1718","distance_km":5.73},{"id":0,"code_insee":"54527","nom_standard":"Tonnoy","nom_a":null,"nom_de":null,"slug_ville":"tonnoy","departement_id":0,"code_postal":"54210","population":645,"superficie_km2":"1240.04","latitude_centre":"48.5552","longitude_centre":"6.2579","distance_km":5.76},{"id":0,"code_insee":"54257","nom_standard":"Heillecourt","nom_a":null,"nom_de":null,"slug_ville":"heillecourt","departement_id":0,"code_postal":"54180","population":5414,"superficie_km2":"367.32","latitude_centre":"48.6501","longitude_centre":"6.1967","distance_km":5.77},{"id":0,"code_insee":"54300","nom_standard":"Laneuveville-devant-Nancy","nom_a":null,"nom_de":null,"slug_ville":"laneuveville-devant-nancy","departement_id":0,"code_postal":"54410","population":6630,"superficie_km2":"1245.99","latitude_centre":"48.6503","longitude_centre":"6.2471","distance_km":5.87},{"id":0,"code_insee":"54483","nom_standard":"Saint-Nicolas-de-Port","nom_a":null,"nom_de":null,"slug_ville":"saint-nicolas-de-port","departement_id":0,"code_postal":"54210","population":7359,"superficie_km2":"839.11","latitude_centre":"48.62","longitude_centre":"6.2953","distance_km":5.92},{"id":0,"code_insee":"54025","nom_standard":"Art-sur-Meurthe","nom_a":null,"nom_de":null,"slug_ville":"art-sur-meurthe","departement_id":0,"code_postal":"54510","population":1700,"superficie_km2":"1159.03","latitude_centre":"48.6604","longitude_centre":"6.2585","distance_km":7.22},{"id":0,"code_insee":"54274","nom_standard":"Jarville-la-Malgrange","nom_a":null,"nom_de":null,"slug_ville":"jarville-la-malgrange","departement_id":0,"code_postal":"54140","population":9356,"superficie_km2":"240.93","latitude_centre":"48.6676","longitude_centre":"6.2057","distance_km":7.53},{"id":0,"code_insee":"54547","nom_standard":"Vandœuvre-lès-Nancy","nom_a":null,"nom_de":null,"slug_ville":"vandoeuvre-les-nancy","departement_id":0,"code_postal":"54500","population":29942,"superficie_km2":"946.07","latitude_centre":"48.66","longitude_centre":"6.1603","distance_km":7.94},{"id":24493,"code_insee":"54062","nom_standard":"Benney","nom_a":null,"nom_de":null,"slug_ville":"benney","departement_id":0,"code_postal":"54740","population":637,"superficie_km2":"1859.72","latitude_centre":"48.5274","longitude_centre":"6.2273","distance_km":8.16},{"id":24532,"code_insee":"54109","nom_standard":"Ceintrey","nom_a":null,"nom_de":null,"slug_ville":"ceintrey","departement_id":0,"code_postal":"54134","population":889,"superficie_km2":"1112.71","latitude_centre":"48.5277","longitude_centre":"6.1787","distance_km":8.66}]}