{"ville":{"id":12684,"code_insee":"10210","nom_standard":"Luyères","nom_a":null,"nom_de":null,"slug_ville":"luyeres","departement_id":0,"code_postal":"10150","population":466,"superficie_km2":"1750.02","latitude_centre":"48.3808","longitude_centre":"4.1933","dep_code":"10","dep_nom":"Aube","dep_slug":"aube","reg_code":"44","reg_nom":"Grand Est","reg_slug":"grand-est"},"departement":{"code":"10","nom":"Aube","slug":"aube"},"region":{"code":"44","nom":"Grand Est","slug":"grand-est"},"villes_proches":[{"id":12507,"code_insee":"10014","nom_standard":"Assencières","nom_a":null,"nom_de":null,"slug_ville":"assencieres","departement_id":0,"code_postal":"10220","population":190,"superficie_km2":"737.05","latitude_centre":"48.3566","longitude_centre":"4.2014","distance_km":2.76},{"id":0,"code_insee":"10084","nom_standard":"Charmont-sous-Barbuise","nom_a":null,"nom_de":null,"slug_ville":"charmont-sous-barbuise","departement_id":0,"code_postal":"10150","population":1053,"superficie_km2":"3834.71","latitude_centre":"48.4124","longitude_centre":"4.1793","distance_km":3.66},{"id":12543,"code_insee":"10056","nom_standard":"Bouy-Luxembourg","nom_a":null,"nom_de":null,"slug_ville":"bouy-luxembourg","departement_id":0,"code_postal":"10220","population":243,"superficie_km2":"1206.19","latitude_centre":"48.3775","longitude_centre":"4.2432","distance_km":3.7},{"id":0,"code_insee":"10391","nom_standard":"Vailly","nom_a":null,"nom_de":null,"slug_ville":"vailly","departement_id":0,"code_postal":"10150","population":329,"superficie_km2":"1127.15","latitude_centre":"48.3728","longitude_centre":"4.1243","distance_km":5.17},{"id":0,"code_insee":"10239","nom_standard":"Mesnil-Sellières","nom_a":null,"nom_de":null,"slug_ville":"mesnil-sellieres","departement_id":0,"code_postal":"10220","population":568,"superficie_km2":"845.83","latitude_centre":"48.3341","longitude_centre":"4.2057","distance_km":5.27},{"id":0,"code_insee":"10115","nom_standard":"Creney-près-Troyes","nom_a":null,"nom_de":null,"slug_ville":"creney-pres-troyes","departement_id":0,"code_postal":"10150","population":2013,"superficie_km2":"1577.83","latitude_centre":"48.3379","longitude_centre":"4.1439","distance_km":6.01},{"id":0,"code_insee":"10270","nom_standard":"Onjon","nom_a":null,"nom_de":null,"slug_ville":"onjon","departement_id":0,"code_postal":"10220","population":258,"superficie_km2":"2243.50","latitude_centre":"48.3951","longitude_centre":"4.2721","distance_km":6.03},{"id":12625,"code_insee":"10149","nom_standard":"Feuges","nom_a":null,"nom_de":null,"slug_ville":"feuges","departement_id":0,"code_postal":"10150","population":330,"superficie_km2":"1103.64","latitude_centre":"48.3964","longitude_centre":"4.1118","distance_km":6.26},{"id":0,"code_insee":"10328","nom_standard":"Rouilly-Sacey","nom_a":null,"nom_de":null,"slug_ville":"rouilly-sacey","departement_id":0,"code_postal":"10220","population":387,"superficie_km2":"1920.53","latitude_centre":"48.3471","longitude_centre":"4.2718","distance_km":6.9},{"id":12540,"code_insee":"10053","nom_standard":"Bouranton","nom_a":null,"nom_de":null,"slug_ville":"bouranton","departement_id":0,"code_postal":"10270","population":633,"superficie_km2":"823.70","latitude_centre":"48.3157","longitude_centre":"4.1808","distance_km":7.3},{"id":0,"code_insee":"10412","nom_standard":"Villechétif","nom_a":null,"nom_de":null,"slug_ville":"villechetif","departement_id":0,"code_postal":"10410","population":947,"superficie_km2":"1226.92","latitude_centre":"48.3201","longitude_centre":"4.1524","distance_km":7.4},{"id":12508,"code_insee":"10015","nom_standard":"Aubeterre","nom_a":null,"nom_de":null,"slug_ville":"aubeterre","departement_id":0,"code_postal":"10150","population":398,"superficie_km2":"1179.88","latitude_centre":"48.4215","longitude_centre":"4.1078","distance_km":7.77},{"id":12681,"code_insee":"10206","nom_standard":"Longsols","nom_a":null,"nom_de":null,"slug_ville":"longsols","departement_id":0,"code_postal":"10240","population":129,"superficie_km2":"1265.03","latitude_centre":"48.425","longitude_centre":"4.2791","distance_km":8.02},{"id":0,"code_insee":"10256","nom_standard":"Montsuzain","nom_a":null,"nom_de":null,"slug_ville":"montsuzain","departement_id":0,"code_postal":"10150","population":391,"superficie_km2":"1969.52","latitude_centre":"48.4472","longitude_centre":"4.1294","distance_km":8.76},{"id":12513,"code_insee":"10021","nom_standard":"Avant-lès-Ramerupt","nom_a":null,"nom_de":null,"slug_ville":"avant-les-ramerupt","departement_id":0,"code_postal":"10240","population":160,"superficie_km2":"2083.04","latitude_centre":"48.4501","longitude_centre":"4.2612","distance_km":9.19},{"id":12665,"code_insee":"10190","nom_standard":"Laubressel","nom_a":null,"nom_de":null,"slug_ville":"laubressel","departement_id":0,"code_postal":"10270","population":551,"superficie_km2":"1636.55","latitude_centre":"48.3019","longitude_centre":"4.231","distance_km":9.21},{"id":0,"code_insee":"10442","nom_standard":"Voué","nom_a":null,"nom_de":null,"slug_ville":"voue","departement_id":0,"code_postal":"10150","population":689,"superficie_km2":"1360.99","latitude_centre":"48.46","longitude_centre":"4.1302","distance_km":9.96},{"id":0,"code_insee":"10375","nom_standard":"Thennelières","nom_a":null,"nom_de":null,"slug_ville":"thennelieres","departement_id":0,"code_postal":"10410","population":341,"superficie_km2":"674.34","latitude_centre":"48.2889","longitude_centre":"4.1823","distance_km":10.25},{"id":0,"code_insee":"10236","nom_standard":"Mesnil-Lettre","nom_a":null,"nom_de":null,"slug_ville":"mesnil-lettre","departement_id":0,"code_postal":"10240","population":57,"superficie_km2":"880.46","latitude_centre":"48.4628","longitude_centre":"4.2598","distance_km":10.35},{"id":0,"code_insee":"10357","nom_standard":"Saint-Parres-aux-Tertres","nom_a":null,"nom_de":null,"slug_ville":"saint-parres-aux-tertres","departement_id":0,"code_postal":"10410","population":3223,"superficie_km2":"1190.26","latitude_centre":"48.2935","longitude_centre":"4.1362","distance_km":10.59}]}