{"ville":{"id":33110,"code_insee":"80496","nom_standard":"Machiel","nom_a":null,"nom_de":null,"slug_ville":"machiel","departement_id":0,"code_postal":"80150","population":151,"superficie_km2":"667.37","latitude_centre":"50.2741","longitude_centre":"1.836","dep_code":"80","dep_nom":"Somme","dep_slug":"somme","reg_code":"32","reg_nom":"Hauts-de-France","reg_slug":"hauts-de-france"},"departement":{"code":"80","nom":"Somme","slug":"somme"},"region":{"code":"32","nom":"Hauts-de-France","slug":"hauts-de-france"},"villes_proches":[{"id":0,"code_insee":"80497","nom_standard":"Machy","nom_a":null,"nom_de":null,"slug_ville":"machy","departement_id":0,"code_postal":"80150","population":117,"superficie_km2":"331.33","latitude_centre":"50.2741","longitude_centre":"1.8022","distance_km":2.4},{"id":0,"code_insee":"80808","nom_standard":"Vironchaux","nom_a":null,"nom_de":null,"slug_ville":"vironchaux","departement_id":0,"code_postal":"80150","population":503,"superficie_km2":"1619.65","latitude_centre":"50.2984","longitude_centre":"1.8233","distance_km":2.85},{"id":33096,"code_insee":"80477","nom_standard":"Ligescourt","nom_a":null,"nom_de":null,"slug_ville":"ligescourt","departement_id":0,"code_postal":"80150","population":223,"superficie_km2":"514.14","latitude_centre":"50.2914","longitude_centre":"1.8744","distance_km":3.34},{"id":0,"code_insee":"80222","nom_standard":"Crécy-en-Ponthieu","nom_a":null,"nom_de":null,"slug_ville":"crecy-en-ponthieu","departement_id":0,"code_postal":"80150","population":1376,"superficie_km2":"5675.98","latitude_centre":"50.2407","longitude_centre":"1.8401","distance_km":3.73},{"id":0,"code_insee":"80631","nom_standard":"Ponches-Estruval","nom_a":null,"nom_de":null,"slug_ville":"ponches-estruval","departement_id":0,"code_postal":"80150","population":127,"superficie_km2":"713.47","latitude_centre":"50.3097","longitude_centre":"1.8721","distance_km":4.72},{"id":0,"code_insee":"80665","nom_standard":"Regnière-Écluse","nom_a":null,"nom_de":null,"slug_ville":"regniere-ecluse","departement_id":0,"code_postal":"80120","population":139,"superficie_km2":"961.26","latitude_centre":"50.2866","longitude_centre":"1.7697","distance_km":4.91},{"id":32768,"code_insee":"80087","nom_standard":"Bernay-en-Ponthieu","nom_a":null,"nom_de":null,"slug_ville":"bernay-en-ponthieu","departement_id":0,"code_postal":"80120","population":240,"superficie_km2":"1001.08","latitude_centre":"50.2636","longitude_centre":"1.7525","distance_km":6.05},{"id":32904,"code_insee":"80244","nom_standard":"Dominois","nom_a":null,"nom_de":null,"slug_ville":"dominois","departement_id":0,"code_postal":"80120","population":168,"superficie_km2":"622.22","latitude_centre":"50.3281","longitude_centre":"1.8489","distance_km":6.07},{"id":32908,"code_insee":"80248","nom_standard":"Dompierre-sur-Authie","nom_a":null,"nom_de":null,"slug_ville":"dompierre-sur-authie","departement_id":0,"code_postal":"80150","population":417,"superficie_km2":"2283.87","latitude_centre":"50.2954","longitude_centre":"1.9225","distance_km":6.59},{"id":32713,"code_insee":"80025","nom_standard":"Argoules","nom_a":null,"nom_de":null,"slug_ville":"argoules","departement_id":0,"code_postal":"80120","population":322,"superficie_km2":"947.67","latitude_centre":"50.3346","longitude_centre":"1.8218","distance_km":6.8},{"id":32939,"code_insee":"80290","nom_standard":"Estrées-lès-Crécy","nom_a":null,"nom_de":null,"slug_ville":"estrees-les-crecy","departement_id":0,"code_postal":"80150","population":398,"superficie_km2":"1118.35","latitude_centre":"50.2612","longitude_centre":"1.9308","distance_km":6.89},{"id":0,"code_insee":"80815","nom_standard":"Vron","nom_a":null,"nom_de":null,"slug_ville":"vron","departement_id":0,"code_postal":"80120","population":839,"superficie_km2":"2064.16","latitude_centre":"50.3166","longitude_centre":"1.7641","distance_km":6.96},{"id":0,"code_insee":"80598","nom_standard":"Nouvion","nom_a":null,"nom_de":null,"slug_ville":"nouvion","departement_id":0,"code_postal":"80860","population":1196,"superficie_km2":"1579.06","latitude_centre":"50.2155","longitude_centre":"1.7822","distance_km":7.56},{"id":27608,"code_insee":"62275","nom_standard":"Douriez","nom_a":null,"nom_de":null,"slug_ville":"douriez","departement_id":0,"code_postal":"62870","population":296,"superficie_km2":"880.38","latitude_centre":"50.3372","longitude_centre":"1.8806","distance_km":7.7},{"id":32974,"code_insee":"80331","nom_standard":"Forest-l'Abbaye","nom_a":null,"nom_de":null,"slug_ville":"forest-l-abbaye","departement_id":0,"code_postal":"80150","population":314,"superficie_km2":"332.42","latitude_centre":"50.2036","longitude_centre":"1.8336","distance_km":7.84},{"id":27958,"code_insee":"62783","nom_standard":"Saulchoy","nom_a":null,"nom_de":null,"slug_ville":"saulchoy","departement_id":0,"code_postal":"62870","population":325,"superficie_km2":"535.60","latitude_centre":"50.3564","longitude_centre":"1.8509","distance_km":9.21},{"id":33082,"code_insee":"80462","nom_standard":"Lamotte-Buleux","nom_a":null,"nom_de":null,"slug_ville":"lamotte-buleux","departement_id":0,"code_postal":"80150","population":328,"superficie_km2":"618.05","latitude_centre":"50.1874","longitude_centre":"1.8369","distance_km":9.64},{"id":32841,"code_insee":"80167","nom_standard":"Canchy","nom_a":null,"nom_de":null,"slug_ville":"canchy","departement_id":0,"code_postal":"80150","population":348,"superficie_km2":"644.03","latitude_centre":"50.1899","longitude_centre":"1.8744","distance_km":9.75},{"id":0,"code_insee":"80763","nom_standard":"Le Titre","nom_a":null,"nom_de":null,"slug_ville":"le-titre","departement_id":0,"code_postal":"80132","population":332,"superficie_km2":"453.65","latitude_centre":"50.1882","longitude_centre":"1.8004","distance_km":9.88},{"id":27787,"code_insee":"62538","nom_standard":"Maintenay","nom_a":null,"nom_de":null,"slug_ville":"maintenay","departement_id":0,"code_postal":"62870","population":451,"superficie_km2":"1211.72","latitude_centre":"50.3707","longitude_centre":"1.819","distance_km":10.81}]}