{"ville":{"id":20428,"code_insee":"37142","nom_standard":"Maillé","nom_a":null,"nom_de":null,"slug_ville":"maille","departement_id":0,"code_postal":"37800","population":557,"superficie_km2":"1560.56","latitude_centre":"47.0519","longitude_centre":"0.5875","dep_code":"37","dep_nom":"Indre-et-Loire","dep_slug":"indre-et-loire","reg_code":"24","reg_nom":"Centre-Val de Loire","reg_slug":"centre-val-de-loire"},"departement":{"code":"37","nom":"Indre-et-Loire","slug":"indre-et-loire"},"region":{"code":"24","nom":"Centre-Val de Loire","slug":"centre-val-de-loire"},"villes_proches":[{"id":0,"code_insee":"37174","nom_standard":"Nouâtre","nom_a":null,"nom_de":null,"slug_ville":"nouatre","departement_id":0,"code_postal":"37800","population":786,"superficie_km2":"968.23","latitude_centre":"47.0351","longitude_centre":"0.5657","distance_km":2.49},{"id":20403,"code_insee":"37098","nom_standard":"Draché","nom_a":null,"nom_de":null,"slug_ville":"drache","departement_id":0,"code_postal":"37800","population":698,"superficie_km2":"1856.56","latitude_centre":"47.0691","longitude_centre":"0.6317","distance_km":3.86},{"id":0,"code_insee":"37045","nom_standard":"La Celle-Saint-Avant","nom_a":null,"nom_de":null,"slug_ville":"la-celle-saint-avant","departement_id":0,"code_postal":"37160","population":1079,"superficie_km2":"1785.20","latitude_centre":"47.0219","longitude_centre":"0.6158","distance_km":3.97},{"id":0,"code_insee":"37147","nom_standard":"Marcilly-sur-Vienne","nom_a":null,"nom_de":null,"slug_ville":"marcilly-sur-vienne","departement_id":0,"code_postal":"37800","population":550,"superficie_km2":"1107.20","latitude_centre":"47.0476","longitude_centre":"0.525","distance_km":4.76},{"id":0,"code_insee":"37188","nom_standard":"Pouzay","nom_a":null,"nom_de":null,"slug_ville":"pouzay","departement_id":0,"code_postal":"37800","population":867,"superficie_km2":"1408.81","latitude_centre":"47.0884","longitude_centre":"0.5502","distance_km":4.94},{"id":0,"code_insee":"37187","nom_standard":"Ports-sur-Vienne","nom_a":null,"nom_de":null,"slug_ville":"ports-sur-vienne","departement_id":0,"code_postal":"37800","population":352,"superficie_km2":"1108.41","latitude_centre":"47.0163","longitude_centre":"0.5332","distance_km":5.71},{"id":0,"code_insee":"37176","nom_standard":"Noyant-de-Touraine","nom_a":null,"nom_de":null,"slug_ville":"noyant-de-touraine","departement_id":0,"code_postal":"37800","population":1160,"superficie_km2":"1389.96","latitude_centre":"47.1022","longitude_centre":"0.5666","distance_km":5.81},{"id":0,"code_insee":"86195","nom_standard":"Port-de-Piles","nom_a":null,"nom_de":null,"slug_ville":"port-de-piles","departement_id":0,"code_postal":"86220","population":545,"superficie_km2":"577.02","latitude_centre":"46.9989","longitude_centre":"0.5956","distance_km":5.93},{"id":0,"code_insee":"37145","nom_standard":"Marcé-sur-Esves","nom_a":null,"nom_de":null,"slug_ville":"marce-sur-esves","departement_id":0,"code_postal":"37160","population":251,"superficie_km2":"1097.33","latitude_centre":"47.0301","longitude_centre":"0.6596","distance_km":5.98},{"id":0,"code_insee":"37199","nom_standard":"Rilly-sur-Vienne","nom_a":null,"nom_de":null,"slug_ville":"rilly-sur-vienne","departement_id":0,"code_postal":"37220","population":458,"superficie_km2":"1317.64","latitude_centre":"47.0527","longitude_centre":"0.5032","distance_km":6.39},{"id":0,"code_insee":"37190","nom_standard":"Pussigny","nom_a":null,"nom_de":null,"slug_ville":"pussigny","departement_id":0,"code_postal":"37800","population":159,"superficie_km2":"856.05","latitude_centre":"46.9903","longitude_centre":"0.5447","distance_km":7.58},{"id":0,"code_insee":"37226","nom_standard":"Sainte-Maure-de-Touraine","nom_a":null,"nom_de":null,"slug_ville":"sainte-maure-de-touraine","departement_id":0,"code_postal":"37800","population":4092,"superficie_km2":"4071.69","latitude_centre":"47.1099","longitude_centre":"0.6488","distance_km":7.95},{"id":0,"code_insee":"37247","nom_standard":"Sepmes","nom_a":null,"nom_de":null,"slug_ville":"sepmes","departement_id":0,"code_postal":"37800","population":604,"superficie_km2":"2878.83","latitude_centre":"47.0837","longitude_centre":"0.6835","distance_km":8.09},{"id":0,"code_insee":"37262","nom_standard":"Trogues","nom_a":null,"nom_de":null,"slug_ville":"trogues","departement_id":0,"code_postal":"37220","population":285,"superficie_km2":"945.28","latitude_centre":"47.1113","longitude_centre":"0.5129","distance_km":8.69},{"id":0,"code_insee":"37180","nom_standard":"Parçay-sur-Vienne","nom_a":null,"nom_de":null,"slug_ville":"parcay-sur-vienne","departement_id":0,"code_postal":"37220","population":616,"superficie_km2":"1878.57","latitude_centre":"47.0933","longitude_centre":"0.4829","distance_km":9.16},{"id":20343,"code_insee":"37005","nom_standard":"Antogny-le-Tillac","nom_a":null,"nom_de":null,"slug_ville":"antogny-le-tillac","departement_id":0,"code_postal":"37800","population":485,"superficie_km2":"1731.69","latitude_centre":"46.9697","longitude_centre":"0.5535","distance_km":9.5},{"id":0,"code_insee":"37115","nom_standard":"Descartes","nom_a":null,"nom_de":null,"slug_ville":"descartes","departement_id":0,"code_postal":"37160","population":3369,"superficie_km2":"3818.15","latitude_centre":"46.9958","longitude_centre":"0.6871","distance_km":9.79},{"id":0,"code_insee":"86183","nom_standard":"Les Ormes","nom_a":null,"nom_de":null,"slug_ville":"les-ormes","departement_id":0,"code_postal":"86220","population":1613,"superficie_km2":"2392.96","latitude_centre":"46.965","longitude_centre":"0.621","distance_km":9.99},{"id":0,"code_insee":"86042","nom_standard":"Buxeuil","nom_a":null,"nom_de":null,"slug_ville":"buxeuil","departement_id":0,"code_postal":"37160","population":887,"superficie_km2":"1202.61","latitude_centre":"46.9687","longitude_centre":"0.6618","distance_km":10.83},{"id":0,"code_insee":"37216","nom_standard":"Saint-Épain","nom_a":null,"nom_de":null,"slug_ville":"saint-epain","departement_id":0,"code_postal":"37800","population":1471,"superficie_km2":"6330.54","latitude_centre":"47.1505","longitude_centre":"0.5773","distance_km":10.99}]}