{"ville":{"id":30374,"code_insee":"70322","nom_standard":"Mailleroncourt-Charette","nom_a":null,"nom_de":null,"slug_ville":"mailleroncourt-charette","departement_id":0,"code_postal":"70240","population":277,"superficie_km2":"1055.79","latitude_centre":"47.7274","longitude_centre":"6.2631","dep_code":"70","dep_nom":"Haute-Saône","dep_slug":"haute-saone","reg_code":"27","reg_nom":"Bourgogne-Franche-Comté","reg_slug":"bourgogne-franche-comte"},"departement":{"code":"70","nom":"Haute-Saône","slug":"haute-saone"},"region":{"code":"27","nom":"Bourgogne-Franche-Comté","slug":"bourgogne-franche-comte"},"villes_proches":[{"id":0,"code_insee":"70558","nom_standard":"La Villeneuve-Bellenoye-et-la-Maize","nom_a":null,"nom_de":null,"slug_ville":"la-villeneuve-bellenoye-et-la-maize","departement_id":0,"code_postal":"70240","population":160,"superficie_km2":"931.31","latitude_centre":"47.7143","longitude_centre":"6.2412","distance_km":2.19},{"id":0,"code_insee":"70490","nom_standard":"Servigney","nom_a":null,"nom_de":null,"slug_ville":"servigney","departement_id":0,"code_postal":"70240","population":122,"superficie_km2":"579.98","latitude_centre":"47.7296","longitude_centre":"6.2962","distance_km":2.49},{"id":0,"code_insee":"70569","nom_standard":"Vilory","nom_a":null,"nom_de":null,"slug_ville":"vilory","departement_id":0,"code_postal":"70240","population":68,"superficie_km2":"387.25","latitude_centre":"47.732","longitude_centre":"6.2236","distance_km":3.0},{"id":0,"code_insee":"70522","nom_standard":"Varogne","nom_a":null,"nom_de":null,"slug_ville":"varogne","departement_id":0,"code_postal":"70240","population":155,"superficie_km2":"453.49","latitude_centre":"47.7206","longitude_centre":"6.2131","distance_km":3.82},{"id":0,"code_insee":"70478","nom_standard":"Saulx","nom_a":null,"nom_de":null,"slug_ville":"saulx","departement_id":0,"code_postal":"70240","population":874,"superficie_km2":"1518.89","latitude_centre":"47.6945","longitude_centre":"6.2785","distance_km":3.84},{"id":0,"code_insee":"70571","nom_standard":"Visoncourt","nom_a":null,"nom_de":null,"slug_ville":"visoncourt","departement_id":0,"code_postal":"70300","population":36,"superficie_km2":"453.42","latitude_centre":"47.7543","longitude_centre":"6.2979","distance_km":3.96},{"id":0,"code_insee":"70534","nom_standard":"Vellefrie","nom_a":null,"nom_de":null,"slug_ville":"vellefrie","departement_id":0,"code_postal":"70240","population":122,"superficie_km2":"594.50","latitude_centre":"47.7011","longitude_centre":"6.2229","distance_km":4.19},{"id":0,"code_insee":"70380","nom_standard":"Neurey-en-Vaux","nom_a":null,"nom_de":null,"slug_ville":"neurey-en-vaux","departement_id":0,"code_postal":"70160","population":138,"superficie_km2":"530.57","latitude_centre":"47.7376","longitude_centre":"6.2067","distance_km":4.37},{"id":0,"code_insee":"70564","nom_standard":"Villers-lès-Luxeuil","nom_a":null,"nom_de":null,"slug_ville":"villers-les-luxeuil","departement_id":0,"code_postal":"70300","population":310,"superficie_km2":"908.22","latitude_centre":"47.767","longitude_centre":"6.2843","distance_km":4.68},{"id":30327,"code_insee":"70263","nom_standard":"Genevrey","nom_a":null,"nom_de":null,"slug_ville":"genevrey","departement_id":0,"code_postal":"70240","population":247,"superficie_km2":"1207.47","latitude_centre":"47.7235","longitude_centre":"6.3279","distance_km":4.87},{"id":30285,"code_insee":"70213","nom_standard":"Éhuns","nom_a":null,"nom_de":null,"slug_ville":"ehuns","departement_id":0,"code_postal":"70300","population":223,"superficie_km2":"558.50","latitude_centre":"47.7654","longitude_centre":"6.2988","distance_km":5.0},{"id":0,"code_insee":"70344","nom_standard":"Meurcourt","nom_a":null,"nom_de":null,"slug_ville":"meurcourt","departement_id":0,"code_postal":"70300","population":345,"superficie_km2":"1187.39","latitude_centre":"47.7685","longitude_centre":"6.2357","distance_km":5.01},{"id":30265,"code_insee":"70188","nom_standard":"Creveney","nom_a":null,"nom_de":null,"slug_ville":"creveney","departement_id":0,"code_postal":"70240","population":44,"superficie_km2":"250.84","latitude_centre":"47.6816","longitude_centre":"6.2925","distance_km":5.55},{"id":30220,"code_insee":"70140","nom_standard":"Châteney","nom_a":null,"nom_de":null,"slug_ville":"chateney","departement_id":0,"code_postal":"70240","population":60,"superficie_km2":"262.28","latitude_centre":"47.6967","longitude_centre":"6.323","distance_km":5.63},{"id":30186,"code_insee":"70098","nom_standard":"Brotte-lès-Luxeuil","nom_a":null,"nom_de":null,"slug_ville":"brotte-les-luxeuil","departement_id":0,"code_postal":"70300","population":194,"superficie_km2":"695.20","latitude_centre":"47.7479","longitude_centre":"6.3346","distance_km":5.81},{"id":30221,"code_insee":"70141","nom_standard":"Châtenois","nom_a":null,"nom_de":null,"slug_ville":"chatenois","departement_id":0,"code_postal":"70240","population":116,"superficie_km2":"573.17","latitude_centre":"47.6844","longitude_centre":"6.3208","distance_km":6.44},{"id":0,"code_insee":"70541","nom_standard":"Velorcey","nom_a":null,"nom_de":null,"slug_ville":"velorcey","departement_id":0,"code_postal":"70300","population":206,"superficie_km2":"617.98","latitude_centre":"47.7856","longitude_centre":"6.252","distance_km":6.52},{"id":30242,"code_insee":"70163","nom_standard":"Colombier","nom_a":null,"nom_de":null,"slug_ville":"colombier","departement_id":0,"code_postal":"70000","population":434,"superficie_km2":"1409.77","latitude_centre":"47.6691","longitude_centre":"6.2207","distance_km":7.22},{"id":30243,"code_insee":"70164","nom_standard":"Colombotte","nom_a":null,"nom_de":null,"slug_ville":"colombotte","departement_id":0,"code_postal":"70240","population":66,"superficie_km2":"435.33","latitude_centre":"47.6628","longitude_centre":"6.2861","distance_km":7.39},{"id":30095,"code_insee":"70001","nom_standard":"Abelcourt","nom_a":null,"nom_de":null,"slug_ville":"abelcourt","departement_id":0,"code_postal":"70300","population":333,"superficie_km2":"759.37","latitude_centre":"47.7947","longitude_centre":"6.2789","distance_km":7.58}]}