{"ville":{"id":33886,"code_insee":"85132","nom_standard":"Maillé","nom_a":null,"nom_de":null,"slug_ville":"maille","departement_id":0,"code_postal":"85420","population":759,"superficie_km2":"1763.71","latitude_centre":"46.3435","longitude_centre":"-0.7842","dep_code":"85","dep_nom":"Vendée","dep_slug":"vendee","reg_code":"52","reg_nom":"Pays de la Loire","reg_slug":"pays-de-la-loire"},"departement":{"code":"85","nom":"Vendée","slug":"vendee"},"region":{"code":"52","nom":"Pays de la Loire","slug":"pays-de-la-loire"},"villes_proches":[{"id":0,"code_insee":"85133","nom_standard":"Maillezais","nom_a":null,"nom_de":null,"slug_ville":"maillezais","departement_id":0,"code_postal":"85420","population":890,"superficie_km2":"2045.27","latitude_centre":"46.3637","longitude_centre":"-0.7484","distance_km":3.55},{"id":33874,"code_insee":"85078","nom_standard":"Damvix","nom_a":null,"nom_de":null,"slug_ville":"damvix","departement_id":0,"code_postal":"85420","population":733,"superficie_km2":"1160.09","latitude_centre":"46.3224","longitude_centre":"-0.7458","distance_km":3.77},{"id":0,"code_insee":"17303","nom_standard":"La Ronde","nom_a":null,"nom_de":null,"slug_ville":"la-ronde","departement_id":0,"code_postal":"17170","population":997,"superficie_km2":"2082.47","latitude_centre":"46.3023","longitude_centre":"-0.7889","distance_km":4.6},{"id":14676,"code_insee":"17439","nom_standard":"Taugon","nom_a":null,"nom_de":null,"slug_ville":"taugon","departement_id":0,"code_postal":"17170","population":772,"superficie_km2":"1577.48","latitude_centre":"46.3162","longitude_centre":"-0.8304","distance_km":4.67},{"id":0,"code_insee":"85303","nom_standard":"Vix","nom_a":null,"nom_de":null,"slug_ville":"vix","departement_id":0,"code_postal":"85770","population":1835,"superficie_km2":"2886.93","latitude_centre":"46.3528","longitude_centre":"-0.8525","distance_km":5.34},{"id":0,"code_insee":"85269","nom_standard":"Saint-Sigismond","nom_a":null,"nom_de":null,"slug_ville":"saint-sigismond","departement_id":0,"code_postal":"85420","population":428,"superficie_km2":"1032.96","latitude_centre":"46.338","longitude_centre":"-0.7055","distance_km":6.07},{"id":0,"code_insee":"85080","nom_standard":"Doix lès Fontaines","nom_a":null,"nom_de":null,"slug_ville":"doix-les-fontaines","departement_id":0,"code_postal":"85200","population":1779,"superficie_km2":"2399.41","latitude_centre":"46.3994","longitude_centre":"-0.8098","distance_km":6.52},{"id":33884,"code_insee":"85123","nom_standard":"Liez","nom_a":null,"nom_de":null,"slug_ville":"liez","departement_id":0,"code_postal":"85420","population":302,"superficie_km2":"851.22","latitude_centre":"46.3685","longitude_centre":"-0.7043","distance_km":6.73},{"id":0,"code_insee":"85265","nom_standard":"Saint-Pierre-le-Vieux","nom_a":null,"nom_de":null,"slug_ville":"saint-pierre-le-vieux","departement_id":0,"code_postal":"85420","population":917,"superficie_km2":"2342.06","latitude_centre":"46.4006","longitude_centre":"-0.7417","distance_km":7.14},{"id":0,"code_insee":"85148","nom_standard":"Montreuil","nom_a":null,"nom_de":null,"slug_ville":"montreuil","departement_id":0,"code_postal":"85200","population":818,"superficie_km2":"1202.56","latitude_centre":"46.3975","longitude_centre":"-0.8407","distance_km":7.41},{"id":32532,"code_insee":"79010","nom_standard":"Arçais","nom_a":null,"nom_de":null,"slug_ville":"arcais","departement_id":0,"code_postal":"79210","population":615,"superficie_km2":"1514.58","latitude_centre":"46.3002","longitude_centre":"-0.6982","distance_km":8.17},{"id":0,"code_insee":"85139","nom_standard":"Le Mazeau","nom_a":null,"nom_de":null,"slug_ville":"le-mazeau","departement_id":0,"code_postal":"85420","population":464,"superficie_km2":"840.54","latitude_centre":"46.332","longitude_centre":"-0.6769","distance_km":8.34},{"id":33865,"code_insee":"85028","nom_standard":"Bouillé-Courdault","nom_a":null,"nom_de":null,"slug_ville":"bouille-courdault","departement_id":0,"code_postal":"85420","population":595,"superficie_km2":"980.08","latitude_centre":"46.3855","longitude_centre":"-0.6849","distance_km":8.94},{"id":14606,"code_insee":"17322","nom_standard":"Saint-Cyr-du-Doret","nom_a":null,"nom_de":null,"slug_ville":"saint-cyr-du-doret","departement_id":0,"code_postal":"17170","population":681,"superficie_km2":"1713.17","latitude_centre":"46.2661","longitude_centre":"-0.8222","distance_km":9.09},{"id":0,"code_insee":"17127","nom_standard":"Courçon","nom_a":null,"nom_de":null,"slug_ville":"courcon","departement_id":0,"code_postal":"17170","population":2091,"superficie_km2":"1924.01","latitude_centre":"46.2573","longitude_centre":"-0.7928","distance_km":9.61},{"id":0,"code_insee":"85244","nom_standard":"Saint-Martin-de-Fraigneau","nom_a":null,"nom_de":null,"slug_ville":"saint-martin-de-fraigneau","departement_id":0,"code_postal":"85200","population":795,"superficie_km2":"1355.00","latitude_centre":"46.4308","longitude_centre":"-0.7623","distance_km":9.85},{"id":0,"code_insee":"17349","nom_standard":"Saint-Jean-de-Liversay","nom_a":null,"nom_de":null,"slug_ville":"saint-jean-de-liversay","departement_id":0,"code_postal":"17170","population":3063,"superficie_km2":"4161.49","latitude_centre":"46.2822","longitude_centre":"-0.8821","distance_km":10.15},{"id":0,"code_insee":"79257","nom_standard":"Saint-Hilaire-la-Palud","nom_a":null,"nom_de":null,"slug_ville":"saint-hilaire-la-palud","departement_id":0,"code_postal":"79210","population":1498,"superficie_km2":"3410.63","latitude_centre":"46.265","longitude_centre":"-0.7098","distance_km":10.43},{"id":14513,"code_insee":"17182","nom_standard":"La Grève-sur-Mignon","nom_a":null,"nom_de":null,"slug_ville":"la-greve-sur-mignon","departement_id":0,"code_postal":"17170","population":577,"superficie_km2":"1156.89","latitude_centre":"46.2507","longitude_centre":"-0.7604","distance_km":10.48},{"id":0,"code_insee":"85092","nom_standard":"Fontenay-le-Comte","nom_a":null,"nom_de":null,"slug_ville":"fontenay-le-comte","departement_id":0,"code_postal":"85200","population":14059,"superficie_km2":"3420.17","latitude_centre":"46.4587","longitude_centre":"-0.7887","distance_km":12.81}]}