{"ville":{"id":23600,"code_insee":"51339","nom_standard":"Mairy-sur-Marne","nom_a":null,"nom_de":null,"slug_ville":"mairy-sur-marne","departement_id":0,"code_postal":"51240","population":565,"superficie_km2":"2084.11","latitude_centre":"48.866","longitude_centre":"4.3946","dep_code":"51","dep_nom":"Marne","dep_slug":"marne","reg_code":"44","reg_nom":"Grand Est","reg_slug":"grand-est"},"departement":{"code":"51","nom":"Marne","slug":"marne"},"region":{"code":"44","nom":"Grand Est","slug":"grand-est"},"villes_proches":[{"id":0,"code_insee":"51574","nom_standard":"Togny-aux-Bœufs","nom_a":null,"nom_de":null,"slug_ville":"togny-aux-boeufs","departement_id":0,"code_postal":"51240","population":138,"superficie_km2":"995.10","latitude_centre":"48.846","longitude_centre":"4.4237","distance_km":3.08},{"id":0,"code_insee":"51538","nom_standard":"Sogny-aux-Moulins","nom_a":null,"nom_de":null,"slug_ville":"sogny-aux-moulins","departement_id":0,"code_postal":"51520","population":110,"superficie_km2":"669.83","latitude_centre":"48.8968","longitude_centre":"4.3898","distance_km":3.44},{"id":0,"code_insee":"51648","nom_standard":"Vitry-la-Ville","nom_a":null,"nom_de":null,"slug_ville":"vitry-la-ville","departement_id":0,"code_postal":"51240","population":359,"superficie_km2":"920.67","latitude_centre":"48.835","longitude_centre":"4.4329","distance_km":4.44},{"id":0,"code_insee":"51512","nom_standard":"Saint-Quentin-sur-Coole","nom_a":null,"nom_de":null,"slug_ville":"saint-quentin-sur-coole","departement_id":0,"code_postal":"51240","population":104,"superficie_km2":"877.56","latitude_centre":"48.8486","longitude_centre":"4.3299","distance_km":5.11},{"id":23409,"code_insee":"51106","nom_standard":"Cernon","nom_a":null,"nom_de":null,"slug_ville":"cernon","departement_id":0,"code_postal":"51240","population":131,"superficie_km2":"1607.93","latitude_centre":"48.8307","longitude_centre":"4.3426","distance_km":5.47},{"id":23508,"code_insee":"51227","nom_standard":"Écury-sur-Coole","nom_a":null,"nom_de":null,"slug_ville":"ecury-sur-coole","departement_id":0,"code_postal":"51240","population":492,"superficie_km2":"1823.28","latitude_centre":"48.898","longitude_centre":"4.3369","distance_km":5.52},{"id":0,"code_insee":"51616","nom_standard":"Vésigneul-sur-Marne","nom_a":null,"nom_de":null,"slug_ville":"vesigneul-sur-marne","departement_id":0,"code_postal":"51240","population":240,"superficie_km2":"792.08","latitude_centre":"48.8798","longitude_centre":"4.4688","distance_km":5.64},{"id":0,"code_insee":"51482","nom_standard":"Saint-Germain-la-Ville","nom_a":null,"nom_de":null,"slug_ville":"saint-germain-la-ville","departement_id":0,"code_postal":"51240","population":652,"superficie_km2":"1182.79","latitude_centre":"48.8922","longitude_centre":"4.4628","distance_km":5.78},{"id":23447,"code_insee":"51149","nom_standard":"Chepy","nom_a":null,"nom_de":null,"slug_ville":"chepy","departement_id":0,"code_postal":"51240","population":462,"superficie_km2":"869.71","latitude_centre":"48.9071","longitude_centre":"4.4511","distance_km":6.16},{"id":23446,"code_insee":"51148","nom_standard":"Cheppes-la-Prairie","nom_a":null,"nom_de":null,"slug_ville":"cheppes-la-prairie","departement_id":0,"code_postal":"51240","population":138,"superficie_km2":"1996.58","latitude_centre":"48.8207","longitude_centre":"4.4447","distance_km":6.23},{"id":23470,"code_insee":"51178","nom_standard":"Coupetz","nom_a":null,"nom_de":null,"slug_ville":"coupetz","departement_id":0,"code_postal":"51240","population":88,"superficie_km2":"1054.71","latitude_centre":"48.813","longitude_centre":"4.3501","distance_km":6.73},{"id":0,"code_insee":"51525","nom_standard":"Sarry","nom_a":null,"nom_de":null,"slug_ville":"sarry","departement_id":0,"code_postal":"51520","population":2044,"superficie_km2":"1990.86","latitude_centre":"48.9259","longitude_centre":"4.4148","distance_km":6.82},{"id":23392,"code_insee":"51087","nom_standard":"Breuvery-sur-Coole","nom_a":null,"nom_de":null,"slug_ville":"breuvery-sur-coole","departement_id":0,"code_postal":"51240","population":207,"superficie_km2":"1017.54","latitude_centre":"48.854","longitude_centre":"4.3032","distance_km":6.82},{"id":0,"code_insee":"51372","nom_standard":"Moncetz-Longevas","nom_a":null,"nom_de":null,"slug_ville":"moncetz-longevas","departement_id":0,"code_postal":"51470","population":570,"superficie_km2":"723.68","latitude_centre":"48.9189","longitude_centre":"4.4471","distance_km":7.02},{"id":0,"code_insee":"51436","nom_standard":"Pogny","nom_a":null,"nom_de":null,"slug_ville":"pogny","departement_id":0,"code_postal":"51240","population":894,"superficie_km2":"1406.98","latitude_centre":"48.8632","longitude_centre":"4.4917","distance_km":7.11},{"id":23462,"code_insee":"51168","nom_standard":"Coolus","nom_a":null,"nom_de":null,"slug_ville":"coolus","departement_id":0,"code_postal":"51510","population":235,"superficie_km2":"1316.56","latitude_centre":"48.9142","longitude_centre":"4.3174","distance_km":7.78},{"id":0,"code_insee":"51502","nom_standard":"Saint-Martin-aux-Champs","nom_a":null,"nom_de":null,"slug_ville":"saint-martin-aux-champs","departement_id":0,"code_postal":"51240","population":101,"superficie_km2":"724.74","latitude_centre":"48.8167","longitude_centre":"4.4771","distance_km":8.15},{"id":0,"code_insee":"51160","nom_standard":"Compertrix","nom_a":null,"nom_de":null,"slug_ville":"compertrix","departement_id":0,"code_postal":"51510","population":1308,"superficie_km2":"472.25","latitude_centre":"48.9278","longitude_centre":"4.3217","distance_km":8.7},{"id":23522,"code_insee":"51244","nom_standard":"Faux-Vésigneul","nom_a":null,"nom_de":null,"slug_ville":"faux-vesigneul","departement_id":0,"code_postal":"51320","population":238,"superficie_km2":"3921.61","latitude_centre":"48.7854","longitude_centre":"4.3847","distance_km":8.99},{"id":0,"code_insee":"51506","nom_standard":"Saint-Memmie","nom_a":null,"nom_de":null,"slug_ville":"saint-memmie","departement_id":0,"code_postal":"51470","population":5441,"superficie_km2":"1262.40","latitude_centre":"48.9545","longitude_centre":"4.4154","distance_km":9.96}]}