{"ville":{"id":26859,"code_insee":"60377","nom_standard":"Maisoncelle-Tuilerie","nom_a":null,"nom_de":null,"slug_ville":"maisoncelle-tuilerie","departement_id":0,"code_postal":"60480","population":285,"superficie_km2":"773.23","latitude_centre":"49.5885","longitude_centre":"2.2222","dep_code":"60","dep_nom":"Oise","dep_slug":"oise","reg_code":"32","reg_nom":"Hauts-de-France","reg_slug":"hauts-de-france"},"departement":{"code":"60","nom":"Oise","slug":"oise"},"region":{"code":"32","nom":"Hauts-de-France","slug":"hauts-de-france"},"villes_proches":[{"id":0,"code_insee":"60518","nom_standard":"Puits-la-Vallée","nom_a":null,"nom_de":null,"slug_ville":"puits-la-vallee","departement_id":0,"code_postal":"60480","population":203,"superficie_km2":"432.26","latitude_centre":"49.585","longitude_centre":"2.1912","distance_km":2.27},{"id":0,"code_insee":"60648","nom_standard":"Troussencourt","nom_a":null,"nom_de":null,"slug_ville":"troussencourt","departement_id":0,"code_postal":"60120","population":314,"superficie_km2":"536.27","latitude_centre":"49.6041","longitude_centre":"2.2488","distance_km":2.59},{"id":0,"code_insee":"60573","nom_standard":"Sainte-Eusoye","nom_a":null,"nom_de":null,"slug_ville":"sainte-eusoye","departement_id":0,"code_postal":"60480","population":331,"superficie_km2":"850.25","latitude_centre":"49.5747","longitude_centre":"2.2524","distance_km":2.66},{"id":26772,"code_insee":"60265","nom_standard":"Froissy","nom_a":null,"nom_de":null,"slug_ville":"froissy","departement_id":0,"code_postal":"60480","population":962,"superficie_km2":"662.77","latitude_centre":"49.5652","longitude_centre":"2.2122","distance_km":2.69},{"id":26800,"code_insee":"60299","nom_standard":"Hardivillers","nom_a":null,"nom_de":null,"slug_ville":"hardivillers","departement_id":0,"code_postal":"60120","population":548,"superficie_km2":"968.72","latitude_centre":"49.6187","longitude_centre":"2.2273","distance_km":3.38},{"id":0,"code_insee":"60485","nom_standard":"Oursel-Maison","nom_a":null,"nom_de":null,"slug_ville":"oursel-maison","departement_id":0,"code_postal":"60480","population":248,"superficie_km2":"702.83","latitude_centre":"49.6013","longitude_centre":"2.1772","distance_km":3.54},{"id":26831,"code_insee":"60336","nom_standard":"Lachaussée-du-Bois-d'Écu","nom_a":null,"nom_de":null,"slug_ville":"lachaussee-du-bois-d-ecu","departement_id":0,"code_postal":"60480","population":182,"superficie_km2":"592.74","latitude_centre":"49.5616","longitude_centre":"2.1751","distance_km":4.53},{"id":26702,"code_insee":"60182","nom_standard":"Le Crocq","nom_a":null,"nom_de":null,"slug_ville":"le-crocq","departement_id":0,"code_postal":"60120","population":178,"superficie_km2":"311.03","latitude_centre":"49.6239","longitude_centre":"2.189","distance_km":4.61},{"id":0,"code_insee":"60465","nom_standard":"Noirémont","nom_a":null,"nom_de":null,"slug_ville":"noiremont","departement_id":0,"code_postal":"60480","population":194,"superficie_km2":"641.26","latitude_centre":"49.5471","longitude_centre":"2.2172","distance_km":4.62},{"id":0,"code_insee":"60470","nom_standard":"Noyers-Saint-Martin","nom_a":null,"nom_de":null,"slug_ville":"noyers-saint-martin","departement_id":0,"code_postal":"60480","population":887,"superficie_km2":"1328.75","latitude_centre":"49.5492","longitude_centre":"2.2661","distance_km":5.4},{"id":26761,"code_insee":"60253","nom_standard":"Francastel","nom_a":null,"nom_de":null,"slug_ville":"francastel","departement_id":0,"code_postal":"60480","population":497,"superficie_km2":"1259.43","latitude_centre":"49.591","longitude_centre":"2.1449","distance_km":5.58},{"id":0,"code_insee":"60664","nom_standard":"Vendeuil-Caply","nom_a":null,"nom_de":null,"slug_ville":"vendeuil-caply","departement_id":0,"code_postal":"60120","population":447,"superficie_km2":"1093.23","latitude_centre":"49.6083","longitude_centre":"2.2955","distance_km":5.72},{"id":0,"code_insee":"60692","nom_standard":"Villers-Vicomte","nom_a":null,"nom_de":null,"slug_ville":"villers-vicomte","departement_id":0,"code_postal":"60120","population":162,"superficie_km2":"519.86","latitude_centre":"49.6419","longitude_centre":"2.2304","distance_km":5.97},{"id":26716,"code_insee":"60199","nom_standard":"Doméliers","nom_a":null,"nom_de":null,"slug_ville":"domeliers","departement_id":0,"code_postal":"60360","population":250,"superficie_km2":"611.78","latitude_centre":"49.6296","longitude_centre":"2.1626","distance_km":6.27},{"id":26688,"code_insee":"60163","nom_standard":"Cormeilles","nom_a":null,"nom_de":null,"slug_ville":"cormeilles","departement_id":0,"code_postal":"60120","population":392,"superficie_km2":"721.42","latitude_centre":"49.643","longitude_centre":"2.1984","distance_km":6.3},{"id":0,"code_insee":"60457","nom_standard":"La Neuville-Saint-Pierre","nom_a":null,"nom_de":null,"slug_ville":"la-neuville-saint-pierre","departement_id":0,"code_postal":"60480","population":162,"superficie_km2":"416.03","latitude_centre":"49.533","longitude_centre":"2.198","distance_km":6.41},{"id":0,"code_insee":"60390","nom_standard":"Maulers","nom_a":null,"nom_de":null,"slug_ville":"maulers","departement_id":0,"code_postal":"60480","population":344,"superficie_km2":"762.65","latitude_centre":"49.5428","longitude_centre":"2.1649","distance_km":6.55},{"id":0,"code_insee":"60535","nom_standard":"Reuil-sur-Brêche","nom_a":null,"nom_de":null,"slug_ville":"reuil-sur-breche","departement_id":0,"code_postal":"60480","population":329,"superficie_km2":"1271.45","latitude_centre":"49.5234","longitude_centre":"2.2228","distance_km":7.24},{"id":26748,"code_insee":"60237","nom_standard":"Fléchy","nom_a":null,"nom_de":null,"slug_ville":"flechy","departement_id":0,"code_postal":"60120","population":84,"superficie_km2":"480.19","latitude_centre":"49.6596","longitude_centre":"2.2319","distance_km":7.94},{"id":26629,"code_insee":"60075","nom_standard":"Blancfossé","nom_a":null,"nom_de":null,"slug_ville":"blancfosse","departement_id":0,"code_postal":"60120","population":143,"superficie_km2":"517.44","latitude_centre":"49.6621","longitude_centre":"2.1915","distance_km":8.48}]}