{"ville":{"id":11656,"code_insee":"07148","nom_standard":"Malbosc","nom_a":null,"nom_de":null,"slug_ville":"malbosc","departement_id":0,"code_postal":"07140","population":146,"superficie_km2":"2169.44","latitude_centre":"44.3484","longitude_centre":"4.0729","dep_code":"07","dep_nom":"Ardèche","dep_slug":"ardeche","reg_code":"84","reg_nom":"Auvergne-Rhône-Alpes","reg_slug":"auvergne-rhone-alpes"},"departement":{"code":"07","nom":"Ardèche","slug":"ardeche"},"region":{"code":"84","nom":"Auvergne-Rhône-Alpes","slug":"auvergne-rhone-alpes"},"villes_proches":[{"id":0,"code_insee":"30045","nom_standard":"Bordezac","nom_a":null,"nom_de":null,"slug_ville":"bordezac","departement_id":0,"code_postal":"30160","population":387,"superficie_km2":"937.13","latitude_centre":"44.3161","longitude_centre":"4.0843","distance_km":3.7},{"id":0,"code_insee":"30044","nom_standard":"Bonnevaux","nom_a":null,"nom_de":null,"slug_ville":"bonnevaux","departement_id":0,"code_postal":"30450","population":78,"superficie_km2":"890.08","latitude_centre":"44.3724","longitude_centre":"4.0374","distance_km":3.88},{"id":0,"code_insee":"30022","nom_standard":"Aujac","nom_a":null,"nom_de":null,"slug_ville":"aujac","departement_id":0,"code_postal":"30450","population":147,"superficie_km2":"1646.78","latitude_centre":"44.3559","longitude_centre":"4.0169","distance_km":4.53},{"id":0,"code_insee":"30316","nom_standard":"Sénéchas","nom_a":null,"nom_de":null,"slug_ville":"senechas","departement_id":0,"code_postal":"30450","population":247,"superficie_km2":"1471.42","latitude_centre":"44.3393","longitude_centre":"4.0126","distance_km":4.9},{"id":0,"code_insee":"30120","nom_standard":"Gagnières","nom_a":null,"nom_de":null,"slug_ville":"gagnieres","departement_id":0,"code_postal":"30160","population":1102,"superficie_km2":"1123.10","latitude_centre":"44.3157","longitude_centre":"4.1175","distance_km":5.08},{"id":0,"code_insee":"07334","nom_standard":"Les Vans","nom_a":null,"nom_de":null,"slug_ville":"les-vans","departement_id":0,"code_postal":"07140","population":2662,"superficie_km2":"3118.34","latitude_centre":"44.3884","longitude_centre":"4.1145","distance_km":5.54},{"id":0,"code_insee":"30194","nom_standard":"Peyremale","nom_a":null,"nom_de":null,"slug_ville":"peyremale","departement_id":0,"code_postal":"30160","population":272,"superficie_km2":"870.20","latitude_centre":"44.2989","longitude_centre":"4.0581","distance_km":5.63},{"id":11565,"code_insee":"07024","nom_standard":"Banne","nom_a":null,"nom_de":null,"slug_ville":"banne","departement_id":0,"code_postal":"07460","population":648,"superficie_km2":"3288.26","latitude_centre":"44.3598","longitude_centre":"4.1463","distance_km":5.97},{"id":0,"code_insee":"30079","nom_standard":"Chambon","nom_a":null,"nom_de":null,"slug_ville":"chambon","departement_id":0,"code_postal":"30450","population":260,"superficie_km2":"1447.42","latitude_centre":"44.3038","longitude_centre":"4.0155","distance_km":6.74},{"id":0,"code_insee":"07280","nom_standard":"Saint-Paul-le-Jeune","nom_a":null,"nom_de":null,"slug_ville":"saint-paul-le-jeune","departement_id":0,"code_postal":"07460","population":968,"superficie_km2":"1459.15","latitude_centre":"44.3332","longitude_centre":"4.1573","distance_km":6.92},{"id":0,"code_insee":"30037","nom_standard":"Bessèges","nom_a":null,"nom_de":null,"slug_ville":"besseges","departement_id":0,"code_postal":"30160","population":2606,"superficie_km2":"1035.86","latitude_centre":"44.2889","longitude_centre":"4.107","distance_km":7.15},{"id":11623,"code_insee":"07100","nom_standard":"Gravières","nom_a":null,"nom_de":null,"slug_ville":"gravieres","departement_id":0,"code_postal":"07140","population":508,"superficie_km2":"1880.42","latitude_centre":"44.4199","longitude_centre":"4.0715","distance_km":7.95},{"id":0,"code_insee":"30097","nom_standard":"Courry","nom_a":null,"nom_de":null,"slug_ville":"courry","departement_id":0,"code_postal":"30500","population":281,"superficie_km2":"831.09","latitude_centre":"44.303","longitude_centre":"4.1622","distance_km":8.71},{"id":0,"code_insee":"30345","nom_standard":"La Vernarède","nom_a":null,"nom_de":null,"slug_ville":"la-vernarede","departement_id":0,"code_postal":"30530","population":364,"superficie_km2":"567.96","latitude_centre":"44.284","longitude_centre":"4.0077","distance_km":8.84},{"id":0,"code_insee":"30216","nom_standard":"Robiac-Rochessadoule","nom_a":null,"nom_de":null,"slug_ville":"robiac-rochessadoule","departement_id":0,"code_postal":"30160","population":832,"superficie_km2":"1056.46","latitude_centre":"44.2672","longitude_centre":"4.0931","distance_km":9.17},{"id":0,"code_insee":"30153","nom_standard":"Malons-et-Elze","nom_a":null,"nom_de":null,"slug_ville":"malons-et-elze","departement_id":0,"code_postal":"30450","population":111,"superficie_km2":"3115.96","latitude_centre":"44.4221","longitude_centre":"4.0197","distance_km":9.22},{"id":11586,"code_insee":"07050","nom_standard":"Chambonas","nom_a":null,"nom_de":null,"slug_ville":"chambonas","departement_id":0,"code_postal":"07140","population":992,"superficie_km2":"1219.75","latitude_centre":"44.4253","longitude_centre":"4.1301","distance_km":9.68},{"id":0,"code_insee":"07305","nom_standard":"Les Salelles","nom_a":null,"nom_de":null,"slug_ville":"les-salelles","departement_id":0,"code_postal":"07140","population":414,"superficie_km2":"567.56","latitude_centre":"44.4355","longitude_centre":"4.0989","distance_km":9.9},{"id":0,"code_insee":"30203","nom_standard":"Portes","nom_a":null,"nom_de":null,"slug_ville":"portes","departement_id":0,"code_postal":"30530","population":320,"superficie_km2":"1457.43","latitude_centre":"44.2629","longitude_centre":"4.0328","distance_km":10.03},{"id":0,"code_insee":"30159","nom_standard":"Le Martinet","nom_a":null,"nom_de":null,"slug_ville":"le-martinet","departement_id":0,"code_postal":"30960","population":719,"superficie_km2":"1039.26","latitude_centre":"44.2525","longitude_centre":"4.0844","distance_km":10.7}]}