{"ville":{"id":21922,"code_insee":"43126","nom_standard":"Malrevers","nom_a":null,"nom_de":null,"slug_ville":"malrevers","departement_id":0,"code_postal":"43800","population":763,"superficie_km2":"1420.16","latitude_centre":"45.0968","longitude_centre":"3.9609","dep_code":"43","dep_nom":"Haute-Loire","dep_slug":"haute-loire","reg_code":"84","reg_nom":"Auvergne-Rhône-Alpes","reg_slug":"auvergne-rhone-alpes"},"departement":{"code":"43","nom":"Haute-Loire","slug":"haute-loire"},"region":{"code":"84","nom":"Auvergne-Rhône-Alpes","slug":"auvergne-rhone-alpes"},"villes_proches":[{"id":21869,"code_insee":"43061","nom_standard":"Chaspinhac","nom_a":null,"nom_de":null,"slug_ville":"chaspinhac","departement_id":0,"code_postal":"43700","population":875,"superficie_km2":"1645.21","latitude_centre":"45.0902","longitude_centre":"3.9361","distance_km":2.08},{"id":0,"code_insee":"43181","nom_standard":"Saint-Étienne-Lardeyrol","nom_a":null,"nom_de":null,"slug_ville":"saint-etienne-lardeyrol","departement_id":0,"code_postal":"43260","population":771,"superficie_km2":"1195.09","latitude_centre":"45.086","longitude_centre":"4.0018","distance_km":3.43},{"id":0,"code_insee":"43032","nom_standard":"Blavozy","nom_a":null,"nom_de":null,"slug_ville":"blavozy","departement_id":0,"code_postal":"43700","population":1724,"superficie_km2":"630.31","latitude_centre":"45.0623","longitude_centre":"3.9721","distance_km":3.94},{"id":0,"code_insee":"43021","nom_standard":"Beaulieu","nom_a":null,"nom_de":null,"slug_ville":"beaulieu","departement_id":0,"code_postal":"43800","population":1096,"superficie_km2":"2264.17","latitude_centre":"45.14","longitude_centre":"3.9515","distance_km":4.86},{"id":21916,"code_insee":"43119","nom_standard":"Lavoûte-sur-Loire","nom_a":null,"nom_de":null,"slug_ville":"lavoute-sur-loire","departement_id":0,"code_postal":"43800","population":805,"superficie_km2":"1051.96","latitude_centre":"45.1197","longitude_centre":"3.9049","distance_km":5.08},{"id":0,"code_insee":"43140","nom_standard":"Le Monteil","nom_a":null,"nom_de":null,"slug_ville":"le-monteil","departement_id":0,"code_postal":"43700","population":691,"superficie_km2":"218.65","latitude_centre":"45.0663","longitude_centre":"3.9109","distance_km":5.19},{"id":0,"code_insee":"43165","nom_standard":"Rosières","nom_a":null,"nom_de":null,"slug_ville":"rosieres","departement_id":0,"code_postal":"43800","population":1548,"superficie_km2":"2740.78","latitude_centre":"45.1322","longitude_centre":"4.006","distance_km":5.29},{"id":0,"code_insee":"43046","nom_standard":"Chadrac","nom_a":null,"nom_de":null,"slug_ville":"chadrac","departement_id":0,"code_postal":"43770","population":2542,"superficie_km2":"247.60","latitude_centre":"45.0602","longitude_centre":"3.9013","distance_km":6.2},{"id":0,"code_insee":"43041","nom_standard":"Brives-Charensac","nom_a":null,"nom_de":null,"slug_ville":"brives-charensac","departement_id":0,"code_postal":"43700","population":4244,"superficie_km2":"472.93","latitude_centre":"45.0437","longitude_centre":"3.9222","distance_km":6.64},{"id":0,"code_insee":"43190","nom_standard":"Saint-Germain-Laprade","nom_a":null,"nom_de":null,"slug_ville":"saint-germain-laprade","departement_id":0,"code_postal":"43700","population":3432,"superficie_km2":"2801.92","latitude_centre":"45.0353","longitude_centre":"3.9837","distance_km":7.07},{"id":0,"code_insee":"43194","nom_standard":"Saint-Hostien","nom_a":null,"nom_de":null,"slug_ville":"saint-hostien","departement_id":0,"code_postal":"43260","population":697,"superficie_km2":"1352.98","latitude_centre":"45.0793","longitude_centre":"4.0509","distance_km":7.33},{"id":0,"code_insee":"43002","nom_standard":"Aiguilhe","nom_a":null,"nom_de":null,"slug_ville":"aiguilhe","departement_id":0,"code_postal":"43000","population":1498,"superficie_km2":"110.08","latitude_centre":"45.0528","longitude_centre":"3.8851","distance_km":7.7},{"id":0,"code_insee":"43230","nom_standard":"Saint-Vincent","nom_a":null,"nom_de":null,"slug_ville":"saint-vincent","departement_id":0,"code_postal":"43800","population":1089,"superficie_km2":"2092.57","latitude_centre":"45.1525","longitude_centre":"3.8961","distance_km":8.01},{"id":0,"code_insee":"43150","nom_standard":"Le Pertuis","nom_a":null,"nom_de":null,"slug_ville":"le-pertuis","departement_id":0,"code_postal":"43200","population":576,"superficie_km2":"1202.95","latitude_centre":"45.104","longitude_centre":"4.0625","distance_km":8.01},{"id":0,"code_insee":"43152","nom_standard":"Polignac","nom_a":null,"nom_de":null,"slug_ville":"polignac","departement_id":0,"code_postal":"43000","population":2819,"superficie_km2":"3290.52","latitude_centre":"45.0784","longitude_centre":"3.8599","distance_km":8.19},{"id":0,"code_insee":"43218","nom_standard":"Saint-Pierre-Eynac","nom_a":null,"nom_de":null,"slug_ville":"saint-pierre-eynac","departement_id":0,"code_postal":"43260","population":1288,"superficie_km2":"2418.68","latitude_centre":"45.0426","longitude_centre":"4.0343","distance_km":8.34},{"id":0,"code_insee":"43203","nom_standard":"Saint-Julien-du-Pinet","nom_a":null,"nom_de":null,"slug_ville":"saint-julien-du-pinet","departement_id":0,"code_postal":"43200","population":481,"superficie_km2":"1743.67","latitude_centre":"45.1463","longitude_centre":"4.0476","distance_km":8.75},{"id":0,"code_insee":"43134","nom_standard":"Mézères","nom_a":null,"nom_de":null,"slug_ville":"mezeres","departement_id":0,"code_postal":"43800","population":178,"superficie_km2":"871.18","latitude_centre":"45.1671","longitude_centre":"4.0127","distance_km":8.81},{"id":0,"code_insee":"43157","nom_standard":"Le Puy-en-Velay","nom_a":null,"nom_de":null,"slug_ville":"le-puy-en-velay","departement_id":0,"code_postal":"43000","population":18540,"superficie_km2":"1684.10","latitude_centre":"45.0283","longitude_centre":"3.8973","distance_km":9.11},{"id":21859,"code_insee":"43049","nom_standard":"Chamalières-sur-Loire","nom_a":null,"nom_de":null,"slug_ville":"chamalieres-sur-loire","departement_id":0,"code_postal":"43800","population":506,"superficie_km2":"1371.62","latitude_centre":"45.1883","longitude_centre":"3.984","distance_km":10.33}]}