{"ville":{"id":7811,"code_insee":"74160","nom_standard":"Manigod","nom_a":null,"nom_de":null,"slug_ville":"manigod","departement_id":675,"code_postal":"74230","population":1003,"superficie_km2":"44.00","latitude_centre":"45.8499985","longitude_centre":"6.4010000","dep_code":"74","dep_nom":"Haute-Savoie","dep_slug":"haute-savoie","reg_code":"01","reg_nom":"Auvergne-Rhône-Alpes","reg_slug":"auvergne-rhone-alpes"},"departement":{"code":"74","nom":"Haute-Savoie","slug":"haute-savoie"},"region":{"code":"01","nom":"Auvergne-Rhône-Alpes","slug":"auvergne-rhone-alpes"},"villes_proches":[{"id":7765,"code_insee":"74080","nom_standard":"La Clusaz","nom_a":null,"nom_de":null,"slug_ville":"la-clusaz","departement_id":675,"code_postal":"74220","population":1701,"superficie_km2":"41.00","latitude_centre":"45.9000015","longitude_centre":"6.4600000","distance_km":7.2},{"id":7888,"code_insee":"74302","nom_standard":"Les Villards-sur-Thônes","nom_a":null,"nom_de":null,"slug_ville":"les-villards-sur-thones","departement_id":675,"code_postal":"74230","population":1105,"superficie_km2":"13.00","latitude_centre":"45.9129982","longitude_centre":"6.3750000","distance_km":7.29},{"id":7877,"code_insee":"74280","nom_standard":"Thônes","nom_a":null,"nom_de":null,"slug_ville":"thones","departement_id":675,"code_postal":"74230","population":6600,"superficie_km2":"52.00","latitude_centre":"45.8849983","longitude_centre":"6.3200002","distance_km":7.38},{"id":7855,"code_insee":"74239","nom_standard":"Saint-Jean-de-Sixt","nom_a":null,"nom_de":null,"slug_ville":"saint-jean-de-sixt","departement_id":675,"code_postal":"74450","population":1486,"superficie_km2":"12.00","latitude_centre":"45.9239998","longitude_centre":"6.4099998","distance_km":8.26},{"id":7717,"code_insee":"73303","nom_standard":"Ugine","nom_a":null,"nom_de":null,"slug_ville":"ugine","departement_id":674,"code_postal":"73400","population":7148,"superficie_km2":"58.00","latitude_centre":"45.7719994","longitude_centre":"6.4330001","distance_km":9.02},{"id":7817,"code_insee":"74167","nom_standard":"Val de Chaise","nom_a":null,"nom_de":null,"slug_ville":"val-de-chaise","departement_id":675,"code_postal":"74210","population":1390,"superficie_km2":"15.00","latitude_centre":"45.7649994","longitude_centre":"6.3509998","distance_km":10.22},{"id":7676,"code_insee":"73153","nom_standard":"Marthod","nom_a":null,"nom_de":null,"slug_ville":"marthod","departement_id":674,"code_postal":"73400","population":1339,"superficie_km2":"15.00","latitude_centre":"45.7319984","longitude_centre":"6.3940001","distance_km":13.13},{"id":7795,"code_insee":"74136","nom_standard":"Le Grand-Bornand","nom_a":null,"nom_de":null,"slug_ville":"le-grand-bornand","departement_id":675,"code_postal":"74450","population":2068,"superficie_km2":"61.00","latitude_centre":"45.9560013","longitude_centre":"6.4759998","distance_km":13.14},{"id":7726,"code_insee":"74003","nom_standard":"Alex","nom_a":null,"nom_de":null,"slug_ville":"alex","departement_id":675,"code_postal":"74290","population":1113,"superficie_km2":"17.00","latitude_centre":"45.8810005","longitude_centre":"6.2360001","distance_km":13.23},{"id":7874,"code_insee":"74275","nom_standard":"Talloires-Montmin","nom_a":null,"nom_de":null,"slug_ville":"talloires-montmin","departement_id":675,"code_postal":"74210","population":1926,"superficie_km2":"26.00","latitude_centre":"45.8359985","longitude_centre":"6.2300000","distance_km":13.34},{"id":7844,"code_insee":"74215","nom_standard":"Praz-sur-Arly","nom_a":null,"nom_de":null,"slug_ville":"praz-sur-arly","departement_id":675,"code_postal":"74120","population":1267,"superficie_km2":"23.00","latitude_centre":"45.8269997","longitude_centre":"6.5799999","distance_km":14.1},{"id":7787,"code_insee":"74123","nom_standard":"Faverges-Seythenex","nom_a":null,"nom_de":null,"slug_ville":"faverges-seythenex","departement_id":675,"code_postal":"74210","population":7581,"superficie_km2":"26.00","latitude_centre":"45.7490006","longitude_centre":"6.2849998","distance_km":14.39},{"id":7777,"code_insee":"74102","nom_standard":"Dingy-Saint-Clair","nom_a":null,"nom_de":null,"slug_ville":"dingy-saint-clair","departement_id":675,"code_postal":"74230","population":1452,"superficie_km2":"34.00","latitude_centre":"45.9290009","longitude_centre":"6.2500000","distance_km":14.62},{"id":7823,"code_insee":"74176","nom_standard":"Menthon-Saint-Bernard","nom_a":null,"nom_de":null,"slug_ville":"menthon-saint-bernard","departement_id":675,"code_postal":"74290","population":1885,"superficie_km2":"7.00","latitude_centre":"45.8650017","longitude_centre":"6.1939998","distance_km":16.12},{"id":7781,"code_insee":"74108","nom_standard":"Duingt","nom_a":null,"nom_de":null,"slug_ville":"duingt","departement_id":675,"code_postal":"74410","population":1044,"superficie_km2":"6.00","latitude_centre":"45.8199997","longitude_centre":"6.1950002","distance_km":16.3},{"id":7842,"code_insee":"74212","nom_standard":"Glières-Val-de-Borne","nom_a":null,"nom_de":null,"slug_ville":"glieres-val-de-borne","departement_id":675,"code_postal":"74130","population":1827,"superficie_km2":"53.00","latitude_centre":"45.9970017","longitude_centre":"6.3909998","distance_km":16.36},{"id":7779,"code_insee":"74104","nom_standard":"Doussard","nom_a":null,"nom_de":null,"slug_ville":"doussard","departement_id":675,"code_postal":"74210","population":3626,"superficie_km2":"23.00","latitude_centre":"45.7709999","longitude_centre":"6.2220001","distance_km":16.42},{"id":7822,"code_insee":"74173","nom_standard":"Megève","nom_a":null,"nom_de":null,"slug_ville":"megeve","departement_id":675,"code_postal":"74120","population":2961,"superficie_km2":"44.00","latitude_centre":"45.8400002","longitude_centre":"6.6240001","distance_km":17.31},{"id":7887,"code_insee":"74299","nom_standard":"Veyrier-du-Lac","nom_a":null,"nom_de":null,"slug_ville":"veyrier-du-lac","departement_id":675,"code_postal":"74290","population":2297,"superficie_km2":"13.00","latitude_centre":"45.8860016","longitude_centre":"6.1770000","distance_km":17.8},{"id":7879,"code_insee":"74282","nom_standard":"Fillière","nom_a":null,"nom_de":null,"slug_ville":"filliere","departement_id":675,"code_postal":"74370","population":9547,"superficie_km2":"63.00","latitude_centre":"45.9920006","longitude_centre":"6.2880001","distance_km":18.05}]}