{"ville":{"id":15507,"code_insee":"21376","nom_standard":"Marandeuil","nom_a":null,"nom_de":null,"slug_ville":"marandeuil","departement_id":0,"code_postal":"21270","population":100,"superficie_km2":"453.90","latitude_centre":"47.3454","longitude_centre":"5.3411","dep_code":"21","dep_nom":"Côte-d'Or","dep_slug":"cote-d-or","reg_code":"27","reg_nom":"Bourgogne-Franche-Comté","reg_slug":"bourgogne-franche-comte"},"departement":{"code":"21","nom":"Côte-d'Or","slug":"cote-d-or"},"region":{"code":"27","nom":"Bourgogne-Franche-Comté","slug":"bourgogne-franche-comte"},"villes_proches":[{"id":0,"code_insee":"21644","nom_standard":"Trochères","nom_a":null,"nom_de":null,"slug_ville":"trocheres","departement_id":0,"code_postal":"21310","population":166,"superficie_km2":"511.73","latitude_centre":"47.3487","longitude_centre":"5.3125","distance_km":2.19},{"id":0,"code_insee":"21437","nom_standard":"Montmançon","nom_a":null,"nom_de":null,"slug_ville":"montmancon","departement_id":0,"code_postal":"21270","population":237,"superficie_km2":"901.08","latitude_centre":"47.3543","longitude_centre":"5.3746","distance_km":2.71},{"id":15304,"code_insee":"21146","nom_standard":"Charmes","nom_a":null,"nom_de":null,"slug_ville":"charmes","departement_id":0,"code_postal":"21310","population":122,"superficie_km2":"657.38","latitude_centre":"47.37","longitude_centre":"5.3535","distance_km":2.89},{"id":15402,"code_insee":"21256","nom_standard":"Étevaux","nom_a":null,"nom_de":null,"slug_ville":"etevaux","departement_id":0,"code_postal":"21270","population":305,"superficie_km2":"872.35","latitude_centre":"47.3228","longitude_centre":"5.3211","distance_km":2.93},{"id":15379,"code_insee":"21233","nom_standard":"Drambon","nom_a":null,"nom_de":null,"slug_ville":"drambon","departement_id":0,"code_postal":"21270","population":179,"superficie_km2":"491.09","latitude_centre":"47.3346","longitude_centre":"5.3778","distance_km":3.01},{"id":0,"code_insee":"21556","nom_standard":"Saint-Léger-Triey","nom_a":null,"nom_de":null,"slug_ville":"saint-leger-triey","departement_id":0,"code_postal":"21270","population":258,"superficie_km2":"1050.97","latitude_centre":"47.3174","longitude_centre":"5.3518","distance_km":3.22},{"id":15363,"code_insee":"21215","nom_standard":"Cuiserey","nom_a":null,"nom_de":null,"slug_ville":"cuiserey","departement_id":0,"code_postal":"21310","population":172,"superficie_km2":"635.96","latitude_centre":"47.3715","longitude_centre":"5.3197","distance_km":3.32},{"id":15234,"code_insee":"21072","nom_standard":"Bézouotte","nom_a":null,"nom_de":null,"slug_ville":"bezouotte","departement_id":0,"code_postal":"21310","population":209,"superficie_km2":"110.86","latitude_centre":"47.3845","longitude_centre":"5.3371","distance_km":4.36},{"id":15329,"code_insee":"21175","nom_standard":"Cirey-lès-Pontailler","nom_a":null,"nom_de":null,"slug_ville":"cirey-les-pontailler","departement_id":0,"code_postal":"21270","population":181,"superficie_km2":"868.45","latitude_centre":"47.3049","longitude_centre":"5.313","distance_km":4.98},{"id":0,"code_insee":"21571","nom_standard":"Saint-Sauveur","nom_a":null,"nom_de":null,"slug_ville":"saint-sauveur","departement_id":0,"code_postal":"21270","population":225,"superficie_km2":"940.44","latitude_centre":"47.3579","longitude_centre":"5.4084","distance_km":5.26},{"id":15323,"code_insee":"21167","nom_standard":"Cheuge","nom_a":null,"nom_de":null,"slug_ville":"cheuge","departement_id":0,"code_postal":"21310","population":122,"superficie_km2":"884.43","latitude_centre":"47.3881","longitude_centre":"5.379","distance_km":5.54},{"id":0,"code_insee":"21060","nom_standard":"Belleneuve","nom_a":null,"nom_de":null,"slug_ville":"belleneuve","departement_id":0,"code_postal":"21310","population":1571,"superficie_km2":"1450.46","latitude_centre":"47.361","longitude_centre":"5.2709","distance_km":5.57},{"id":15237,"code_insee":"21076","nom_standard":"Binges","nom_a":null,"nom_de":null,"slug_ville":"binges","departement_id":0,"code_postal":"21270","population":880,"superficie_km2":"1778.24","latitude_centre":"47.323","longitude_centre":"5.2711","distance_km":5.83},{"id":0,"code_insee":"21398","nom_standard":"Maxilly-sur-Saône","nom_a":null,"nom_de":null,"slug_ville":"maxilly-sur-saone","departement_id":0,"code_postal":"21270","population":364,"superficie_km2":"791.47","latitude_centre":"47.3301","longitude_centre":"5.4195","distance_km":6.15},{"id":0,"code_insee":"21595","nom_standard":"Savolles","nom_a":null,"nom_de":null,"slug_ville":"savolles","departement_id":0,"code_postal":"21310","population":145,"superficie_km2":"310.60","latitude_centre":"47.3788","longitude_centre":"5.2754","distance_km":6.19},{"id":0,"code_insee":"21624","nom_standard":"Tellecey","nom_a":null,"nom_de":null,"slug_ville":"tellecey","departement_id":0,"code_postal":"21270","population":143,"superficie_km2":"510.27","latitude_centre":"47.2923","longitude_centre":"5.2991","distance_km":6.7},{"id":0,"code_insee":"21416","nom_standard":"Mirebeau-sur-Bèze","nom_a":null,"nom_de":null,"slug_ville":"mirebeau-sur-beze","departement_id":0,"code_postal":"21310","population":1919,"superficie_km2":"2219.31","latitude_centre":"47.4054","longitude_centre":"5.3222","distance_km":6.82},{"id":0,"code_insee":"21713","nom_standard":"Vonges","nom_a":null,"nom_de":null,"slug_ville":"vonges","departement_id":0,"code_postal":"21270","population":358,"superficie_km2":"464.70","latitude_centre":"47.2886","longitude_centre":"5.3933","distance_km":7.44},{"id":0,"code_insee":"21337","nom_standard":"Lamarche-sur-Saône","nom_a":null,"nom_de":null,"slug_ville":"lamarche-sur-saone","departement_id":0,"code_postal":"21760","population":1382,"superficie_km2":"3380.78","latitude_centre":"47.2743","longitude_centre":"5.3711","distance_km":8.22},{"id":0,"code_insee":"21467","nom_standard":"Oisilly","nom_a":null,"nom_de":null,"slug_ville":"oisilly","departement_id":0,"code_postal":"21310","population":127,"superficie_km2":"599.12","latitude_centre":"47.418","longitude_centre":"5.3634","distance_km":8.25}]}