{"ville":{"id":23604,"code_insee":"51343","nom_standard":"Marcilly-sur-Seine","nom_a":null,"nom_de":null,"slug_ville":"marcilly-sur-seine","departement_id":0,"code_postal":"51260","population":622,"superficie_km2":"999.11","latitude_centre":"48.5575","longitude_centre":"3.7116","dep_code":"51","dep_nom":"Marne","dep_slug":"marne","reg_code":"44","reg_nom":"Grand Est","reg_slug":"grand-est"},"departement":{"code":"51","nom":"Marne","slug":"marne"},"region":{"code":"44","nom":"Grand Est","slug":"grand-est"},"villes_proches":[{"id":23457,"code_insee":"51162","nom_standard":"Conflans-sur-Seine","nom_a":null,"nom_de":null,"slug_ville":"conflans-sur-seine","departement_id":0,"code_postal":"51260","population":602,"superficie_km2":"616.39","latitude_centre":"48.5508","longitude_centre":"3.6834","distance_km":2.21},{"id":0,"code_insee":"51642","nom_standard":"Villiers-aux-Corneilles","nom_a":null,"nom_de":null,"slug_ville":"villiers-aux-corneilles","departement_id":0,"code_postal":"51260","population":113,"superficie_km2":"592.68","latitude_centre":"48.5729","longitude_centre":"3.6774","distance_km":3.04},{"id":0,"code_insee":"51524","nom_standard":"Saron-sur-Aube","nom_a":null,"nom_de":null,"slug_ville":"saron-sur-aube","departement_id":0,"code_postal":"51260","population":268,"superficie_km2":"1647.44","latitude_centre":"48.5842","longitude_centre":"3.7274","distance_km":3.19},{"id":0,"code_insee":"51492","nom_standard":"Saint-Just-Sauvage","nom_a":null,"nom_de":null,"slug_ville":"saint-just-sauvage","departement_id":0,"code_postal":"51260","population":1456,"superficie_km2":"1777.47","latitude_centre":"48.5497","longitude_centre":"3.7689","distance_km":4.31},{"id":23514,"code_insee":"51234","nom_standard":"Esclavolles-Lurey","nom_a":null,"nom_de":null,"slug_ville":"esclavolles-lurey","departement_id":0,"code_postal":"51260","population":647,"superficie_km2":"947.80","latitude_centre":"48.5546","longitude_centre":"3.652","distance_km":4.4},{"id":0,"code_insee":"10323","nom_standard":"Romilly-sur-Seine","nom_a":null,"nom_de":null,"slug_ville":"romilly-sur-seine","departement_id":0,"code_postal":"10100","population":14959,"superficie_km2":"2545.25","latitude_centre":"48.5158","longitude_centre":"3.7158","distance_km":4.65},{"id":23355,"code_insee":"51041","nom_standard":"Baudement","nom_a":null,"nom_de":null,"slug_ville":"baudement","departement_id":0,"code_postal":"51260","population":98,"superficie_km2":"854.20","latitude_centre":"48.5802","longitude_centre":"3.7721","distance_km":5.12},{"id":0,"code_insee":"51443","nom_standard":"Potangis","nom_a":null,"nom_de":null,"slug_ville":"potangis","departement_id":0,"code_postal":"51260","population":114,"superficie_km2":"887.90","latitude_centre":"48.5846","longitude_centre":"3.6457","distance_km":5.71},{"id":23407,"code_insee":"51103","nom_standard":"La Celle-sous-Chantemerle","nom_a":null,"nom_de":null,"slug_ville":"la-celle-sous-chantemerle","departement_id":0,"code_postal":"51260","population":136,"superficie_km2":"1204.39","latitude_centre":"48.6054","longitude_centre":"3.6834","distance_km":5.72},{"id":12749,"code_insee":"10284","nom_standard":"Périgny-la-Rose","nom_a":null,"nom_de":null,"slug_ville":"perigny-la-rose","departement_id":0,"code_postal":"10400","population":154,"superficie_km2":"698.20","latitude_centre":"48.5537","longitude_centre":"3.6259","distance_km":6.32},{"id":0,"code_insee":"51511","nom_standard":"Saint-Quentin-le-Verger","nom_a":null,"nom_de":null,"slug_ville":"saint-quentin-le-verger","departement_id":0,"code_postal":"51120","population":112,"superficie_km2":"1064.26","latitude_centre":"48.6153","longitude_centre":"3.7413","distance_km":6.79},{"id":12593,"code_insee":"10114","nom_standard":"Crancey","nom_a":null,"nom_de":null,"slug_ville":"crancey","departement_id":0,"code_postal":"10100","population":691,"superficie_km2":"886.77","latitude_centre":"48.5191","longitude_centre":"3.6387","distance_km":6.86},{"id":12794,"code_insee":"10341","nom_standard":"Saint-Hilaire-sous-Romilly","nom_a":null,"nom_de":null,"slug_ville":"saint-hilaire-sous-romilly","departement_id":0,"code_postal":"10100","population":331,"superficie_km2":"2014.60","latitude_centre":"48.4988","longitude_centre":"3.6569","distance_km":7.67},{"id":23325,"code_insee":"51004","nom_standard":"Allemanche-Launay-et-Soyer","nom_a":null,"nom_de":null,"slug_ville":"allemanche-launay-et-soyer","departement_id":0,"code_postal":"51260","population":121,"superficie_km2":"1524.99","latitude_centre":"48.608","longitude_centre":"3.7932","distance_km":8.22},{"id":0,"code_insee":"10220","nom_standard":"Maizières-la-Grande-Paroisse","nom_a":null,"nom_de":null,"slug_ville":"maizieres-la-grande-paroisse","departement_id":0,"code_postal":"10510","population":1528,"superficie_km2":"2037.99","latitude_centre":"48.5041","longitude_centre":"3.7911","distance_km":8.34},{"id":12746,"code_insee":"10280","nom_standard":"Pars-lès-Romilly","nom_a":null,"nom_de":null,"slug_ville":"pars-les-romilly","departement_id":0,"code_postal":"10100","population":845,"superficie_km2":"1795.76","latitude_centre":"48.482","longitude_centre":"3.7289","distance_km":8.49},{"id":23423,"code_insee":"51124","nom_standard":"Chantemerle","nom_a":null,"nom_de":null,"slug_ville":"chantemerle","departement_id":0,"code_postal":"51260","population":48,"superficie_km2":"844.86","latitude_centre":"48.6183","longitude_centre":"3.6356","distance_km":8.77},{"id":23530,"code_insee":"51254","nom_standard":"Fontaine-Denis-Nuisy","nom_a":null,"nom_de":null,"slug_ville":"fontaine-denis-nuisy","departement_id":0,"code_postal":"51120","population":237,"superficie_km2":"1321.09","latitude_centre":"48.635","longitude_centre":"3.6792","distance_km":8.94},{"id":0,"code_insee":"51628","nom_standard":"Villeneuve-Saint-Vistre-et-Villevotte","nom_a":null,"nom_de":null,"slug_ville":"villeneuve-saint-vistre-et-villevotte","departement_id":0,"code_postal":"51120","population":120,"superficie_km2":"959.70","latitude_centre":"48.6357","longitude_centre":"3.7598","distance_km":9.39},{"id":12639,"code_insee":"10164","nom_standard":"Gélannes","nom_a":null,"nom_de":null,"slug_ville":"gelannes","departement_id":0,"code_postal":"10100","population":694,"superficie_km2":"1208.67","latitude_centre":"48.4751","longitude_centre":"3.6716","distance_km":9.62}]}