{"ville":{"id":10578,"code_insee":"02462","nom_standard":"Mareuil-en-Dôle","nom_a":null,"nom_de":null,"slug_ville":"mareuil-en-dole","departement_id":0,"code_postal":"02130","population":221,"superficie_km2":"913.92","latitude_centre":"49.2446","longitude_centre":"3.5627","dep_code":"02","dep_nom":"Aisne","dep_slug":"aisne","reg_code":"32","reg_nom":"Hauts-de-France","reg_slug":"hauts-de-france"},"departement":{"code":"02","nom":"Aisne","slug":"aisne"},"region":{"code":"32","nom":"Hauts-de-France","slug":"hauts-de-france"},"villes_proches":[{"id":10301,"code_insee":"02129","nom_standard":"Bruys","nom_a":null,"nom_de":null,"slug_ville":"bruys","departement_id":0,"code_postal":"02220","population":20,"superficie_km2":"559.52","latitude_centre":"49.2595","longitude_centre":"3.5669","distance_km":1.68},{"id":10558,"code_insee":"02442","nom_standard":"Loupeigne","nom_a":null,"nom_de":null,"slug_ville":"loupeigne","departement_id":0,"code_postal":"02130","population":85,"superficie_km2":"730.38","latitude_centre":"49.2437","longitude_centre":"3.5251","distance_km":2.73},{"id":10342,"code_insee":"02179","nom_standard":"Chéry-Chartreuve","nom_a":null,"nom_de":null,"slug_ville":"chery-chartreuve","departement_id":0,"code_postal":"02220","population":378,"superficie_km2":"1380.95","latitude_centre":"49.2529","longitude_centre":"3.6081","distance_km":3.42},{"id":10548,"code_insee":"02427","nom_standard":"Lhuys","nom_a":null,"nom_de":null,"slug_ville":"lhuys","departement_id":0,"code_postal":"02220","population":140,"superficie_km2":"492.16","latitude_centre":"49.2734","longitude_centre":"3.5431","distance_km":3.5},{"id":0,"code_insee":"02713","nom_standard":"Seringes-et-Nesles","nom_a":null,"nom_de":null,"slug_ville":"seringes-et-nesles","departement_id":0,"code_postal":"02130","population":273,"superficie_km2":"1367.25","latitude_centre":"49.2115","longitude_centre":"3.5606","distance_km":3.68},{"id":0,"code_insee":"02735","nom_standard":"Tannières","nom_a":null,"nom_de":null,"slug_ville":"tannieres","departement_id":0,"code_postal":"02220","population":16,"superficie_km2":"254.07","latitude_centre":"49.2871","longitude_centre":"3.5483","distance_km":4.84},{"id":0,"code_insee":"02520","nom_standard":"Mont-Notre-Dame","nom_a":null,"nom_de":null,"slug_ville":"mont-notre-dame","departement_id":0,"code_postal":"02220","population":751,"superficie_km2":"996.27","latitude_centre":"49.2933","longitude_centre":"3.5806","distance_km":5.57},{"id":10423,"code_insee":"02271","nom_standard":"Dravegny","nom_a":null,"nom_de":null,"slug_ville":"dravegny","departement_id":0,"code_postal":"02130","population":134,"superficie_km2":"1591.84","latitude_centre":"49.2425","longitude_centre":"3.6395","distance_km":5.58},{"id":10517,"code_insee":"02393","nom_standard":"Jouaignes","nom_a":null,"nom_de":null,"slug_ville":"jouaignes","departement_id":0,"code_postal":"02220","population":141,"superficie_km2":"798.28","latitude_centre":"49.2947","longitude_centre":"3.5294","distance_km":6.07},{"id":10211,"code_insee":"02022","nom_standard":"Arcy-Sainte-Restitue","nom_a":null,"nom_de":null,"slug_ville":"arcy-sainte-restitue","departement_id":0,"code_postal":"02130","population":396,"superficie_km2":"2636.93","latitude_centre":"49.2557","longitude_centre":"3.4776","distance_km":6.3},{"id":0,"code_insee":"02699","nom_standard":"Saponay","nom_a":null,"nom_de":null,"slug_ville":"saponay","departement_id":0,"code_postal":"02130","population":266,"superficie_km2":"1006.24","latitude_centre":"49.2117","longitude_centre":"3.4896","distance_km":6.45},{"id":0,"code_insee":"02523","nom_standard":"Mont-Saint-Martin","nom_a":null,"nom_de":null,"slug_ville":"mont-saint-martin","departement_id":0,"code_postal":"02220","population":70,"superficie_km2":"567.44","latitude_centre":"49.2754","longitude_centre":"3.6409","distance_km":6.63},{"id":0,"code_insee":"02712","nom_standard":"Sergy","nom_a":null,"nom_de":null,"slug_ville":"sergy","departement_id":0,"code_postal":"02130","population":139,"superficie_km2":"1359.12","latitude_centre":"49.182","longitude_centre":"3.568","distance_km":6.97},{"id":10379,"code_insee":"02220","nom_standard":"Coulonges-Cohan","nom_a":null,"nom_de":null,"slug_ville":"coulonges-cohan","departement_id":0,"code_postal":"02130","population":443,"superficie_km2":"2872.10","latitude_centre":"49.1958","longitude_centre":"3.6238","distance_km":7.01},{"id":0,"code_insee":"02633","nom_standard":"Quincy-sous-le-Mont","nom_a":null,"nom_de":null,"slug_ville":"quincy-sous-le-mont","departement_id":0,"code_postal":"02220","population":62,"superficie_km2":"498.91","latitude_centre":"49.3082","longitude_centre":"3.5576","distance_km":7.08},{"id":10401,"code_insee":"02249","nom_standard":"Cuiry-Housse","nom_a":null,"nom_de":null,"slug_ville":"cuiry-housse","departement_id":0,"code_postal":"02220","population":102,"superficie_km2":"856.45","latitude_centre":"49.2886","longitude_centre":"3.4903","distance_km":7.18},{"id":10239,"code_insee":"02054","nom_standard":"Bazoches-et-Saint-Thibaut","nom_a":null,"nom_de":null,"slug_ville":"bazoches-et-saint-thibaut","departement_id":0,"code_postal":"02220","population":516,"superficie_km2":"1364.64","latitude_centre":"49.2991","longitude_centre":"3.6184","distance_km":7.28},{"id":0,"code_insee":"02305","nom_standard":"Fère-en-Tardenois","nom_a":null,"nom_de":null,"slug_ville":"fere-en-tardenois","departement_id":0,"code_postal":"02130","population":2836,"superficie_km2":"2084.70","latitude_centre":"49.1833","longitude_centre":"3.5126","distance_km":7.73},{"id":0,"code_insee":"02816","nom_standard":"Villers-sur-Fère","nom_a":null,"nom_de":null,"slug_ville":"villers-sur-fere","departement_id":0,"code_postal":"02130","population":508,"superficie_km2":"1075.13","latitude_centre":"49.1679","longitude_centre":"3.5302","distance_km":8.85},{"id":10552,"code_insee":"02432","nom_standard":"Limé","nom_a":null,"nom_de":null,"slug_ville":"lime","departement_id":0,"code_postal":"02220","population":192,"superficie_km2":"566.14","latitude_centre":"49.3249","longitude_centre":"3.5559","distance_km":8.94}]}