{"ville":{"id":19328,"code_insee":"32236","nom_standard":"Marguestau","nom_a":null,"nom_de":null,"slug_ville":"marguestau","departement_id":0,"code_postal":"32150","population":56,"superficie_km2":"322.39","latitude_centre":"43.8821","longitude_centre":"-0.0392","dep_code":"32","dep_nom":"Gers","dep_slug":"gers","reg_code":"76","reg_nom":"Occitanie","reg_slug":"occitanie"},"departement":{"code":"32","nom":"Gers","slug":"gers"},"region":{"code":"76","nom":"Occitanie","slug":"occitanie"},"villes_proches":[{"id":19137,"code_insee":"32025","nom_standard":"Ayzieu","nom_a":null,"nom_de":null,"slug_ville":"ayzieu","departement_id":0,"code_postal":"32800","population":158,"superficie_km2":"1385.28","latitude_centre":"43.8586","longitude_centre":"-0.0257","distance_km":2.83},{"id":19288,"code_insee":"32193","nom_standard":"Larée","nom_a":null,"nom_de":null,"slug_ville":"laree","departement_id":0,"code_postal":"32150","population":237,"superficie_km2":"1299.91","latitude_centre":"43.9075","longitude_centre":"-0.0572","distance_km":3.17},{"id":19305,"code_insee":"32211","nom_standard":"Lias-d'Armagnac","nom_a":null,"nom_de":null,"slug_ville":"lias-d-armagnac","departement_id":0,"code_postal":"32240","population":201,"superficie_km2":"1202.72","latitude_centre":"43.859","longitude_centre":"-0.0646","distance_km":3.28},{"id":19183,"code_insee":"32073","nom_standard":"Campagne-d'Armagnac","nom_a":null,"nom_de":null,"slug_ville":"campagne-d-armagnac","departement_id":0,"code_postal":"32800","population":213,"superficie_km2":"552.34","latitude_centre":"43.8604","longitude_centre":"0.0068","distance_km":4.41},{"id":0,"code_insee":"32096","nom_standard":"Cazaubon","nom_a":null,"nom_de":null,"slug_ville":"cazaubon","departement_id":0,"code_postal":"32150","population":1665,"superficie_km2":"5602.54","latitude_centre":"43.9285","longitude_centre":"-0.0336","distance_km":5.18},{"id":19231,"code_insee":"32127","nom_standard":"Estang","nom_a":null,"nom_de":null,"slug_ville":"estang","departement_id":0,"code_postal":"32240","population":668,"superficie_km2":"2281.65","latitude_centre":"43.8761","longitude_centre":"-0.1043","distance_km":5.26},{"id":0,"code_insee":"32264","nom_standard":"Monclar","nom_a":null,"nom_de":null,"slug_ville":"monclar","departement_id":0,"code_postal":"32150","population":217,"superficie_km2":"1012.18","latitude_centre":"43.9143","longitude_centre":"-0.0998","distance_km":6.03},{"id":0,"code_insee":"32340","nom_standard":"Réans","nom_a":null,"nom_de":null,"slug_ville":"reans","departement_id":0,"code_postal":"32800","population":297,"superficie_km2":"1230.04","latitude_centre":"43.8737","longitude_centre":"0.0362","distance_km":6.12},{"id":19173,"code_insee":"32062","nom_standard":"Bourrouillan","nom_a":null,"nom_de":null,"slug_ville":"bourrouillan","departement_id":0,"code_postal":"32370","population":165,"superficie_km2":"869.21","latitude_centre":"43.8282","longitude_centre":"-0.0094","distance_km":6.45},{"id":0,"code_insee":"32305","nom_standard":"Panjas","nom_a":null,"nom_de":null,"slug_ville":"panjas","departement_id":0,"code_postal":"32110","population":431,"superficie_km2":"1995.92","latitude_centre":"43.827","longitude_centre":"-0.0792","distance_km":6.92},{"id":0,"code_insee":"32408","nom_standard":"Salles-d'Armagnac","nom_a":null,"nom_de":null,"slug_ville":"salles-d-armagnac","departement_id":0,"code_postal":"32370","population":116,"superficie_km2":"621.90","latitude_centre":"43.8133","longitude_centre":"-0.045","distance_km":7.66},{"id":0,"code_insee":"40218","nom_standard":"Parleboscq","nom_a":null,"nom_de":null,"slug_ville":"parleboscq","departement_id":0,"code_postal":"40310","population":451,"superficie_km2":"4021.75","latitude_centre":"43.9365","longitude_centre":"0.0263","distance_km":8.01},{"id":0,"code_insee":"32246","nom_standard":"Maupas","nom_a":null,"nom_de":null,"slug_ville":"maupas","departement_id":0,"code_postal":"32240","population":198,"superficie_km2":"986.52","latitude_centre":"43.844","longitude_centre":"-0.1295","distance_km":8.39},{"id":0,"code_insee":"40140","nom_standard":"Lagrange","nom_a":null,"nom_de":null,"slug_ville":"lagrange","departement_id":0,"code_postal":"40240","population":185,"superficie_km2":"2123.22","latitude_centre":"43.9661","longitude_centre":"-0.0866","distance_km":10.08},{"id":0,"code_insee":"32369","nom_standard":"Sainte-Christie-d'Armagnac","nom_a":null,"nom_de":null,"slug_ville":"sainte-christie-d-armagnac","departement_id":0,"code_postal":"32370","population":382,"superficie_km2":"2284.60","latitude_centre":"43.7944","longitude_centre":"-0.0048","distance_km":10.13},{"id":19320,"code_insee":"32227","nom_standard":"Manciet","nom_a":null,"nom_de":null,"slug_ville":"manciet","departement_id":0,"code_postal":"32370","population":758,"superficie_km2":"4260.36","latitude_centre":"43.8186","longitude_centre":"0.0599","distance_km":10.63},{"id":19297,"code_insee":"32202","nom_standard":"Laujuzan","nom_a":null,"nom_de":null,"slug_ville":"laujuzan","departement_id":0,"code_postal":"32110","population":294,"superficie_km2":"1145.51","latitude_centre":"43.8035","longitude_centre":"-0.1167","distance_km":10.72},{"id":19201,"code_insee":"32094","nom_standard":"Caupenne-d'Armagnac","nom_a":null,"nom_de":null,"slug_ville":"caupenne-d-armagnac","departement_id":0,"code_postal":"32110","population":446,"superficie_km2":"2166.58","latitude_centre":"43.7864","longitude_centre":"-0.0701","distance_km":10.93},{"id":0,"code_insee":"40102","nom_standard":"Gabarret","nom_a":null,"nom_de":null,"slug_ville":"gabarret","departement_id":0,"code_postal":"40310","population":1283,"superficie_km2":"1696.06","latitude_centre":"43.9871","longitude_centre":"-0.0049","distance_km":11.99},{"id":0,"code_insee":"32296","nom_standard":"Nogaro","nom_a":null,"nom_de":null,"slug_ville":"nogaro","departement_id":0,"code_postal":"32110","population":2238,"superficie_km2":"1123.39","latitude_centre":"43.7646","longitude_centre":"-0.0295","distance_km":13.09}]}