{"ville":{"id":33125,"code_insee":"80514","nom_standard":"Marieux","nom_a":null,"nom_de":null,"slug_ville":"marieux","departement_id":0,"code_postal":"80560","population":128,"superficie_km2":"407.35","latitude_centre":"50.102","longitude_centre":"2.4453","dep_code":"80","dep_nom":"Somme","dep_slug":"somme","reg_code":"32","reg_nom":"Hauts-de-France","reg_slug":"hauts-de-france"},"departement":{"code":"80","nom":"Somme","slug":"somme"},"region":{"code":"32","nom":"Hauts-de-France","slug":"hauts-de-france"},"villes_proches":[{"id":27954,"code_insee":"62779","nom_standard":"Sarton","nom_a":null,"nom_de":null,"slug_ville":"sarton","departement_id":0,"code_postal":"62760","population":182,"superficie_km2":"651.42","latitude_centre":"50.1079","longitude_centre":"2.4316","distance_km":1.18},{"id":0,"code_insee":"80777","nom_standard":"Vauchelles-lès-Authie","nom_a":null,"nom_de":null,"slug_ville":"vauchelles-les-authie","departement_id":0,"code_postal":"80560","population":132,"superficie_km2":"476.62","latitude_centre":"50.0939","longitude_centre":"2.4708","distance_km":2.03},{"id":0,"code_insee":"80756","nom_standard":"Thièvres","nom_a":null,"nom_de":null,"slug_ville":"thievres","departement_id":0,"code_postal":"80560","population":54,"superficie_km2":"371.56","latitude_centre":"50.1184","longitude_centre":"2.4609","distance_km":2.14},{"id":0,"code_insee":"80659","nom_standard":"Raincheval","nom_a":null,"nom_de":null,"slug_ville":"raincheval","departement_id":0,"code_postal":"80600","population":269,"superficie_km2":"688.98","latitude_centre":"50.0755","longitude_centre":"2.4353","distance_km":3.03},{"id":27856,"code_insee":"62640","nom_standard":"Orville","nom_a":null,"nom_de":null,"slug_ville":"orville","departement_id":0,"code_postal":"62760","population":341,"superficie_km2":"1114.05","latitude_centre":"50.1277","longitude_centre":"2.4206","distance_km":3.36},{"id":27983,"code_insee":"62814","nom_standard":"Thièvres","nom_a":null,"nom_de":null,"slug_ville":"thievres","departement_id":0,"code_postal":"62760","population":96,"superficie_km2":"124.98","latitude_centre":"50.1333","longitude_centre":"2.4479","distance_km":3.49},{"id":32716,"code_insee":"80028","nom_standard":"Arquèves","nom_a":null,"nom_de":null,"slug_ville":"arqueves","departement_id":0,"code_postal":"80560","population":152,"superficie_km2":"770.33","latitude_centre":"50.0751","longitude_centre":"2.4776","distance_km":3.78},{"id":32730,"code_insee":"80043","nom_standard":"Authie","nom_a":null,"nom_de":null,"slug_ville":"authie","departement_id":0,"code_postal":"80560","population":246,"superficie_km2":"1001.99","latitude_centre":"50.1195","longitude_centre":"2.4935","distance_km":3.95},{"id":33107,"code_insee":"80493","nom_standard":"Louvencourt","nom_a":null,"nom_de":null,"slug_ville":"louvencourt","departement_id":0,"code_postal":"80560","population":289,"superficie_km2":"776.79","latitude_centre":"50.0917","longitude_centre":"2.5047","distance_km":4.39},{"id":0,"code_insee":"80749","nom_standard":"Terramesnil","nom_a":null,"nom_de":null,"slug_ville":"terramesnil","departement_id":0,"code_postal":"80600","population":323,"superficie_km2":"267.43","latitude_centre":"50.1008","longitude_centre":"2.3835","distance_km":4.41},{"id":27638,"code_insee":"62322","nom_standard":"Famechon","nom_a":null,"nom_de":null,"slug_ville":"famechon","departement_id":0,"code_postal":"62760","population":111,"superficie_km2":"459.00","latitude_centre":"50.1437","longitude_centre":"2.4587","distance_km":4.73},{"id":27441,"code_insee":"62030","nom_standard":"Amplier","nom_a":null,"nom_de":null,"slug_ville":"amplier","departement_id":0,"code_postal":"62760","population":297,"superficie_km2":"866.88","latitude_centre":"50.1357","longitude_centre":"2.3985","distance_km":5.02},{"id":0,"code_insee":"80705","nom_standard":"Saint-Léger-lès-Authie","nom_a":null,"nom_de":null,"slug_ville":"saint-leger-les-authie","departement_id":0,"code_postal":"80560","population":79,"superficie_km2":"431.59","latitude_centre":"50.1258","longitude_centre":"2.5118","distance_km":5.43},{"id":0,"code_insee":"80070","nom_standard":"Beauquesne","nom_a":null,"nom_de":null,"slug_ville":"beauquesne","departement_id":0,"code_postal":"80600","population":1352,"superficie_km2":"2018.12","latitude_centre":"50.0775","longitude_centre":"2.3789","distance_km":5.46},{"id":33090,"code_insee":"80470","nom_standard":"Léalvillers","nom_a":null,"nom_de":null,"slug_ville":"lealvillers","departement_id":0,"code_postal":"80560","population":156,"superficie_km2":"223.22","latitude_centre":"50.0687","longitude_centre":"2.5074","distance_km":5.77},{"id":0,"code_insee":"80645","nom_standard":"Puchevillers","nom_a":null,"nom_de":null,"slug_ville":"puchevillers","departement_id":0,"code_postal":"80560","population":572,"superficie_km2":"1438.32","latitude_centre":"50.0541","longitude_centre":"2.4083","distance_km":5.94},{"id":27863,"code_insee":"62649","nom_standard":"Pas-en-Artois","nom_a":null,"nom_de":null,"slug_ville":"pas-en-artois","departement_id":0,"code_postal":"62760","population":768,"superficie_km2":"1085.56","latitude_centre":"50.1532","longitude_centre":"2.4899","distance_km":6.52},{"id":0,"code_insee":"80766","nom_standard":"Toutencourt","nom_a":null,"nom_de":null,"slug_ville":"toutencourt","departement_id":0,"code_postal":"80560","population":435,"superficie_km2":"1452.70","latitude_centre":"50.0445","longitude_centre":"2.4711","distance_km":6.65},{"id":27696,"code_insee":"62404","nom_standard":"Halloy","nom_a":null,"nom_de":null,"slug_ville":"halloy","departement_id":0,"code_postal":"62760","population":201,"superficie_km2":"341.59","latitude_centre":"50.1613","longitude_centre":"2.4256","distance_km":6.74},{"id":27876,"code_insee":"62663","nom_standard":"Pommera","nom_a":null,"nom_de":null,"slug_ville":"pommera","departement_id":0,"code_postal":"62760","population":307,"superficie_km2":"444.19","latitude_centre":"50.1671","longitude_centre":"2.4392","distance_km":7.25}]}