{"ville":{"id":670,"code_insee":"10224","nom_standard":"Marigny-le-Châtel","nom_a":null,"nom_de":null,"slug_ville":"marigny-le-chatel","departement_id":610,"code_postal":"10350","population":1756,"superficie_km2":"20.00","latitude_centre":"48.4020004","longitude_centre":"3.7210000","dep_code":"10","dep_nom":"Aube","dep_slug":"aube","reg_code":"06","reg_nom":"Grand Est","reg_slug":"grand-est"},"departement":{"code":"10","nom":"Aube","slug":"aube"},"region":{"code":"06","nom":"Grand Est","slug":"grand-est"},"villes_proches":[{"id":669,"code_insee":"10220","nom_standard":"Maizières-la-Grande-Paroisse","nom_a":null,"nom_de":null,"slug_ville":"maizieres-la-grande-paroisse","departement_id":610,"code_postal":"10510","population":1513,"superficie_km2":"20.00","latitude_centre":"48.5040016","longitude_centre":"3.7890000","distance_km":12.4},{"id":680,"code_insee":"10323","nom_standard":"Romilly-sur-Seine","nom_a":null,"nom_de":null,"slug_ville":"romilly-sur-seine","departement_id":610,"code_postal":"10100","population":14766,"superficie_km2":"25.00","latitude_centre":"48.5190010","longitude_centre":"3.7219999","distance_km":13.01},{"id":677,"code_insee":"10298","nom_standard":"Pont-sur-Seine","nom_a":null,"nom_de":null,"slug_ville":"pont-sur-seine","departement_id":610,"code_postal":"10400","population":1156,"superficie_km2":"16.00","latitude_centre":"48.5089989","longitude_centre":"3.5969999","distance_km":15.01},{"id":690,"code_insee":"10368","nom_standard":"Savières","nom_a":null,"nom_de":null,"slug_ville":"savieres","departement_id":610,"code_postal":"10600","population":1050,"superficie_km2":"18.00","latitude_centre":"48.4059982","longitude_centre":"3.9349999","distance_km":15.8},{"id":4971,"code_insee":"51492","nom_standard":"Saint-Just-Sauvage","nom_a":null,"nom_de":null,"slug_ville":"saint-just-sauvage","departement_id":652,"code_postal":"51260","population":1396,"superficie_km2":"18.00","latitude_centre":"48.5480003","longitude_centre":"3.7720001","distance_km":16.66},{"id":666,"code_insee":"10142","nom_standard":"Estissac","nom_a":null,"nom_de":null,"slug_ville":"estissac","departement_id":610,"code_postal":"10190","population":1830,"superficie_km2":"26.00","latitude_centre":"48.2560005","longitude_centre":"3.8110001","distance_km":17.54},{"id":671,"code_insee":"10233","nom_standard":"Méry-sur-Seine","nom_a":null,"nom_de":null,"slug_ville":"mery-sur-seine","departement_id":610,"code_postal":"10170","population":1465,"superficie_km2":"12.00","latitude_centre":"48.5089989","longitude_centre":"3.8989999","distance_km":17.72},{"id":674,"code_insee":"10282","nom_standard":"Payns","nom_a":null,"nom_de":null,"slug_ville":"payns","departement_id":610,"code_postal":"10600","population":1384,"superficie_km2":"17.00","latitude_centre":"48.3750000","longitude_centre":"3.9579999","distance_km":17.76},{"id":673,"code_insee":"10268","nom_standard":"Nogent-sur-Seine","nom_a":null,"nom_de":null,"slug_ville":"nogent-sur-seine","departement_id":610,"code_postal":"10400","population":5809,"superficie_km2":"20.00","latitude_centre":"48.4959984","longitude_centre":"3.5000000","distance_km":19.36},{"id":692,"code_insee":"10382","nom_standard":"Traînel","nom_a":null,"nom_de":null,"slug_ville":"trainel","departement_id":610,"code_postal":"10400","population":1024,"superficie_km2":"20.00","latitude_centre":"48.4140015","longitude_centre":"3.4570000","distance_km":19.53},{"id":685,"code_insee":"10349","nom_standard":"Saint-Lyé","nom_a":null,"nom_de":null,"slug_ville":"saint-lye","departement_id":610,"code_postal":"10180","population":2870,"superficie_km2":"33.00","latitude_centre":"48.3440018","longitude_centre":"3.9809999","distance_km":20.26},{"id":9462,"code_insee":"89461","nom_standard":"Villeneuve-l'Archevêque","nom_a":null,"nom_de":null,"slug_ville":"villeneuve-l-archeveque","departement_id":690,"code_postal":"89190","population":1110,"superficie_km2":"7.00","latitude_centre":"48.2360001","longitude_centre":"3.5630000","distance_km":21.84},{"id":651,"code_insee":"10003","nom_standard":"Aix-Villemaur-Pâlis","nom_a":null,"nom_de":null,"slug_ville":"aix-villemaur-palis","departement_id":610,"code_postal":"10160","population":3437,"superficie_km2":"35.00","latitude_centre":"48.1980019","longitude_centre":"3.7360001","distance_km":22.71},{"id":691,"code_insee":"10381","nom_standard":"Torvilliers","nom_a":null,"nom_de":null,"slug_ville":"torvilliers","departement_id":610,"code_postal":"10440","population":1042,"superficie_km2":"12.00","latitude_centre":"48.2760010","longitude_centre":"3.9719999","distance_km":23.25},{"id":653,"code_insee":"10030","nom_standard":"Barberey-Saint-Sulpice","nom_a":null,"nom_de":null,"slug_ville":"barberey-saint-sulpice","departement_id":610,"code_postal":"10600","population":1563,"superficie_km2":"10.00","latitude_centre":"48.3269997","longitude_centre":"4.0159998","distance_km":23.33},{"id":696,"code_insee":"10420","nom_standard":"Villenauxe-la-Grande","nom_a":null,"nom_de":null,"slug_ville":"villenauxe-la-grande","departement_id":610,"code_postal":"10370","population":2645,"superficie_km2":"18.00","latitude_centre":"48.5950012","longitude_centre":"3.5480001","distance_km":24.96},{"id":661,"code_insee":"10081","nom_standard":"La Chapelle-Saint-Luc","nom_a":null,"nom_de":null,"slug_ville":"la-chapelle-saint-luc","departement_id":610,"code_postal":"10600","population":12299,"superficie_km2":"10.00","latitude_centre":"48.3160019","longitude_centre":"4.0349998","distance_km":25.09},{"id":689,"code_insee":"10362","nom_standard":"Sainte-Savine","nom_a":null,"nom_de":null,"slug_ville":"sainte-savine","departement_id":610,"code_postal":"10300","population":10515,"superficie_km2":"8.00","latitude_centre":"48.2960014","longitude_centre":"4.0229998","distance_km":25.24},{"id":679,"code_insee":"10321","nom_standard":"La Rivière-de-Corps","nom_a":null,"nom_de":null,"slug_ville":"la-riviere-de-corps","departement_id":610,"code_postal":"10440","population":3651,"superficie_km2":"7.00","latitude_centre":"48.2799988","longitude_centre":"4.0139999","distance_km":25.55},{"id":672,"code_insee":"10265","nom_standard":"Les Noës-près-Troyes","nom_a":null,"nom_de":null,"slug_ville":"les-noes-pres-troyes","departement_id":610,"code_postal":"10420","population":3267,"superficie_km2":"1.00","latitude_centre":"48.3030014","longitude_centre":"4.0419998","distance_km":26.15}]}