{"ville":{"id":7818,"code_insee":"74168","nom_standard":"Marlioz","nom_a":null,"nom_de":null,"slug_ville":"marlioz","departement_id":675,"code_postal":"74270","population":1052,"superficie_km2":"8.00","latitude_centre":"46.0270004","longitude_centre":"6.0079999","dep_code":"74","dep_nom":"Haute-Savoie","dep_slug":"haute-savoie","reg_code":"01","reg_nom":"Auvergne-Rhône-Alpes","reg_slug":"auvergne-rhone-alpes"},"departement":{"code":"74","nom":"Haute-Savoie","slug":"haute-savoie"},"region":{"code":"01","nom":"Auvergne-Rhône-Alpes","slug":"auvergne-rhone-alpes"},"villes_proches":[{"id":7827,"code_insee":"74184","nom_standard":"Minzier","nom_a":null,"nom_de":null,"slug_ville":"minzier","departement_id":675,"code_postal":"74270","population":1051,"superficie_km2":"9.00","latitude_centre":"46.0550003","longitude_centre":"5.9910002","distance_km":3.38},{"id":7753,"code_insee":"74052","nom_standard":"Cernex","nom_a":null,"nom_de":null,"slug_ville":"cernex","departement_id":675,"code_postal":"74350","population":1134,"superficie_km2":"13.00","latitude_centre":"46.0620003","longitude_centre":"6.0390000","distance_km":4.57},{"id":7763,"code_insee":"74076","nom_standard":"Choisy","nom_a":null,"nom_de":null,"slug_ville":"choisy","departement_id":675,"code_postal":"74330","population":1701,"superficie_km2":"16.00","latitude_centre":"45.9970017","longitude_centre":"6.0539999","distance_km":4.87},{"id":7771,"code_insee":"74088","nom_standard":"Copponex","nom_a":null,"nom_de":null,"slug_ville":"copponex","departement_id":675,"code_postal":"74350","population":1268,"superficie_km2":"9.00","latitude_centre":"46.0439987","longitude_centre":"6.0700002","distance_km":5.15},{"id":7762,"code_insee":"74075","nom_standard":"Chilly","nom_a":null,"nom_de":null,"slug_ville":"chilly","departement_id":675,"code_postal":"74270","population":1577,"superficie_km2":"19.00","latitude_centre":"45.9889984","longitude_centre":"5.9569998","distance_km":5.78},{"id":7866,"code_insee":"74260","nom_standard":"Savigny","nom_a":null,"nom_de":null,"slug_ville":"savigny","departement_id":675,"code_postal":"74520","population":1020,"superficie_km2":"10.00","latitude_centre":"46.0699997","longitude_centre":"5.9520001","distance_km":6.45},{"id":7792,"code_insee":"74131","nom_standard":"Frangy","nom_a":null,"nom_de":null,"slug_ville":"frangy","departement_id":675,"code_postal":"74270","population":2049,"superficie_km2":"10.00","latitude_centre":"46.0229988","longitude_centre":"5.9229999","distance_km":6.58},{"id":7743,"code_insee":"74026","nom_standard":"La Balme-de-Sillingy","nom_a":null,"nom_de":null,"slug_ville":"la-balme-de-sillingy","departement_id":675,"code_postal":"74330","population":5167,"superficie_km2":"16.00","latitude_centre":"45.9700012","longitude_centre":"6.0450001","distance_km":6.95},{"id":7728,"code_insee":"74006","nom_standard":"Allonzier-la-Caille","nom_a":null,"nom_de":null,"slug_ville":"allonzier-la-caille","departement_id":675,"code_postal":"74350","population":2176,"superficie_km2":"10.00","latitude_centre":"46.0000000","longitude_centre":"6.1050000","distance_km":8.07},{"id":7774,"code_insee":"74096","nom_standard":"Cruseilles","nom_a":null,"nom_de":null,"slug_ville":"cruseilles","departement_id":675,"code_postal":"74350","population":4723,"superficie_km2":"25.00","latitude_centre":"46.0359993","longitude_centre":"6.1149998","distance_km":8.32},{"id":7873,"code_insee":"74272","nom_standard":"Sillingy","nom_a":null,"nom_de":null,"slug_ville":"sillingy","departement_id":675,"code_postal":"74330","population":5453,"superficie_km2":"15.00","latitude_centre":"45.9490013","longitude_centre":"6.0279999","distance_km":8.81},{"id":7845,"code_insee":"74216","nom_standard":"Présilly","nom_a":null,"nom_de":null,"slug_ville":"presilly","departement_id":675,"code_postal":"74160","population":1063,"superficie_km2":"9.00","latitude_centre":"46.0849991","longitude_centre":"6.0910001","distance_km":9.09},{"id":7880,"code_insee":"74283","nom_standard":"Thusy","nom_a":null,"nom_de":null,"slug_ville":"thusy","departement_id":675,"code_postal":"74150","population":1157,"superficie_km2":"11.00","latitude_centre":"45.9500008","longitude_centre":"5.9640002","distance_km":9.21},{"id":7776,"code_insee":"74098","nom_standard":"Cuvat","nom_a":null,"nom_de":null,"slug_ville":"cuvat","departement_id":675,"code_postal":"74350","population":1611,"superficie_km2":"5.00","latitude_centre":"45.9770012","longitude_centre":"6.1090002","distance_km":9.58},{"id":7764,"code_insee":"74077","nom_standard":"Clarafond-Arcine","nom_a":null,"nom_de":null,"slug_ville":"clarafond-arcine","departement_id":675,"code_postal":"74270","population":1046,"superficie_km2":"17.00","latitude_centre":"46.0750008","longitude_centre":"5.8959999","distance_km":10.16},{"id":7882,"code_insee":"74288","nom_standard":"Valleiry","nom_a":null,"nom_de":null,"slug_ville":"valleiry","departement_id":675,"code_postal":"74520","population":4916,"superficie_km2":"7.00","latitude_centre":"46.1150017","longitude_centre":"5.9699998","distance_km":10.21},{"id":7891,"code_insee":"74309","nom_standard":"Viry","nom_a":null,"nom_de":null,"slug_ville":"viry","departement_id":675,"code_postal":"74580","population":5635,"superficie_km2":"26.00","latitude_centre":"46.1189995","longitude_centre":"6.0250001","distance_km":10.31},{"id":7788,"code_insee":"74124","nom_standard":"Feigères","nom_a":null,"nom_de":null,"slug_ville":"feigeres","departement_id":675,"code_postal":"74160","population":1816,"superficie_km2":"8.00","latitude_centre":"46.1100006","longitude_centre":"6.0730000","distance_km":10.5},{"id":7895,"code_insee":"74314","nom_standard":"Vulbens","nom_a":null,"nom_de":null,"slug_ville":"vulbens","departement_id":675,"code_postal":"74520","population":1650,"superficie_km2":"12.00","latitude_centre":"46.1100006","longitude_centre":"5.9359999","distance_km":10.77},{"id":7782,"code_insee":"74112","nom_standard":"Epagny Metz-Tessy","nom_a":null,"nom_de":null,"slug_ville":"epagny-metz-tessy","departement_id":675,"code_postal":"74370","population":8454,"superficie_km2":"7.00","latitude_centre":"45.9440002","longitude_centre":"6.0819998","distance_km":10.86}]}