{"ville":{"id":3296,"code_insee":"35167","nom_standard":"Martigné-Ferchaud","nom_a":null,"nom_de":null,"slug_ville":"martigne-ferchaud","departement_id":636,"code_postal":"35640","population":2608,"superficie_km2":"75.00","latitude_centre":"47.8279991","longitude_centre":"-1.3279999","dep_code":"35","dep_nom":"Ille-et-Vilaine","dep_slug":"ille-et-vilaine","reg_code":"03","reg_nom":"Bretagne","reg_slug":"bretagne"},"departement":{"code":"35","nom":"Ille-et-Vilaine","slug":"ille-et-vilaine"},"region":{"code":"03","nom":"Bretagne","slug":"bretagne"},"villes_proches":[{"id":3244,"code_insee":"35082","nom_standard":"Coësmes","nom_a":null,"nom_de":null,"slug_ville":"coesmes","departement_id":636,"code_postal":"35134","population":1443,"superficie_km2":"24.00","latitude_centre":"47.8720017","longitude_centre":"-1.4160000","distance_km":8.19},{"id":3347,"code_insee":"35239","nom_standard":"Retiers","nom_a":null,"nom_de":null,"slug_ville":"retiers","departement_id":636,"code_postal":"35240","population":4540,"superficie_km2":"42.00","latitude_centre":"47.9059982","longitude_centre":"-1.3440000","distance_km":8.75},{"id":4389,"code_insee":"44146","nom_standard":"Rougé","nom_a":null,"nom_de":null,"slug_ville":"rouge","departement_id":645,"code_postal":"44660","population":2146,"superficie_km2":"57.00","latitude_centre":"47.7700005","longitude_centre":"-1.4340000","distance_km":10.21},{"id":3343,"code_insee":"35235","nom_standard":"Rannée","nom_a":null,"nom_de":null,"slug_ville":"rannee","departement_id":636,"code_postal":"35130","population":1061,"superficie_km2":"53.00","latitude_centre":"47.9010010","longitude_centre":"-1.2260000","distance_km":11.13},{"id":4434,"code_insee":"44199","nom_standard":"Soudan","nom_a":null,"nom_de":null,"slug_ville":"soudan","departement_id":645,"code_postal":"44110","population":1981,"superficie_km2":"54.00","latitude_centre":"47.7260017","longitude_centre":"-1.2900000","distance_km":11.69},{"id":3402,"code_insee":"35333","nom_standard":"Le Theil-de-Bretagne","nom_a":null,"nom_de":null,"slug_ville":"le-theil-de-bretagne","departement_id":636,"code_postal":"35240","population":1710,"superficie_km2":"24.00","latitude_centre":"47.9179993","longitude_centre":"-1.4220001","distance_km":12.22},{"id":4768,"code_insee":"49248","nom_standard":"Ombrée d'Anjou","nom_a":null,"nom_de":null,"slug_ville":"ombree-d-anjou","departement_id":650,"code_postal":"49420","population":8859,"superficie_km2":"50.00","latitude_centre":"47.7630005","longitude_centre":"-1.1930000","distance_km":12.41},{"id":4295,"code_insee":"44036","nom_standard":"Châteaubriant","nom_a":null,"nom_de":null,"slug_ville":"chateaubriant","departement_id":645,"code_postal":"44110","population":12189,"superficie_km2":"34.00","latitude_centre":"47.7220001","longitude_centre":"-1.3870000","distance_km":12.58},{"id":3272,"code_insee":"35125","nom_standard":"La Guerche-de-Bretagne","nom_a":null,"nom_de":null,"slug_ville":"la-guerche-de-bretagne","departement_id":636,"code_postal":"35130","population":4347,"superficie_km2":"12.00","latitude_centre":"47.9440002","longitude_centre":"-1.2440000","distance_km":14.34},{"id":3401,"code_insee":"35332","nom_standard":"Teillay","nom_a":null,"nom_de":null,"slug_ville":"teillay","departement_id":636,"code_postal":"35620","population":1089,"superficie_km2":"27.00","latitude_centre":"47.8079987","longitude_centre":"-1.5220000","distance_km":14.65},{"id":3260,"code_insee":"35108","nom_standard":"Essé","nom_a":null,"nom_de":null,"slug_ville":"esse","departement_id":636,"code_postal":"35150","population":1036,"superficie_km2":"23.00","latitude_centre":"47.9480019","longitude_centre":"-1.4299999","distance_km":15.36},{"id":4394,"code_insee":"44153","nom_standard":"Saint-Aubin-des-Châteaux","nom_a":null,"nom_de":null,"slug_ville":"saint-aubin-des-chateaux","departement_id":645,"code_postal":"44110","population":1740,"superficie_km2":"48.00","latitude_centre":"47.7060013","longitude_centre":"-1.4790000","distance_km":17.65},{"id":4311,"code_insee":"44054","nom_standard":"Erbray","nom_a":null,"nom_de":null,"slug_ville":"erbray","departement_id":645,"code_postal":"44110","population":3058,"superficie_km2":"58.00","latitude_centre":"47.6689987","longitude_centre":"-1.3220000","distance_km":17.69},{"id":3407,"code_insee":"35343","nom_standard":"Tresbœuf","nom_a":null,"nom_de":null,"slug_ville":"tresboeuf","departement_id":636,"code_postal":"35320","population":1236,"superficie_km2":"26.00","latitude_centre":"47.8810005","longitude_centre":"-1.5530000","distance_km":17.79},{"id":3281,"code_insee":"35136","nom_standard":"Janzé","nom_a":null,"nom_de":null,"slug_ville":"janze","departement_id":636,"code_postal":"35150","population":8570,"superficie_km2":"42.00","latitude_centre":"47.9430008","longitude_centre":"-1.5000000","distance_km":18.11},{"id":3258,"code_insee":"35106","nom_standard":"Ercé-en-Lamée","nom_a":null,"nom_de":null,"slug_ville":"erce-en-lamee","departement_id":636,"code_postal":"35620","population":1550,"superficie_km2":"39.00","latitude_centre":"47.8180008","longitude_centre":"-1.5829999","distance_km":19.07},{"id":3252,"code_insee":"35097","nom_standard":"Domalain","nom_a":null,"nom_de":null,"slug_ville":"domalain","departement_id":636,"code_postal":"35680","population":2021,"superficie_km2":"34.00","latitude_centre":"47.9990006","longitude_centre":"-1.2390000","distance_km":20.14},{"id":3203,"code_insee":"35014","nom_standard":"Bais","nom_a":null,"nom_de":null,"slug_ville":"bais","departement_id":636,"code_postal":"35680","population":2488,"superficie_km2":"35.00","latitude_centre":"48.0110016","longitude_centre":"-1.3060000","distance_km":20.41},{"id":3221,"code_insee":"35041","nom_standard":"Brie","nom_a":null,"nom_de":null,"slug_ville":"brie","departement_id":636,"code_postal":"35150","population":1010,"superficie_km2":"14.00","latitude_centre":"47.9510002","longitude_centre":"-1.5510000","distance_km":21.53},{"id":3331,"code_insee":"35220","nom_standard":"Piré-Chancé","nom_a":null,"nom_de":null,"slug_ville":"pire-chance","departement_id":636,"code_postal":"35150","population":3120,"superficie_km2":"37.00","latitude_centre":"48.0110016","longitude_centre":"-1.4280000","distance_km":21.67}]}