{"ville":{"id":33490,"code_insee":"81161","nom_standard":"Massals","nom_a":null,"nom_de":null,"slug_ville":"massals","departement_id":0,"code_postal":"81250","population":113,"superficie_km2":"1629.23","latitude_centre":"43.8564","longitude_centre":"2.5243","dep_code":"81","dep_nom":"Tarn","dep_slug":"tarn","reg_code":"76","reg_nom":"Occitanie","reg_slug":"occitanie"},"departement":{"code":"81","nom":"Tarn","slug":"tarn"},"region":{"code":"76","nom":"Occitanie","slug":"occitanie"},"villes_proches":[{"id":0,"code_insee":"81167","nom_standard":"Miolles","nom_a":null,"nom_de":null,"slug_ville":"miolles","departement_id":0,"code_postal":"81250","population":108,"superficie_km2":"1209.91","latitude_centre":"43.877","longitude_centre":"2.5522","distance_km":3.2},{"id":13359,"code_insee":"12152","nom_standard":"Montfranc","nom_a":null,"nom_de":null,"slug_ville":"montfranc","departement_id":0,"code_postal":"12380","population":130,"superficie_km2":"622.49","latitude_centre":"43.8407","longitude_centre":"2.5802","distance_km":4.81},{"id":33487,"code_insee":"81158","nom_standard":"Le Masnau-Massuguiès","nom_a":null,"nom_de":null,"slug_ville":"le-masnau-massuguies","departement_id":0,"code_postal":"81530","population":248,"superficie_km2":"4760.07","latitude_centre":"43.8085","longitude_centre":"2.5386","distance_km":5.45},{"id":13384,"code_insee":"12186","nom_standard":"Pousthomy","nom_a":null,"nom_de":null,"slug_ville":"pousthomy","departement_id":0,"code_postal":"12380","population":212,"superficie_km2":"1740.66","latitude_centre":"43.8489","longitude_centre":"2.5972","distance_km":5.9},{"id":13264,"code_insee":"12019","nom_standard":"Balaguier-sur-Rance","nom_a":null,"nom_de":null,"slug_ville":"balaguier-sur-rance","departement_id":0,"code_postal":"12380","population":90,"superficie_km2":"975.09","latitude_centre":"43.8945","longitude_centre":"2.5761","distance_km":5.93},{"id":33431,"code_insee":"81077","nom_standard":"Curvalle","nom_a":null,"nom_de":null,"slug_ville":"curvalle","departement_id":0,"code_postal":"81250","population":398,"superficie_km2":"3873.05","latitude_centre":"43.9111","longitude_centre":"2.5112","distance_km":6.17},{"id":33379,"code_insee":"81003","nom_standard":"Alban","nom_a":null,"nom_de":null,"slug_ville":"alban","departement_id":0,"code_postal":"81250","population":964,"superficie_km2":"979.95","latitude_centre":"43.8855","longitude_centre":"2.4532","distance_km":6.55},{"id":0,"code_insee":"81203","nom_standard":"Paulinet","nom_a":null,"nom_de":null,"slug_ville":"paulinet","departement_id":0,"code_postal":"81250","population":498,"superficie_km2":"7354.15","latitude_centre":"43.8402","longitude_centre":"2.431","distance_km":7.7},{"id":0,"code_insee":"81268","nom_standard":"Saint-Salvi-de-Carcavès","nom_a":null,"nom_de":null,"slug_ville":"saint-salvi-de-carcaves","departement_id":0,"code_postal":"81530","population":84,"superficie_km2":"1096.24","latitude_centre":"43.7988","longitude_centre":"2.5929","distance_km":8.44},{"id":13431,"code_insee":"12248","nom_standard":"Saint-Sernin-sur-Rance","nom_a":null,"nom_de":null,"slug_ville":"saint-sernin-sur-rance","departement_id":0,"code_postal":"12380","population":580,"superficie_km2":"1116.86","latitude_centre":"43.8793","longitude_centre":"2.6248","distance_km":8.45},{"id":13382,"code_insee":"12183","nom_standard":"Plaisance","nom_a":null,"nom_de":null,"slug_ville":"plaisance","departement_id":0,"code_postal":"12550","population":219,"superficie_km2":"1405.90","latitude_centre":"43.9283","longitude_centre":"2.5626","distance_km":8.56},{"id":0,"code_insee":"81221","nom_standard":"Rayssac","nom_a":null,"nom_de":null,"slug_ville":"rayssac","departement_id":0,"code_postal":"81330","population":234,"superficie_km2":"3008.61","latitude_centre":"43.8052","longitude_centre":"2.4319","distance_km":9.35},{"id":0,"code_insee":"81240","nom_standard":"Saint-André","nom_a":null,"nom_de":null,"slug_ville":"saint-andre","departement_id":0,"code_postal":"81250","population":102,"superficie_km2":"730.12","latitude_centre":"43.929","longitude_centre":"2.4559","distance_km":9.76},{"id":13341,"code_insee":"12125","nom_standard":"Laval-Roquecezière","nom_a":null,"nom_de":null,"slug_ville":"laval-roqueceziere","departement_id":0,"code_postal":"12380","population":303,"superficie_km2":"3069.12","latitude_centre":"43.8122","longitude_centre":"2.6336","distance_km":10.05},{"id":13266,"code_insee":"12023","nom_standard":"La Bastide-Solages","nom_a":null,"nom_de":null,"slug_ville":"la-bastide-solages","departement_id":0,"code_postal":"12550","population":117,"superficie_km2":"704.12","latitude_centre":"43.9488","longitude_centre":"2.5243","distance_km":10.27},{"id":13313,"code_insee":"12080","nom_standard":"Coupiac","nom_a":null,"nom_de":null,"slug_ville":"coupiac","departement_id":0,"code_postal":"12550","population":353,"superficie_km2":"2494.06","latitude_centre":"43.9367","longitude_centre":"2.5888","distance_km":10.32},{"id":33447,"code_insee":"81096","nom_standard":"Le Fraysse","nom_a":null,"nom_de":null,"slug_ville":"le-fraysse","departement_id":0,"code_postal":"81430","population":421,"superficie_km2":"2955.77","latitude_centre":"43.9061","longitude_centre":"2.4105","distance_km":10.66},{"id":0,"code_insee":"81303","nom_standard":"Trébas","nom_a":null,"nom_de":null,"slug_ville":"trebas","departement_id":0,"code_postal":"81340","population":401,"superficie_km2":"574.32","latitude_centre":"43.9574","longitude_centre":"2.4871","distance_km":11.62},{"id":33465,"code_insee":"81125","nom_standard":"Lacaze","nom_a":null,"nom_de":null,"slug_ville":"lacaze","departement_id":0,"code_postal":"81330","population":318,"superficie_km2":"4611.33","latitude_centre":"43.7462","longitude_centre":"2.506","distance_km":12.34},{"id":33445,"code_insee":"81094","nom_standard":"Fraissines","nom_a":null,"nom_de":null,"slug_ville":"fraissines","departement_id":0,"code_postal":"81340","population":90,"superficie_km2":"639.97","latitude_centre":"43.9752","longitude_centre":"2.5077","distance_km":13.28}]}