{"ville":{"id":18918,"code_insee":"31326","nom_standard":"Massabrac","nom_a":null,"nom_de":null,"slug_ville":"massabrac","departement_id":0,"code_postal":"31310","population":132,"superficie_km2":"402.57","latitude_centre":"43.2238","longitude_centre":"1.3645","dep_code":"31","dep_nom":"Haute-Garonne","dep_slug":"haute-garonne","reg_code":"76","reg_nom":"Occitanie","reg_slug":"occitanie"},"departement":{"code":"31","nom":"Haute-Garonne","slug":"haute-garonne"},"region":{"code":"76","nom":"Occitanie","slug":"occitanie"},"villes_proches":[{"id":18768,"code_insee":"31111","nom_standard":"Castagnac","nom_a":null,"nom_de":null,"slug_ville":"castagnac","departement_id":0,"code_postal":"31310","population":325,"superficie_km2":"1074.69","latitude_centre":"43.2352","longitude_centre":"1.3454","distance_km":2.0},{"id":12496,"code_insee":"09342","nom_standard":"Sainte-Suzanne","nom_a":null,"nom_de":null,"slug_ville":"sainte-suzanne","departement_id":0,"code_postal":"09130","population":259,"superficie_km2":"1048.77","latitude_centre":"43.2052","longitude_centre":"1.3735","distance_km":2.19},{"id":18762,"code_insee":"31103","nom_standard":"Canens","nom_a":null,"nom_de":null,"slug_ville":"canens","departement_id":0,"code_postal":"31310","population":63,"superficie_km2":"488.49","latitude_centre":"43.2178","longitude_centre":"1.3367","distance_km":2.35},{"id":12445,"code_insee":"09277","nom_standard":"Saint-Ybars","nom_a":null,"nom_de":null,"slug_ville":"saint-ybars","departement_id":0,"code_postal":"09210","population":651,"superficie_km2":"2456.71","latitude_centre":"43.2411","longitude_centre":"1.3918","distance_km":2.93},{"id":12456,"code_insee":"09294","nom_standard":"Sieuras","nom_a":null,"nom_de":null,"slug_ville":"sieuras","departement_id":0,"code_postal":"09130","population":94,"superficie_km2":"773.91","latitude_centre":"43.1913","longitude_centre":"1.345","distance_km":3.94},{"id":18879,"code_insee":"31272","nom_standard":"Lapeyrère","nom_a":null,"nom_de":null,"slug_ville":"lapeyrere","departement_id":0,"code_postal":"31310","population":58,"superficie_km2":"629.97","latitude_centre":"43.2054","longitude_centre":"1.3105","distance_km":4.83},{"id":12492,"code_insee":"09338","nom_standard":"Villeneuve-du-Latou","nom_a":null,"nom_de":null,"slug_ville":"villeneuve-du-latou","departement_id":0,"code_postal":"09130","population":154,"superficie_km2":"660.65","latitude_centre":"43.2033","longitude_centre":"1.4338","distance_km":6.06},{"id":18724,"code_insee":"31047","nom_standard":"Bax","nom_a":null,"nom_de":null,"slug_ville":"bax","departement_id":0,"code_postal":"31310","population":101,"superficie_km2":"605.26","latitude_centre":"43.2269","longitude_centre":"1.2892","distance_km":6.11},{"id":12368,"code_insee":"09186","nom_standard":"Méras","nom_a":null,"nom_de":null,"slug_ville":"meras","departement_id":0,"code_postal":"09350","population":94,"superficie_km2":"368.78","latitude_centre":"43.1834","longitude_centre":"1.3126","distance_km":6.15},{"id":0,"code_insee":"09167","nom_standard":"Lézat-sur-Lèze","nom_a":null,"nom_de":null,"slug_ville":"lezat-sur-leze","departement_id":0,"code_postal":"09210","population":2321,"superficie_km2":"4037.33","latitude_centre":"43.2794","longitude_centre":"1.3475","distance_km":6.33},{"id":18885,"code_insee":"31280","nom_standard":"Latrape","nom_a":null,"nom_de":null,"slug_ville":"latrape","departement_id":0,"code_postal":"31310","population":444,"superficie_km2":"1939.47","latitude_centre":"43.2484","longitude_centre":"1.2924","distance_km":6.45},{"id":0,"code_insee":"09124","nom_standard":"Le Fossat","nom_a":null,"nom_de":null,"slug_ville":"le-fossat","departement_id":0,"code_postal":"09130","population":1071,"superficie_km2":"1452.09","latitude_centre":"43.1807","longitude_centre":"1.4185","distance_km":6.49},{"id":18884,"code_insee":"31279","nom_standard":"Latour","nom_a":null,"nom_de":null,"slug_ville":"latour","departement_id":0,"code_postal":"31310","population":80,"superficie_km2":"624.28","latitude_centre":"43.2028","longitude_centre":"1.2822","distance_km":7.07},{"id":12271,"code_insee":"09079","nom_standard":"Carla-Bayle","nom_a":null,"nom_de":null,"slug_ville":"carla-bayle","departement_id":0,"code_postal":"09130","population":787,"superficie_km2":"3592.75","latitude_centre":"43.1595","longitude_centre":"1.3788","distance_km":7.24},{"id":12276,"code_insee":"09084","nom_standard":"Castex","nom_a":null,"nom_de":null,"slug_ville":"castex","departement_id":0,"code_postal":"09350","population":99,"superficie_km2":"716.75","latitude_centre":"43.1659","longitude_centre":"1.316","distance_km":7.54},{"id":12356,"code_insee":"09172","nom_standard":"Loubaut","nom_a":null,"nom_de":null,"slug_ville":"loubaut","departement_id":0,"code_postal":"09350","population":30,"superficie_km2":"241.41","latitude_centre":"43.1885","longitude_centre":"1.2817","distance_km":7.77},{"id":0,"code_insee":"31206","nom_standard":"Gaillac-Toulza","nom_a":null,"nom_de":null,"slug_ville":"gaillac-toulza","departement_id":0,"code_postal":"31550","population":1342,"superficie_km2":"4062.62","latitude_centre":"43.2573","longitude_centre":"1.453","distance_km":8.08},{"id":18813,"code_insee":"31173","nom_standard":"Esperce","nom_a":null,"nom_de":null,"slug_ville":"esperce","departement_id":0,"code_postal":"31190","population":296,"superficie_km2":"1652.08","latitude_centre":"43.2984","longitude_centre":"1.3974","distance_km":8.71},{"id":12297,"code_insee":"09105","nom_standard":"Daumazan-sur-Arize","nom_a":null,"nom_de":null,"slug_ville":"daumazan-sur-arize","departement_id":0,"code_postal":"09350","population":804,"superficie_km2":"1391.26","latitude_centre":"43.1444","longitude_centre":"1.3054","distance_km":10.05},{"id":0,"code_insee":"31379","nom_standard":"Montgazin","nom_a":null,"nom_de":null,"slug_ville":"montgazin","departement_id":0,"code_postal":"31410","population":164,"superficie_km2":"692.46","latitude_centre":"43.3038","longitude_centre":"1.3061","distance_km":10.07}]}