{"ville":{"id":1024,"code_insee":"14407","nom_standard":"Mathieu","nom_a":null,"nom_de":null,"slug_ville":"mathieu","departement_id":614,"code_postal":"14920","population":2339,"superficie_km2":"9.00","latitude_centre":"49.2560005","longitude_centre":"-0.3670000","dep_code":"14","dep_nom":"Calvados","dep_slug":"calvados","reg_code":"14","reg_nom":"Normandie","reg_slug":"normandie"},"departement":{"code":"14","nom":"Calvados","slug":"calvados"},"region":{"code":"14","nom":"Normandie","slug":"normandie"},"villes_proches":[{"id":944,"code_insee":"14014","nom_standard":"Colomby-Anguerny","nom_a":null,"nom_de":null,"slug_ville":"colomby-anguerny","departement_id":614,"code_postal":"14610","population":1306,"superficie_km2":"3.00","latitude_centre":"49.2649994","longitude_centre":"-0.3970000","distance_km":2.4},{"id":958,"code_insee":"14068","nom_standard":"Biéville-Beuville","nom_a":null,"nom_de":null,"slug_ville":"bieville-beuville","departement_id":614,"code_postal":"14112","population":3738,"superficie_km2":"11.00","latitude_centre":"49.2400017","longitude_centre":"-0.3370000","distance_km":2.81},{"id":971,"code_insee":"14125","nom_standard":"Cambes-en-Plaine","nom_a":null,"nom_de":null,"slug_ville":"cambes-en-plaine","departement_id":614,"code_postal":"14610","population":1807,"superficie_km2":"3.00","latitude_centre":"49.2319984","longitude_centre":"-0.3840000","distance_km":2.94},{"id":982,"code_insee":"14197","nom_standard":"Cresserons","nom_a":null,"nom_de":null,"slug_ville":"cresserons","departement_id":614,"code_postal":"14440","population":1088,"superficie_km2":"4.00","latitude_centre":"49.2879982","longitude_centre":"-0.3540000","distance_km":3.68},{"id":990,"code_insee":"14242","nom_standard":"Épron","nom_a":null,"nom_de":null,"slug_ville":"epron","departement_id":614,"code_postal":"14610","population":1672,"superficie_km2":"2.00","latitude_centre":"49.2200012","longitude_centre":"-0.3650000","distance_km":4.01},{"id":988,"code_insee":"14228","nom_standard":"Douvres-la-Délivrande","nom_a":null,"nom_de":null,"slug_ville":"douvres-la-delivrande","departement_id":614,"code_postal":"14440","population":5097,"superficie_km2":"11.00","latitude_centre":"49.2900009","longitude_centre":"-0.3920000","distance_km":4.19},{"id":1005,"code_insee":"14325","nom_standard":"Hermanville-sur-Mer","nom_a":null,"nom_de":null,"slug_ville":"hermanville-sur-mer","departement_id":614,"code_postal":"14880","population":3203,"superficie_km2":"8.00","latitude_centre":"49.2830010","longitude_centre":"-0.3230000","distance_km":4.38},{"id":951,"code_insee":"14044","nom_standard":"Basly","nom_a":null,"nom_de":null,"slug_ville":"basly","departement_id":614,"code_postal":"14610","population":1057,"superficie_km2":"4.00","latitude_centre":"49.2760010","longitude_centre":"-0.4260000","distance_km":4.82},{"id":1048,"code_insee":"14566","nom_standard":"Saint-Contest","nom_a":null,"nom_de":null,"slug_ville":"saint-contest","departement_id":614,"code_postal":"14280","population":2487,"superficie_km2":"8.00","latitude_centre":"49.2159996","longitude_centre":"-0.4010000","distance_km":5.09},{"id":977,"code_insee":"14166","nom_standard":"Colleville-Montgomery","nom_a":null,"nom_de":null,"slug_ville":"colleville-montgomery","departement_id":614,"code_postal":"14880","population":2537,"superficie_km2":"8.00","latitude_centre":"49.2739983","longitude_centre":"-0.3010000","distance_km":5.19},{"id":960,"code_insee":"14076","nom_standard":"Blainville-sur-Orne","nom_a":null,"nom_de":null,"slug_ville":"blainville-sur-orne","departement_id":614,"code_postal":"14550","population":5876,"superficie_km2":"7.00","latitude_centre":"49.2280006","longitude_centre":"-0.3040000","distance_km":5.53},{"id":1016,"code_insee":"14365","nom_standard":"Lion-sur-Mer","nom_a":null,"nom_de":null,"slug_ville":"lion-sur-mer","departement_id":614,"code_postal":"14780","population":2521,"superficie_km2":"5.00","latitude_centre":"49.3009987","longitude_centre":"-0.3340000","distance_km":5.55},{"id":970,"code_insee":"14123","nom_standard":"Cairon","nom_a":null,"nom_de":null,"slug_ville":"cairon","departement_id":614,"code_postal":"14610","population":2023,"superficie_km2":"6.00","latitude_centre":"49.2340012","longitude_centre":"-0.4380000","distance_km":5.71},{"id":1021,"code_insee":"14384","nom_standard":"Luc-sur-Mer","nom_a":null,"nom_de":null,"slug_ville":"luc-sur-mer","departement_id":614,"code_postal":"14530","population":3268,"superficie_km2":"4.00","latitude_centre":"49.3079987","longitude_centre":"-0.3580000","distance_km":5.82},{"id":955,"code_insee":"14060","nom_standard":"Bénouville","nom_a":null,"nom_de":null,"slug_ville":"benouville","departement_id":614,"code_postal":"14970","population":2016,"superficie_km2":"5.00","latitude_centre":"49.2439995","longitude_centre":"-0.2880000","distance_km":5.89},{"id":1063,"code_insee":"14685","nom_standard":"Thaon","nom_a":null,"nom_de":null,"slug_ville":"thaon","departement_id":614,"code_postal":"14610","population":1808,"superficie_km2":"9.00","latitude_centre":"49.2550011","longitude_centre":"-0.4490000","distance_km":5.95},{"id":1006,"code_insee":"14327","nom_standard":"Hérouville-Saint-Clair","nom_a":null,"nom_de":null,"slug_ville":"herouville-saint-clair","departement_id":614,"code_postal":"14200","population":22227,"superficie_km2":"11.00","latitude_centre":"49.2070007","longitude_centre":"-0.3310000","distance_km":6.04},{"id":1046,"code_insee":"14558","nom_standard":"Saint-Aubin-d'Arquenay","nom_a":null,"nom_de":null,"slug_ville":"saint-aubin-d-arquenay","departement_id":614,"code_postal":"14970","population":1121,"superficie_km2":"3.00","latitude_centre":"49.2610016","longitude_centre":"-0.2840000","distance_km":6.05},{"id":1014,"code_insee":"14354","nom_standard":"Langrune-sur-Mer","nom_a":null,"nom_de":null,"slug_ville":"langrune-sur-mer","departement_id":614,"code_postal":"14830","population":1912,"superficie_km2":"5.00","latitude_centre":"49.3129997","longitude_centre":"-0.3780000","distance_km":6.39},{"id":948,"code_insee":"14030","nom_standard":"Authie","nom_a":null,"nom_de":null,"slug_ville":"authie","departement_id":614,"code_postal":"14280","population":1676,"superficie_km2":"3.00","latitude_centre":"49.2060013","longitude_centre":"-0.4310000","distance_km":7.25}]}