{"ville":{"id":33132,"code_insee":"80521","nom_standard":"Maurepas","nom_a":null,"nom_de":null,"slug_ville":"maurepas","departement_id":0,"code_postal":"80360","population":216,"superficie_km2":"1092.76","latitude_centre":"49.9838","longitude_centre":"2.8582","dep_code":"80","dep_nom":"Somme","dep_slug":"somme","reg_code":"32","reg_nom":"Hauts-de-France","reg_slug":"hauts-de-france"},"departement":{"code":"80","nom":"Somme","slug":"somme"},"region":{"code":"32","nom":"Hauts-de-France","slug":"hauts-de-france"},"villes_proches":[{"id":32872,"code_insee":"80204","nom_standard":"Combles","nom_a":null,"nom_de":null,"slug_ville":"combles","departement_id":0,"code_postal":"80360","population":757,"superficie_km2":"987.33","latitude_centre":"50.0082","longitude_centre":"2.8744","distance_km":2.95},{"id":32867,"code_insee":"80199","nom_standard":"Cléry-sur-Somme","nom_a":null,"nom_de":null,"slug_ville":"clery-sur-somme","departement_id":0,"code_postal":"80200","population":516,"superficie_km2":"1882.62","latitude_centre":"49.9618","longitude_centre":"2.8847","distance_km":3.09},{"id":33055,"code_insee":"80428","nom_standard":"Hem-Monacu","nom_a":null,"nom_de":null,"slug_ville":"hem-monacu","departement_id":0,"code_postal":"80360","population":137,"superficie_km2":"365.47","latitude_centre":"49.9579","longitude_centre":"2.8408","distance_km":3.14},{"id":33046,"code_insee":"80418","nom_standard":"Hardecourt-aux-Bois","nom_a":null,"nom_de":null,"slug_ville":"hardecourt-aux-bois","departement_id":0,"code_postal":"80360","population":84,"superficie_km2":"523.22","latitude_centre":"49.9948","longitude_centre":"2.8133","distance_km":3.44},{"id":32894,"code_insee":"80231","nom_standard":"Curlu","nom_a":null,"nom_de":null,"slug_ville":"curlu","departement_id":0,"code_postal":"80360","population":152,"superficie_km2":"589.19","latitude_centre":"49.965","longitude_centre":"2.8141","distance_km":3.78},{"id":0,"code_insee":"80664","nom_standard":"Rancourt","nom_a":null,"nom_de":null,"slug_ville":"rancourt","departement_id":0,"code_postal":"80360","population":188,"superficie_km2":"291.29","latitude_centre":"50.0038","longitude_centre":"2.903","distance_km":3.9},{"id":33033,"code_insee":"80401","nom_standard":"Guillemont","nom_a":null,"nom_de":null,"slug_ville":"guillemont","departement_id":0,"code_postal":"80360","population":126,"superficie_km2":"328.64","latitude_centre":"50.0105","longitude_centre":"2.8217","distance_km":3.95},{"id":33014,"code_insee":"80378","nom_standard":"Ginchy","nom_a":null,"nom_de":null,"slug_ville":"ginchy","departement_id":0,"code_postal":"80360","population":75,"superficie_km2":"593.78","latitude_centre":"50.0188","longitude_centre":"2.8346","distance_km":4.24},{"id":32793,"code_insee":"80115","nom_standard":"Bouchavesnes-Bergen","nom_a":null,"nom_de":null,"slug_ville":"bouchavesnes-bergen","departement_id":0,"code_postal":"80200","population":283,"superficie_km2":"1015.43","latitude_centre":"49.9932","longitude_centre":"2.9201","distance_km":4.55},{"id":32955,"code_insee":"80307","nom_standard":"Feuillères","nom_a":null,"nom_de":null,"slug_ville":"feuilleres","departement_id":0,"code_postal":"80200","population":155,"superficie_km2":"593.73","latitude_centre":"49.9419","longitude_centre":"2.85","distance_km":4.7},{"id":27824,"code_insee":"62593","nom_standard":"Morval","nom_a":null,"nom_de":null,"slug_ville":"morval","departement_id":0,"code_postal":"62450","population":87,"superficie_km2":"246.06","latitude_centre":"50.0281","longitude_centre":"2.8668","distance_km":4.96},{"id":33124,"code_insee":"80513","nom_standard":"Maricourt","nom_a":null,"nom_de":null,"slug_ville":"maricourt","departement_id":0,"code_postal":"80360","population":184,"superficie_km2":"756.00","latitude_centre":"49.9813","longitude_centre":"2.785","distance_km":5.24},{"id":33006,"code_insee":"80367","nom_standard":"Frise","nom_a":null,"nom_de":null,"slug_ville":"frise","departement_id":0,"code_postal":"80340","population":176,"superficie_km2":"619.95","latitude_centre":"49.9432","longitude_centre":"2.8114","distance_km":5.62},{"id":0,"code_insee":"80695","nom_standard":"Sailly-Saillisel","nom_a":null,"nom_de":null,"slug_ville":"sailly-saillisel","departement_id":0,"code_postal":"80360","population":469,"superficie_km2":"940.50","latitude_centre":"50.0304","longitude_centre":"2.909","distance_km":6.33},{"id":33105,"code_insee":"80490","nom_standard":"Longueval","nom_a":null,"nom_de":null,"slug_ville":"longueval","departement_id":0,"code_postal":"80360","population":292,"superficie_km2":"853.06","latitude_centre":"50.0289","longitude_centre":"2.8012","distance_km":6.46},{"id":33091,"code_insee":"80472","nom_standard":"Lesbœufs","nom_a":null,"nom_de":null,"slug_ville":"lesboeufs","departement_id":0,"code_postal":"80360","population":166,"superficie_km2":"598.65","latitude_centre":"50.0439","longitude_centre":"2.8572","distance_km":6.68},{"id":33057,"code_insee":"80430","nom_standard":"Herbécourt","nom_a":null,"nom_de":null,"slug_ville":"herbecourt","departement_id":0,"code_postal":"80200","population":178,"superficie_km2":"451.74","latitude_centre":"49.9223","longitude_centre":"2.8396","distance_km":6.97},{"id":32781,"code_insee":"80102","nom_standard":"Biaches","nom_a":null,"nom_de":null,"slug_ville":"biaches","departement_id":0,"code_postal":"80200","population":386,"superficie_km2":"657.29","latitude_centre":"49.925","longitude_centre":"2.9049","distance_km":7.34},{"id":32959,"code_insee":"80313","nom_standard":"Flaucourt","nom_a":null,"nom_de":null,"slug_ville":"flaucourt","departement_id":0,"code_postal":"80200","population":299,"superficie_km2":"740.44","latitude_centre":"49.9178","longitude_centre":"2.8678","distance_km":7.37},{"id":27994,"code_insee":"62829","nom_standard":"Le Transloy","nom_a":null,"nom_de":null,"slug_ville":"le-transloy","departement_id":0,"code_postal":"62450","population":422,"superficie_km2":"1043.25","latitude_centre":"50.0518","longitude_centre":"2.8926","distance_km":7.95}]}