{"ville":{"id":25786,"code_insee":"57455","nom_standard":"Mégange","nom_a":null,"nom_de":null,"slug_ville":"megange","departement_id":0,"code_postal":"57220","population":138,"superficie_km2":"496.02","latitude_centre":"49.2256","longitude_centre":"6.4365","dep_code":"57","dep_nom":"Moselle","dep_slug":"moselle","reg_code":"44","reg_nom":"Grand Est","reg_slug":"grand-est"},"departement":{"code":"57","nom":"Moselle","slug":"moselle"},"region":{"code":"44","nom":"Grand Est","slug":"grand-est"},"villes_proches":[{"id":25653,"code_insee":"57277","nom_standard":"Guinkirchen","nom_a":null,"nom_de":null,"slug_ville":"guinkirchen","departement_id":0,"code_postal":"57220","population":141,"superficie_km2":"513.14","latitude_centre":"49.2075","longitude_centre":"6.4372","distance_km":2.01},{"id":25632,"code_insee":"57252","nom_standard":"Gomelange","nom_a":null,"nom_de":null,"slug_ville":"gomelange","departement_id":0,"code_postal":"57220","population":476,"superficie_km2":"942.93","latitude_centre":"49.2366","longitude_centre":"6.4591","distance_km":2.05},{"id":25545,"code_insee":"57121","nom_standard":"Burtoncourt","nom_a":null,"nom_de":null,"slug_ville":"burtoncourt","departement_id":0,"code_postal":"57220","population":228,"superficie_km2":"509.53","latitude_centre":"49.2242","longitude_centre":"6.4052","distance_km":2.28},{"id":0,"code_insee":"57542","nom_standard":"Piblange","nom_a":null,"nom_de":null,"slug_ville":"piblange","departement_id":0,"code_postal":"57220","population":943,"superficie_km2":"958.61","latitude_centre":"49.2454","longitude_centre":"6.4129","distance_km":2.79},{"id":0,"code_insee":"57599","nom_standard":"Roupeldange","nom_a":null,"nom_de":null,"slug_ville":"roupeldange","departement_id":0,"code_postal":"57220","population":326,"superficie_km2":"261.27","latitude_centre":"49.2085","longitude_centre":"6.4756","distance_km":3.42},{"id":25589,"code_insee":"57187","nom_standard":"Éblange","nom_a":null,"nom_de":null,"slug_ville":"eblange","departement_id":0,"code_postal":"57220","population":360,"superficie_km2":"327.47","latitude_centre":"49.2211","longitude_centre":"6.4885","distance_km":3.81},{"id":25505,"code_insee":"57070","nom_standard":"Bettange","nom_a":null,"nom_de":null,"slug_ville":"bettange","departement_id":0,"code_postal":"57220","population":242,"superficie_km2":"372.64","latitude_centre":"49.2397","longitude_centre":"6.49","distance_km":4.19},{"id":25550,"code_insee":"57128","nom_standard":"Charleville-sous-Bois","nom_a":null,"nom_de":null,"slug_ville":"charleville-sous-bois","departement_id":0,"code_postal":"57220","population":284,"superficie_km2":"1279.83","latitude_centre":"49.1929","longitude_centre":"6.4058","distance_km":4.27},{"id":25690,"code_insee":"57322","nom_standard":"Hestroff","nom_a":null,"nom_de":null,"slug_ville":"hestroff","departement_id":0,"code_postal":"57320","population":482,"superficie_km2":"749.71","latitude_centre":"49.2648","longitude_centre":"6.4233","distance_km":4.46},{"id":25693,"code_insee":"57326","nom_standard":"Hinckange","nom_a":null,"nom_de":null,"slug_ville":"hinckange","departement_id":0,"code_postal":"57220","population":321,"superficie_km2":"606.63","latitude_centre":"49.1851","longitude_centre":"6.446","distance_km":4.56},{"id":25473,"code_insee":"57025","nom_standard":"Anzeling","nom_a":null,"nom_de":null,"slug_ville":"anzeling","departement_id":0,"code_postal":"57320","population":480,"superficie_km2":"576.19","latitude_centre":"49.2704","longitude_centre":"6.463","distance_km":5.34},{"id":0,"code_insee":"57612","nom_standard":"Saint-Hubert","nom_a":null,"nom_de":null,"slug_ville":"saint-hubert","departement_id":0,"code_postal":"57640","population":229,"superficie_km2":"1598.33","latitude_centre":"49.2338","longitude_centre":"6.363","distance_km":5.41},{"id":0,"code_insee":"57730","nom_standard":"Volmerange-lès-Boulay","nom_a":null,"nom_de":null,"slug_ville":"volmerange-les-boulay","departement_id":0,"code_postal":"57220","population":548,"superficie_km2":"594.73","latitude_centre":"49.1705","longitude_centre":"6.4459","distance_km":6.16},{"id":25695,"code_insee":"57329","nom_standard":"Holling","nom_a":null,"nom_de":null,"slug_ville":"holling","departement_id":0,"code_postal":"57220","population":444,"superficie_km2":"482.58","latitude_centre":"49.259","longitude_centre":"6.5047","distance_km":6.19},{"id":25588,"code_insee":"57186","nom_standard":"Ébersviller","nom_a":null,"nom_de":null,"slug_ville":"ebersviller","departement_id":0,"code_postal":"57320","population":963,"superficie_km2":"1408.06","latitude_centre":"49.2797","longitude_centre":"6.4005","distance_km":6.56},{"id":0,"code_insee":"57097","nom_standard":"Boulay-Moselle","nom_a":null,"nom_de":null,"slug_ville":"boulay-moselle","departement_id":0,"code_postal":"57220","population":5434,"superficie_km2":"1954.52","latitude_centre":"49.1749","longitude_centre":"6.4965","distance_km":7.13},{"id":25567,"code_insee":"57150","nom_standard":"Condé-Northen","nom_a":null,"nom_de":null,"slug_ville":"conde-northen","departement_id":0,"code_postal":"57220","population":737,"superficie_km2":"1095.01","latitude_centre":"49.1598","longitude_centre":"6.4283","distance_km":7.34},{"id":25675,"code_insee":"57307","nom_standard":"Hayes","nom_a":null,"nom_de":null,"slug_ville":"hayes","departement_id":0,"code_postal":"57530","population":251,"superficie_km2":"1198.02","latitude_centre":"49.1712","longitude_centre":"6.3789","distance_km":7.36},{"id":0,"code_insee":"57235","nom_standard":"Freistroff","nom_a":null,"nom_de":null,"slug_ville":"freistroff","departement_id":0,"code_postal":"57320","population":1000,"superficie_km2":"1470.75","latitude_centre":"49.288","longitude_centre":"6.4842","distance_km":7.75},{"id":25555,"code_insee":"57136","nom_standard":"Chémery-les-Deux","nom_a":null,"nom_de":null,"slug_ville":"chemery-les-deux","departement_id":0,"code_postal":"57320","population":597,"superficie_km2":"1001.32","latitude_centre":"49.2992","longitude_centre":"6.4466","distance_km":8.22}]}