{"ville":{"id":30819,"code_insee":"71291","nom_standard":"Melay","nom_a":null,"nom_de":null,"slug_ville":"melay","departement_id":0,"code_postal":"71340","population":967,"superficie_km2":"3649.28","latitude_centre":"46.1994","longitude_centre":"4.0147","dep_code":"71","dep_nom":"Saône-et-Loire","dep_slug":"saone-et-loire","reg_code":"27","reg_nom":"Bourgogne-Franche-Comté","reg_slug":"bourgogne-franche-comte"},"departement":{"code":"71","nom":"Saône-et-Loire","slug":"saone-et-loire"},"region":{"code":"27","nom":"Bourgogne-Franche-Comté","slug":"bourgogne-franche-comte"},"villes_proches":[{"id":30776,"code_insee":"71238","nom_standard":"Iguerande","nom_a":null,"nom_de":null,"slug_ville":"iguerande","departement_id":0,"code_postal":"71340","population":992,"superficie_km2":"2146.79","latitude_centre":"46.2174","longitude_centre":"4.0751","distance_km":5.06},{"id":21640,"code_insee":"42016","nom_standard":"La Bénisson-Dieu","nom_a":null,"nom_de":null,"slug_ville":"la-benisson-dieu","departement_id":0,"code_postal":"42720","population":429,"superficie_km2":"1119.32","latitude_centre":"46.1577","longitude_centre":"4.0469","distance_km":5.26},{"id":30601,"code_insee":"71012","nom_standard":"Artaix","nom_a":null,"nom_de":null,"slug_ville":"artaix","departement_id":0,"code_postal":"71110","population":353,"superficie_km2":"2137.22","latitude_centre":"46.248","longitude_centre":"3.9868","distance_km":5.81},{"id":21820,"code_insee":"42337","nom_standard":"Vivans","nom_a":null,"nom_de":null,"slug_ville":"vivans","departement_id":0,"code_postal":"42310","population":242,"superficie_km2":"2557.39","latitude_centre":"46.1814","longitude_centre":"3.9385","distance_km":6.2},{"id":0,"code_insee":"71453","nom_standard":"Saint-Martin-du-Lac","nom_a":null,"nom_de":null,"slug_ville":"saint-martin-du-lac","departement_id":0,"code_postal":"71110","population":234,"superficie_km2":"1390.19","latitude_centre":"46.2462","longitude_centre":"4.0591","distance_km":6.22},{"id":30690,"code_insee":"71123","nom_standard":"Chenay-le-Châtel","nom_a":null,"nom_de":null,"slug_ville":"chenay-le-chatel","departement_id":0,"code_postal":"71340","population":375,"superficie_km2":"3207.22","latitude_centre":"46.2314","longitude_centre":"3.9413","distance_km":6.67},{"id":21723,"code_insee":"42157","nom_standard":"Noailly","nom_a":null,"nom_de":null,"slug_ville":"noailly","departement_id":0,"code_postal":"42640","population":824,"superficie_km2":"3197.64","latitude_centre":"46.1382","longitude_centre":"4.0052","distance_km":6.84},{"id":0,"code_insee":"42026","nom_standard":"Briennon","nom_a":null,"nom_de":null,"slug_ville":"briennon","departement_id":0,"code_postal":"42720","population":1710,"superficie_km2":"2230.68","latitude_centre":"46.151","longitude_centre":"4.0779","distance_km":7.26},{"id":21777,"code_insee":"42273","nom_standard":"Saint-Pierre-la-Noaille","nom_a":null,"nom_de":null,"slug_ville":"saint-pierre-la-noaille","departement_id":0,"code_postal":"42190","population":378,"superficie_km2":"749.87","latitude_centre":"46.1828","longitude_centre":"4.1079","distance_km":7.41},{"id":30803,"code_insee":"71271","nom_standard":"Mailly","nom_a":null,"nom_de":null,"slug_ville":"mailly","departement_id":0,"code_postal":"71340","population":148,"superficie_km2":"549.99","latitude_centre":"46.2304","longitude_centre":"4.115","distance_km":8.45},{"id":21751,"code_insee":"42220","nom_standard":"Saint-Forgeux-Lespinasse","nom_a":null,"nom_de":null,"slug_ville":"saint-forgeux-lespinasse","departement_id":0,"code_postal":"42640","population":590,"superficie_km2":"1651.27","latitude_centre":"46.1419","longitude_centre":"3.9427","distance_km":8.46},{"id":30746,"code_insee":"71200","nom_standard":"Fleury-la-Montagne","nom_a":null,"nom_de":null,"slug_ville":"fleury-la-montagne","departement_id":0,"code_postal":"71340","population":726,"superficie_km2":"882.41","latitude_centre":"46.1977","longitude_centre":"4.1254","distance_km":8.52},{"id":0,"code_insee":"71275","nom_standard":"Marcigny","nom_a":null,"nom_de":null,"slug_ville":"marcigny","departement_id":0,"code_postal":"71110","population":1682,"superficie_km2":"814.98","latitude_centre":"46.2742","longitude_centre":"4.0437","distance_km":8.61},{"id":30654,"code_insee":"71077","nom_standard":"Chambilly","nom_a":null,"nom_de":null,"slug_ville":"chambilly","departement_id":0,"code_postal":"71110","population":464,"superficie_km2":"1372.77","latitude_centre":"46.2826","longitude_centre":"3.9992","distance_km":9.33},{"id":0,"code_insee":"42267","nom_standard":"Saint-Nizier-sous-Charlieu","nom_a":null,"nom_de":null,"slug_ville":"saint-nizier-sous-charlieu","departement_id":0,"code_postal":"42190","population":1686,"superficie_km2":"1310.69","latitude_centre":"46.1624","longitude_centre":"4.1262","distance_km":9.52},{"id":0,"code_insee":"71510","nom_standard":"Semur-en-Brionnais","nom_a":null,"nom_de":null,"slug_ville":"semur-en-brionnais","departement_id":0,"code_postal":"71110","population":611,"superficie_km2":"1552.29","latitude_centre":"46.2727","longitude_centre":"4.0874","distance_km":9.88},{"id":0,"code_insee":"42231","nom_standard":"Saint-Germain-Lespinasse","nom_a":null,"nom_de":null,"slug_ville":"saint-germain-lespinasse","departement_id":0,"code_postal":"42640","population":1225,"superficie_km2":"1478.70","latitude_centre":"46.1112","longitude_centre":"3.9636","distance_km":10.57},{"id":30650,"code_insee":"71071","nom_standard":"Céron","nom_a":null,"nom_de":null,"slug_ville":"ceron","departement_id":0,"code_postal":"71110","population":263,"superficie_km2":"2355.43","latitude_centre":"46.2795","longitude_centre":"3.9339","distance_km":10.86},{"id":30611,"code_insee":"71024","nom_standard":"Baugy","nom_a":null,"nom_de":null,"slug_ville":"baugy","departement_id":0,"code_postal":"71110","population":499,"superficie_km2":"1266.25","latitude_centre":"46.3076","longitude_centre":"4.0313","distance_km":12.1},{"id":30633,"code_insee":"71048","nom_standard":"Bourg-le-Comte","nom_a":null,"nom_de":null,"slug_ville":"bourg-le-comte","departement_id":0,"code_postal":"71110","population":168,"superficie_km2":"1143.87","latitude_centre":"46.3115","longitude_centre":"3.9821","distance_km":12.71}]}