{"ville":{"id":5322,"code_insee":"56129","nom_standard":"Ménéac","nom_a":null,"nom_de":null,"slug_ville":"meneac","departement_id":657,"code_postal":"56490","population":1489,"superficie_km2":"69.00","latitude_centre":"48.1310005","longitude_centre":"-2.4540000","dep_code":"56","dep_nom":"Morbihan","dep_slug":"morbihan","reg_code":"03","reg_nom":"Bretagne","reg_slug":"bretagne"},"departement":{"code":"56","nom":"Morbihan","slug":"morbihan"},"region":{"code":"03","nom":"Bretagne","slug":"bretagne"},"villes_proches":[{"id":1557,"code_insee":"22147","nom_standard":"Merdrignac","nom_a":null,"nom_de":null,"slug_ville":"merdrignac","departement_id":623,"code_postal":"22230","population":2964,"superficie_km2":"57.00","latitude_centre":"48.1940002","longitude_centre":"-2.3959999","distance_km":8.22},{"id":5290,"code_insee":"56080","nom_standard":"Guilliers","nom_a":null,"nom_de":null,"slug_ville":"guilliers","departement_id":657,"code_postal":"56490","population":1337,"superficie_km2":"35.00","latitude_centre":"48.0519981","longitude_centre":"-2.4140000","distance_km":9.27},{"id":1618,"code_insee":"22241","nom_standard":"Plumieux","nom_a":null,"nom_de":null,"slug_ville":"plumieux","departement_id":623,"code_postal":"22210","population":1025,"superficie_km2":"40.00","latitude_centre":"48.1059990","longitude_centre":"-2.5920000","distance_km":10.61},{"id":1576,"code_insee":"22183","nom_standard":"Plémet","nom_a":null,"nom_de":null,"slug_ville":"plemet","departement_id":623,"code_postal":"22210","population":3739,"superficie_km2":"42.00","latitude_centre":"48.1860008","longitude_centre":"-2.5860000","distance_km":11.54},{"id":5320,"code_insee":"56127","nom_standard":"Mauron","nom_a":null,"nom_de":null,"slug_ville":"mauron","departement_id":657,"code_postal":"56430","population":3170,"superficie_km2":"67.00","latitude_centre":"48.0820007","longitude_centre":"-2.3039999","distance_km":12.4},{"id":1659,"code_insee":"22371","nom_standard":"Trémorel","nom_a":null,"nom_de":null,"slug_ville":"tremorel","departement_id":623,"code_postal":"22230","population":1150,"superficie_km2":"34.00","latitude_centre":"48.1910019","longitude_centre":"-2.3020000","distance_km":13.1},{"id":5333,"code_insee":"56145","nom_standard":"Néant-sur-Yvel","nom_a":null,"nom_de":null,"slug_ville":"neant-sur-yvel","departement_id":657,"code_postal":"56430","population":1094,"superficie_km2":"33.00","latitude_centre":"48.0219994","longitude_centre":"-2.3329999","distance_km":15.09},{"id":5315,"code_insee":"56122","nom_standard":"Loyat","nom_a":null,"nom_de":null,"slug_ville":"loyat","departement_id":657,"code_postal":"56800","population":1701,"superficie_km2":"42.00","latitude_centre":"47.9920006","longitude_centre":"-2.3840001","distance_km":16.31},{"id":3265,"code_insee":"35117","nom_standard":"Gaël","nom_a":null,"nom_de":null,"slug_ville":"gael","departement_id":636,"code_postal":"35290","population":1619,"superficie_km2":"53.00","latitude_centre":"48.1180000","longitude_centre":"-2.2279999","distance_km":16.84},{"id":5302,"code_insee":"56102","nom_standard":"Forges de Lanouée","nom_a":null,"nom_de":null,"slug_ville":"forges-de-lanouee","departement_id":657,"code_postal":"56120","population":2130,"superficie_km2":"44.00","latitude_centre":"47.9869995","longitude_centre":"-2.5760000","distance_km":18.4},{"id":1633,"code_insee":"22275","nom_standard":"Saint-Barnabé","nom_a":null,"nom_de":null,"slug_ville":"saint-barnabe","departement_id":623,"code_postal":"22600","population":1214,"superficie_km2":"23.00","latitude_centre":"48.1380005","longitude_centre":"-2.7019999","distance_km":18.42},{"id":5256,"code_insee":"56024","nom_standard":"Bréhan","nom_a":null,"nom_de":null,"slug_ville":"brehan","departement_id":657,"code_postal":"56580","population":2288,"superficie_km2":"52.00","latitude_centre":"48.0699997","longitude_centre":"-2.6870000","distance_km":18.58},{"id":5405,"code_insee":"56249","nom_standard":"Taupont","nom_a":null,"nom_de":null,"slug_ville":"taupont","departement_id":657,"code_postal":"56800","population":2330,"superficie_km2":"31.00","latitude_centre":"47.9620018","longitude_centre":"-2.4430001","distance_km":18.81},{"id":1519,"code_insee":"22046","nom_standard":"Le Mené","nom_a":null,"nom_de":null,"slug_ville":"le-mene","departement_id":623,"code_postal":"22330","population":6413,"superficie_km2":"7.00","latitude_centre":"48.2939987","longitude_centre":"-2.5220001","distance_km":18.81},{"id":3383,"code_insee":"35297","nom_standard":"Saint-Méen-le-Grand","nom_a":null,"nom_de":null,"slug_ville":"saint-meen-le-grand","departement_id":636,"code_postal":"35290","population":4603,"superficie_km2":"19.00","latitude_centre":"48.1930008","longitude_centre":"-2.1949999","distance_km":20.41},{"id":1617,"code_insee":"22240","nom_standard":"Plumaugat","nom_a":null,"nom_de":null,"slug_ville":"plumaugat","departement_id":623,"code_postal":"22250","population":1130,"superficie_km2":"44.00","latitude_centre":"48.2449989","longitude_centre":"-2.2309999","distance_km":20.83},{"id":5295,"code_insee":"56091","nom_standard":"Josselin","nom_a":null,"nom_de":null,"slug_ville":"josselin","departement_id":657,"code_postal":"56120","population":2535,"superficie_km2":"4.00","latitude_centre":"47.9539986","longitude_centre":"-2.5490000","distance_km":20.91},{"id":1559,"code_insee":"22155","nom_standard":"La Motte","nom_a":null,"nom_de":null,"slug_ville":"la-motte","departement_id":623,"code_postal":"22600","population":2145,"superficie_km2":"43.00","latitude_centre":"48.2309990","longitude_centre":"-2.7049999","distance_km":21.68},{"id":5377,"code_insee":"56198","nom_standard":"Rohan","nom_a":null,"nom_de":null,"slug_ville":"rohan","departement_id":657,"code_postal":"56580","population":1573,"superficie_km2":"23.00","latitude_centre":"48.0900002","longitude_centre":"-2.7430000","distance_km":21.94},{"id":3386,"code_insee":"35302","nom_standard":"Saint-Onen-la-Chapelle","nom_a":null,"nom_de":null,"slug_ville":"saint-onen-la-chapelle","departement_id":636,"code_postal":"35290","population":1116,"superficie_km2":"25.00","latitude_centre":"48.1699982","longitude_centre":"-2.1559999","distance_km":22.53}]}