{"ville":{"id":12019,"code_insee":"08287","nom_standard":"Ménil-Lépinois","nom_a":null,"nom_de":null,"slug_ville":"menil-lepinois","departement_id":0,"code_postal":"08310","population":148,"superficie_km2":"1789.92","latitude_centre":"49.3718","longitude_centre":"4.29","dep_code":"08","dep_nom":"Ardennes","dep_slug":"ardennes","reg_code":"44","reg_nom":"Grand Est","reg_slug":"grand-est"},"departement":{"code":"08","nom":"Ardennes","slug":"ardennes"},"region":{"code":"44","nom":"Grand Est","slug":"grand-est"},"villes_proches":[{"id":0,"code_insee":"08314","nom_standard":"Neuflize","nom_a":null,"nom_de":null,"slug_ville":"neuflize","departement_id":0,"code_postal":"08300","population":855,"superficie_km2":"1368.97","latitude_centre":"49.405","longitude_centre":"4.311","distance_km":3.99},{"id":0,"code_insee":"51660","nom_standard":"Warmeriville","nom_a":null,"nom_de":null,"slug_ville":"warmeriville","departement_id":0,"code_postal":"51110","population":2749,"superficie_km2":"2331.39","latitude_centre":"49.3513","longitude_centre":"4.2443","distance_km":4.02},{"id":11821,"code_insee":"08032","nom_standard":"Aussonce","nom_a":null,"nom_de":null,"slug_ville":"aussonce","departement_id":0,"code_postal":"08310","population":236,"superficie_km2":"1943.00","latitude_centre":"49.3432","longitude_centre":"4.3252","distance_km":4.08},{"id":11883,"code_insee":"08111","nom_standard":"Le Châtelet-sur-Retourne","nom_a":null,"nom_de":null,"slug_ville":"le-chatelet-sur-retourne","departement_id":0,"code_postal":"08300","population":774,"superficie_km2":"982.84","latitude_centre":"49.4113","longitude_centre":"4.2774","distance_km":4.49},{"id":0,"code_insee":"51293","nom_standard":"Heutrégiville","nom_a":null,"nom_de":null,"slug_ville":"heutregiville","departement_id":0,"code_postal":"51110","population":508,"superficie_km2":"1178.77","latitude_centre":"49.3312","longitude_centre":"4.2596","distance_km":5.02},{"id":11799,"code_insee":"08005","nom_standard":"Alincourt","nom_a":null,"nom_de":null,"slug_ville":"alincourt","departement_id":0,"code_postal":"08310","population":160,"superficie_km2":"890.56","latitude_centre":"49.4009","longitude_centre":"4.345","distance_km":5.13},{"id":0,"code_insee":"08397","nom_standard":"Saint-Remy-le-Petit","nom_a":null,"nom_de":null,"slug_ville":"saint-remy-le-petit","departement_id":0,"code_postal":"08300","population":56,"superficie_km2":"745.53","latitude_centre":"49.3995","longitude_centre":"4.2316","distance_km":5.23},{"id":11843,"code_insee":"08060","nom_standard":"Bergnicourt","nom_a":null,"nom_de":null,"slug_ville":"bergnicourt","departement_id":0,"code_postal":"08300","population":292,"superficie_km2":"825.42","latitude_centre":"49.4119","longitude_centre":"4.2489","distance_km":5.36},{"id":0,"code_insee":"51299","nom_standard":"Isles-sur-Suippe","nom_a":null,"nom_de":null,"slug_ville":"isles-sur-suippe","departement_id":0,"code_postal":"51110","population":975,"superficie_km2":"1235.93","latitude_centre":"49.3609","longitude_centre":"4.2095","distance_km":5.95},{"id":0,"code_insee":"08239","nom_standard":"Juniville","nom_a":null,"nom_de":null,"slug_ville":"juniville","departement_id":0,"code_postal":"08310","population":1224,"superficie_km2":"2608.69","latitude_centre":"49.4007","longitude_centre":"4.378","distance_km":7.13},{"id":11910,"code_insee":"08148","nom_standard":"L'Écaille","nom_a":null,"nom_de":null,"slug_ville":"l-ecaille","departement_id":0,"code_postal":"08300","population":263,"superficie_km2":"911.34","latitude_centre":"49.4098","longitude_centre":"4.2098","distance_km":7.18},{"id":0,"code_insee":"51505","nom_standard":"Saint-Masmes","nom_a":null,"nom_de":null,"slug_ville":"saint-masmes","departement_id":0,"code_postal":"51490","population":550,"superficie_km2":"664.38","latitude_centre":"49.3095","longitude_centre":"4.2517","distance_km":7.46},{"id":0,"code_insee":"08320","nom_standard":"La Neuville-en-Tourne-à-Fuy","nom_a":null,"nom_de":null,"slug_ville":"la-neuville-en-tourne-a-fuy","departement_id":0,"code_postal":"08310","population":533,"superficie_km2":"2736.65","latitude_centre":"49.3461","longitude_centre":"4.3965","distance_km":8.23},{"id":0,"code_insee":"51529","nom_standard":"Selles","nom_a":null,"nom_de":null,"slug_ville":"selles","departement_id":0,"code_postal":"51490","population":464,"superficie_km2":"1143.08","latitude_centre":"49.2965","longitude_centre":"4.284","distance_km":8.38},{"id":0,"code_insee":"08435","nom_standard":"Tagnon","nom_a":null,"nom_de":null,"slug_ville":"tagnon","departement_id":0,"code_postal":"08300","population":901,"superficie_km2":"2396.47","latitude_centre":"49.4511","longitude_centre":"4.2902","distance_km":8.82},{"id":0,"code_insee":"08339","nom_standard":"Perthes","nom_a":null,"nom_de":null,"slug_ville":"perthes","departement_id":0,"code_postal":"08300","population":303,"superficie_km2":"2362.06","latitude_centre":"49.4487","longitude_centre":"4.3605","distance_km":9.96},{"id":0,"code_insee":"51232","nom_standard":"Époye","nom_a":null,"nom_de":null,"slug_ville":"epoye","departement_id":0,"code_postal":"51490","population":416,"superficie_km2":"1536.21","latitude_centre":"49.2879","longitude_centre":"4.2305","distance_km":10.28},{"id":0,"code_insee":"51054","nom_standard":"Bétheniville","nom_a":null,"nom_de":null,"slug_ville":"betheniville","departement_id":0,"code_postal":"51490","population":1259,"superficie_km2":"1769.13","latitude_centre":"49.2929","longitude_centre":"4.3672","distance_km":10.41},{"id":0,"code_insee":"08386","nom_standard":"Saint-Loup-en-Champagne","nom_a":null,"nom_de":null,"slug_ville":"saint-loup-en-champagne","departement_id":0,"code_postal":"08300","population":345,"superficie_km2":"1576.36","latitude_centre":"49.4526","longitude_centre":"4.2165","distance_km":10.44},{"id":0,"code_insee":"51440","nom_standard":"Pontfaverger-Moronvilliers","nom_a":null,"nom_de":null,"slug_ville":"pontfaverger-moronvilliers","departement_id":0,"code_postal":"51490","population":1734,"superficie_km2":"3161.13","latitude_centre":"49.2789","longitude_centre":"4.3181","distance_km":10.53}]}