{"ville":{"id":33147,"code_insee":"80541","nom_standard":"Mesnil-Saint-Georges","nom_a":null,"nom_de":null,"slug_ville":"mesnil-saint-georges","departement_id":0,"code_postal":"80500","population":217,"superficie_km2":"605.22","latitude_centre":"49.6409","longitude_centre":"2.5272","dep_code":"80","dep_nom":"Somme","dep_slug":"somme","reg_code":"32","reg_nom":"Hauts-de-France","reg_slug":"hauts-de-france"},"departement":{"code":"80","nom":"Somme","slug":"somme"},"region":{"code":"32","nom":"Hauts-de-France","slug":"hauts-de-france"},"villes_proches":[{"id":32736,"code_insee":"80049","nom_standard":"Ayencourt","nom_a":null,"nom_de":null,"slug_ville":"ayencourt","departement_id":0,"code_postal":"80500","population":152,"superficie_km2":"467.28","latitude_centre":"49.6258","longitude_centre":"2.5499","distance_km":2.34},{"id":32969,"code_insee":"80326","nom_standard":"Fontaine-sous-Montdidier","nom_a":null,"nom_de":null,"slug_ville":"fontaine-sous-montdidier","departement_id":0,"code_postal":"80500","population":97,"superficie_km2":"905.19","latitude_centre":"49.6557","longitude_centre":"2.5022","distance_km":2.44},{"id":32885,"code_insee":"80220","nom_standard":"Courtemanche","nom_a":null,"nom_de":null,"slug_ville":"courtemanche","departement_id":0,"code_postal":"80500","population":99,"superficie_km2":"414.42","latitude_centre":"49.6634","longitude_centre":"2.5453","distance_km":2.82},{"id":0,"code_insee":"80561","nom_standard":"Montdidier","nom_a":null,"nom_de":null,"slug_ville":"montdidier","departement_id":0,"code_postal":"80500","population":5935,"superficie_km2":"1262.06","latitude_centre":"49.6475","longitude_centre":"2.5662","distance_km":2.9},{"id":26991,"code_insee":"60556","nom_standard":"Royaucourt","nom_a":null,"nom_de":null,"slug_ville":"royaucourt","departement_id":0,"code_postal":"60420","population":215,"superficie_km2":"946.83","latitude_centre":"49.6141","longitude_centre":"2.5296","distance_km":2.99},{"id":32847,"code_insee":"80174","nom_standard":"Le Cardonnois","nom_a":null,"nom_de":null,"slug_ville":"le-cardonnois","departement_id":0,"code_postal":"80500","population":75,"superficie_km2":"237.36","latitude_centre":"49.6309","longitude_centre":"2.4847","distance_km":3.26},{"id":32843,"code_insee":"80170","nom_standard":"Cantigny","nom_a":null,"nom_de":null,"slug_ville":"cantigny","departement_id":0,"code_postal":"80500","population":110,"superficie_km2":"405.19","latitude_centre":"49.6642","longitude_centre":"2.4893","distance_km":3.76},{"id":0,"code_insee":"80805","nom_standard":"Villers-Tournelle","nom_a":null,"nom_de":null,"slug_ville":"villers-tournelle","departement_id":0,"code_postal":"80500","population":160,"superficie_km2":"592.52","latitude_centre":"49.6496","longitude_centre":"2.4648","distance_km":4.6},{"id":33122,"code_insee":"80511","nom_standard":"Marestmontiers","nom_a":null,"nom_de":null,"slug_ville":"marestmontiers","departement_id":0,"code_postal":"80500","population":120,"superficie_km2":"248.21","latitude_centre":"49.6824","longitude_centre":"2.5223","distance_km":4.63},{"id":27096,"code_insee":"60702","nom_standard":"Welles-Pérennes","nom_a":null,"nom_de":null,"slug_ville":"welles-perennes","departement_id":0,"code_postal":"60420","population":233,"superficie_km2":"1343.70","latitude_centre":"49.6132","longitude_centre":"2.4789","distance_km":4.65},{"id":0,"code_insee":"80687","nom_standard":"Rubescourt","nom_a":null,"nom_de":null,"slug_ville":"rubescourt","departement_id":0,"code_postal":"80500","population":129,"superficie_km2":"397.95","latitude_centre":"49.6109","longitude_centre":"2.5778","distance_km":4.94},{"id":33021,"code_insee":"80386","nom_standard":"Gratibus","nom_a":null,"nom_de":null,"slug_ville":"gratibus","departement_id":0,"code_postal":"80500","population":175,"superficie_km2":"532.98","latitude_centre":"49.6834","longitude_centre":"2.5485","distance_km":4.97},{"id":26717,"code_insee":"60200","nom_standard":"Domfront","nom_a":null,"nom_de":null,"slug_ville":"domfront","departement_id":0,"code_postal":"60420","population":310,"superficie_km2":"274.35","latitude_centre":"49.5983","longitude_centre":"2.5563","distance_km":5.18},{"id":26718,"code_insee":"60201","nom_standard":"Dompierre","nom_a":null,"nom_de":null,"slug_ville":"dompierre","departement_id":0,"code_postal":"60420","population":248,"superficie_km2":"276.03","latitude_centre":"49.5915","longitude_centre":"2.5337","distance_km":5.51},{"id":26745,"code_insee":"60232","nom_standard":"Ferrières","nom_a":null,"nom_de":null,"slug_ville":"ferrieres","departement_id":0,"code_postal":"60420","population":435,"superficie_km2":"483.27","latitude_centre":"49.5883","longitude_centre":"2.5134","distance_km":5.93},{"id":32799,"code_insee":"80121","nom_standard":"Bouillancourt-la-Bataille","nom_a":null,"nom_de":null,"slug_ville":"bouillancourt-la-bataille","departement_id":0,"code_postal":"80500","population":142,"superficie_km2":"357.96","latitude_centre":"49.6964","longitude_centre":"2.525","distance_km":6.17},{"id":33118,"code_insee":"80504","nom_standard":"Malpart","nom_a":null,"nom_de":null,"slug_ville":"malpart","departement_id":0,"code_postal":"80250","population":70,"superficie_km2":"425.51","latitude_centre":"49.6937","longitude_centre":"2.498","distance_km":6.24},{"id":32957,"code_insee":"80311","nom_standard":"Fignières","nom_a":null,"nom_de":null,"slug_ville":"fignieres","departement_id":0,"code_postal":"80500","population":142,"superficie_km2":"662.21","latitude_centre":"49.6811","longitude_centre":"2.5877","distance_km":6.24},{"id":26782,"code_insee":"60276","nom_standard":"Godenvillers","nom_a":null,"nom_de":null,"slug_ville":"godenvillers","departement_id":0,"code_postal":"60420","population":196,"superficie_km2":"516.72","latitude_centre":"49.5828","longitude_centre":"2.5471","distance_km":6.62},{"id":26699,"code_insee":"60179","nom_standard":"Crèvecœur-le-Petit","nom_a":null,"nom_de":null,"slug_ville":"crevecoeur-le-petit","departement_id":0,"code_postal":"60420","population":159,"superficie_km2":"332.10","latitude_centre":"49.5732","longitude_centre":"2.5016","distance_km":7.75}]}