{"ville":{"id":31890,"code_insee":"76430","nom_standard":"Mesnil-Follemprise","nom_a":null,"nom_de":null,"slug_ville":"mesnil-follemprise","departement_id":0,"code_postal":"76660","population":119,"superficie_km2":"751.63","latitude_centre":"49.7619","longitude_centre":"1.3036","dep_code":"76","dep_nom":"Seine-Maritime","dep_slug":"seine-maritime","reg_code":"28","reg_nom":"Normandie","reg_slug":"normandie"},"departement":{"code":"76","nom":"Seine-Maritime","slug":"seine-maritime"},"region":{"code":"28","nom":"Normandie","slug":"normandie"},"villes_proches":[{"id":0,"code_insee":"76506","nom_standard":"Pommeréval","nom_a":null,"nom_de":null,"slug_ville":"pommereval","departement_id":0,"code_postal":"76680","population":496,"superficie_km2":"763.03","latitude_centre":"49.7369","longitude_centre":"1.3021","distance_km":2.78},{"id":31694,"code_insee":"76148","nom_standard":"Bures-en-Bray","nom_a":null,"nom_de":null,"slug_ville":"bures-en-bray","departement_id":0,"code_postal":"76660","population":302,"superficie_km2":"1089.53","latitude_centre":"49.7777","longitude_centre":"1.3356","distance_km":2.89},{"id":31609,"code_insee":"76024","nom_standard":"Ardouval","nom_a":null,"nom_de":null,"slug_ville":"ardouval","departement_id":0,"code_postal":"76680","population":158,"superficie_km2":"1038.56","latitude_centre":"49.7397","longitude_centre":"1.2729","distance_km":3.31},{"id":31788,"code_insee":"76283","nom_standard":"Fresles","nom_a":null,"nom_de":null,"slug_ville":"fresles","departement_id":0,"code_postal":"76270","population":222,"superficie_km2":"1091.04","latitude_centre":"49.7476","longitude_centre":"1.3441","distance_km":3.32},{"id":0,"code_insee":"76487","nom_standard":"Osmoy-Saint-Valery","nom_a":null,"nom_de":null,"slug_ville":"osmoy-saint-valery","departement_id":0,"code_postal":"76660","population":312,"superficie_km2":"1621.47","latitude_centre":"49.7963","longitude_centre":"1.301","distance_km":3.83},{"id":0,"code_insee":"76526","nom_standard":"Ricarville-du-Val","nom_a":null,"nom_de":null,"slug_ville":"ricarville-du-val","departement_id":0,"code_postal":"76510","population":197,"superficie_km2":"566.62","latitude_centre":"49.7976","longitude_centre":"1.2702","distance_km":4.64},{"id":0,"code_insee":"76321","nom_standard":"Les Grandes-Ventes","nom_a":null,"nom_de":null,"slug_ville":"les-grandes-ventes","departement_id":0,"code_postal":"76950","population":1725,"superficie_km2":"2480.12","latitude_centre":"49.7713","longitude_centre":"1.2337","distance_km":5.13},{"id":0,"code_insee":"76733","nom_standard":"Ventes-Saint-Rémy","nom_a":null,"nom_de":null,"slug_ville":"ventes-saint-remy","departement_id":0,"code_postal":"76680","population":210,"superficie_km2":"611.62","latitude_centre":"49.7095","longitude_centre":"1.2972","distance_km":5.84},{"id":31888,"code_insee":"76427","nom_standard":"Mesnières-en-Bray","nom_a":null,"nom_de":null,"slug_ville":"mesnieres-en-bray","departement_id":0,"code_postal":"76270","population":940,"superficie_km2":"1502.09","latitude_centre":"49.7652","longitude_centre":"1.3891","distance_km":6.15},{"id":31693,"code_insee":"76147","nom_standard":"Bully","nom_a":null,"nom_de":null,"slug_ville":"bully","departement_id":0,"code_postal":"76270","population":863,"superficie_km2":"1960.18","latitude_centre":"49.7183","longitude_centre":"1.3582","distance_km":6.24},{"id":0,"code_insee":"76652","nom_standard":"Saint-Vaast-d'Équiqueville","nom_a":null,"nom_de":null,"slug_ville":"saint-vaast-d-equiqueville","departement_id":0,"code_postal":"76510","population":748,"superficie_km2":"1382.51","latitude_centre":"49.8128","longitude_centre":"1.2599","distance_km":6.47},{"id":31736,"code_insee":"76202","nom_standard":"Croixdalle","nom_a":null,"nom_de":null,"slug_ville":"croixdalle","departement_id":0,"code_postal":"76660","population":338,"superficie_km2":"1116.40","latitude_centre":"49.8021","longitude_centre":"1.3731","distance_km":6.7},{"id":31640,"code_insee":"76070","nom_standard":"Bellencombre","nom_a":null,"nom_de":null,"slug_ville":"bellencombre","departement_id":0,"code_postal":"76680","population":564,"superficie_km2":"1284.39","latitude_centre":"49.7183","longitude_centre":"1.2361","distance_km":6.86},{"id":0,"code_insee":"76620","nom_standard":"Saint-Martin-l'Hortier","nom_a":null,"nom_de":null,"slug_ville":"saint-martin-l-hortier","departement_id":0,"code_postal":"76270","population":272,"superficie_km2":"582.19","latitude_centre":"49.7461","longitude_centre":"1.4008","distance_km":7.2},{"id":0,"code_insee":"76553","nom_standard":"Sainte-Agathe-d'Aliermont","nom_a":null,"nom_de":null,"slug_ville":"sainte-agathe-d-aliermont","departement_id":0,"code_postal":"76660","population":304,"superficie_km2":"792.70","latitude_centre":"49.8288","longitude_centre":"1.3393","distance_km":7.87},{"id":0,"code_insee":"76538","nom_standard":"Rosay","nom_a":null,"nom_de":null,"slug_ville":"rosay","departement_id":0,"code_postal":"76680","population":258,"superficie_km2":"1050.22","latitude_centre":"49.6975","longitude_centre":"1.2555","distance_km":7.95},{"id":31879,"code_insee":"76417","nom_standard":"Maucomble","nom_a":null,"nom_de":null,"slug_ville":"maucomble","departement_id":0,"code_postal":"76680","population":383,"superficie_km2":"508.51","latitude_centre":"49.6879","longitude_centre":"1.3346","distance_km":8.52},{"id":31792,"code_insee":"76288","nom_standard":"Freulleville","nom_a":null,"nom_de":null,"slug_ville":"freulleville","departement_id":0,"code_postal":"76510","population":386,"superficie_km2":"1117.50","latitude_centre":"49.8173","longitude_centre":"1.2193","distance_km":8.64},{"id":0,"code_insee":"76472","nom_standard":"Notre-Dame-d'Aliermont","nom_a":null,"nom_de":null,"slug_ville":"notre-dame-d-aliermont","departement_id":0,"code_postal":"76510","population":701,"superficie_km2":"1318.06","latitude_centre":"49.8474","longitude_centre":"1.3015","distance_km":9.51},{"id":0,"code_insee":"76648","nom_standard":"Saint-Saëns","nom_a":null,"nom_de":null,"slug_ville":"saint-saens","departement_id":0,"code_postal":"76680","population":2298,"superficie_km2":"2608.73","latitude_centre":"49.6728","longitude_centre":"1.2799","distance_km":10.05}]}