{"ville":{"id":11037,"code_insee":"03172","nom_standard":"Mesples","nom_a":null,"nom_de":null,"slug_ville":"mesples","departement_id":0,"code_postal":"03370","population":129,"superficie_km2":"1534.65","latitude_centre":"46.424","longitude_centre":"2.363","dep_code":"03","dep_nom":"Allier","dep_slug":"allier","reg_code":"84","reg_nom":"Auvergne-Rhône-Alpes","reg_slug":"auvergne-rhone-alpes"},"departement":{"code":"03","nom":"Allier","slug":"allier"},"region":{"code":"84","nom":"Auvergne-Rhône-Alpes","slug":"auvergne-rhone-alpes"},"villes_proches":[{"id":0,"code_insee":"03259","nom_standard":"Saint-Sauvier","nom_a":null,"nom_de":null,"slug_ville":"saint-sauvier","departement_id":0,"code_postal":"03370","population":320,"superficie_km2":"3173.80","latitude_centre":"46.3955","longitude_centre":"2.3337","distance_km":3.88},{"id":0,"code_insee":"03317","nom_standard":"Viplaix","nom_a":null,"nom_de":null,"slug_ville":"viplaix","departement_id":0,"code_postal":"03370","population":293,"superficie_km2":"3090.10","latitude_centre":"46.4608","longitude_centre":"2.368","distance_km":4.11},{"id":0,"code_insee":"03249","nom_standard":"Saint-Palais","nom_a":null,"nom_de":null,"slug_ville":"saint-palais","departement_id":0,"code_postal":"03370","population":163,"superficie_km2":"2040.31","latitude_centre":"46.4415","longitude_centre":"2.3078","distance_km":4.66},{"id":10944,"code_insee":"03051","nom_standard":"Chambérat","nom_a":null,"nom_de":null,"slug_ville":"chamberat","departement_id":0,"code_postal":"03370","population":277,"superficie_km2":"2871.68","latitude_centre":"46.4145","longitude_centre":"2.4227","distance_km":4.7},{"id":10908,"code_insee":"03005","nom_standard":"Archignat","nom_a":null,"nom_de":null,"slug_ville":"archignat","departement_id":0,"code_postal":"03380","population":321,"superficie_km2":"2451.30","latitude_centre":"46.3634","longitude_centre":"2.4102","distance_km":7.65},{"id":10976,"code_insee":"03088","nom_standard":"Courçais","nom_a":null,"nom_de":null,"slug_ville":"courcais","departement_id":0,"code_postal":"03370","population":314,"superficie_km2":"2684.48","latitude_centre":"46.4657","longitude_centre":"2.4489","distance_km":8.05},{"id":0,"code_insee":"03228","nom_standard":"Saint-Éloy-d'Allier","nom_a":null,"nom_de":null,"slug_ville":"saint-eloy-d-allier","departement_id":0,"code_postal":"03370","population":58,"superficie_km2":"1286.37","latitude_centre":"46.4984","longitude_centre":"2.3605","distance_km":8.28},{"id":0,"code_insee":"23233","nom_standard":"Saint-Pierre-le-Bost","nom_a":null,"nom_de":null,"slug_ville":"saint-pierre-le-bost","departement_id":0,"code_postal":"23600","population":119,"superficie_km2":"1718.60","latitude_centre":"46.3957","longitude_centre":"2.2592","distance_km":8.56},{"id":0,"code_insee":"03288","nom_standard":"Treignat","nom_a":null,"nom_de":null,"slug_ville":"treignat","departement_id":0,"code_postal":"03380","population":434,"superficie_km2":"2934.97","latitude_centre":"46.3469","longitude_centre":"2.3458","distance_km":8.67},{"id":0,"code_insee":"23108","nom_standard":"Leyrat","nom_a":null,"nom_de":null,"slug_ville":"leyrat","departement_id":0,"code_postal":"23600","population":143,"superficie_km2":"1840.72","latitude_centre":"46.3564","longitude_centre":"2.2985","distance_km":9.0},{"id":0,"code_insee":"18187","nom_standard":"Préveranges","nom_a":null,"nom_de":null,"slug_ville":"preveranges","departement_id":0,"code_postal":"18370","population":520,"superficie_km2":"3806.61","latitude_centre":"46.456","longitude_centre":"2.2512","distance_km":9.28},{"id":0,"code_insee":"18252","nom_standard":"Sidiailles","nom_a":null,"nom_de":null,"slug_ville":"sidiailles","departement_id":0,"code_postal":"18270","population":294,"superficie_km2":"3204.87","latitude_centre":"46.5093","longitude_centre":"2.3223","distance_km":9.98},{"id":0,"code_insee":"03128","nom_standard":"Huriel","nom_a":null,"nom_de":null,"slug_ville":"huriel","departement_id":0,"code_postal":"03380","population":2536,"superficie_km2":"3529.59","latitude_centre":"46.3757","longitude_centre":"2.4812","distance_km":10.54},{"id":0,"code_insee":"23213","nom_standard":"Saint-Marien","nom_a":null,"nom_de":null,"slug_ville":"saint-marien","departement_id":0,"code_postal":"23600","population":196,"superficie_km2":"1290.22","latitude_centre":"46.4118","longitude_centre":"2.2181","distance_km":11.19},{"id":0,"code_insee":"03225","nom_standard":"Saint-Désiré","nom_a":null,"nom_de":null,"slug_ville":"saint-desire","departement_id":0,"code_postal":"03370","population":424,"superficie_km2":"4247.46","latitude_centre":"46.5057","longitude_centre":"2.4521","distance_km":11.36},{"id":0,"code_insee":"03246","nom_standard":"Saint-Martinien","nom_a":null,"nom_de":null,"slug_ville":"saint-martinien","departement_id":0,"code_postal":"03380","population":597,"superficie_km2":"2579.31","latitude_centre":"46.3328","longitude_centre":"2.442","distance_km":11.81},{"id":0,"code_insee":"23174","nom_standard":"Soumans","nom_a":null,"nom_de":null,"slug_ville":"soumans","departement_id":0,"code_postal":"23600","population":611,"superficie_km2":"3677.15","latitude_centre":"46.3086","longitude_centre":"2.3359","distance_km":13.0},{"id":0,"code_insee":"18083","nom_standard":"Culan","nom_a":null,"nom_de":null,"slug_ville":"culan","departement_id":0,"code_postal":"18270","population":779,"superficie_km2":"2016.95","latitude_centre":"46.5419","longitude_centre":"2.3534","distance_km":13.13},{"id":0,"code_insee":"23145","nom_standard":"Nouhant","nom_a":null,"nom_de":null,"slug_ville":"nouhant","departement_id":0,"code_postal":"23170","population":313,"superficie_km2":"2570.25","latitude_centre":"46.2924","longitude_centre":"2.3901","distance_km":14.78},{"id":11008,"code_insee":"03136","nom_standard":"Lamaids","nom_a":null,"nom_de":null,"slug_ville":"lamaids","departement_id":0,"code_postal":"03380","population":210,"superficie_km2":"772.99","latitude_centre":"46.302","longitude_centre":"2.441","distance_km":14.83}]}