{"ville":{"id":21023,"code_insee":"39335","nom_standard":"Moissey","nom_a":null,"nom_de":null,"slug_ville":"moissey","departement_id":0,"code_postal":"39290","population":567,"superficie_km2":"1078.12","latitude_centre":"47.1871","longitude_centre":"5.5326","dep_code":"39","dep_nom":"Jura","dep_slug":"jura","reg_code":"27","reg_nom":"Bourgogne-Franche-Comté","reg_slug":"bourgogne-franche-comte"},"departement":{"code":"39","nom":"Jura","slug":"jura"},"region":{"code":"27","nom":"Bourgogne-Franche-Comté","slug":"bourgogne-franche-comte"},"villes_proches":[{"id":20945,"code_insee":"39238","nom_standard":"Frasne-les-Meulières","nom_a":null,"nom_de":null,"slug_ville":"frasne-les-meulieres","departement_id":0,"code_postal":"39290","population":110,"superficie_km2":"486.17","latitude_centre":"47.1966","longitude_centre":"5.5022","distance_km":2.53},{"id":0,"code_insee":"39392","nom_standard":"Offlanges","nom_a":null,"nom_de":null,"slug_ville":"offlanges","departement_id":0,"code_postal":"39290","population":199,"superficie_km2":"872.70","latitude_centre":"47.2013","longitude_centre":"5.5635","distance_km":2.82},{"id":20964,"code_insee":"39262","nom_standard":"Gredisans","nom_a":null,"nom_de":null,"slug_ville":"gredisans","departement_id":0,"code_postal":"39290","population":136,"superficie_km2":"235.66","latitude_centre":"47.1635","longitude_centre":"5.5168","distance_km":2.88},{"id":21013,"code_insee":"39323","nom_standard":"Menotey","nom_a":null,"nom_de":null,"slug_ville":"menotey","departement_id":0,"code_postal":"39290","population":293,"superficie_km2":"499.53","latitude_centre":"47.1679","longitude_centre":"5.5023","distance_km":3.13},{"id":20769,"code_insee":"39008","nom_standard":"Amange","nom_a":null,"nom_de":null,"slug_ville":"amange","departement_id":0,"code_postal":"39700","population":428,"superficie_km2":"675.48","latitude_centre":"47.1691","longitude_centre":"5.5659","distance_km":3.22},{"id":0,"code_insee":"39360","nom_standard":"Montmirey-la-Ville","nom_a":null,"nom_de":null,"slug_ville":"montmirey-la-ville","departement_id":0,"code_postal":"39290","population":176,"superficie_km2":"398.59","latitude_centre":"47.2181","longitude_centre":"5.5163","distance_km":3.66},{"id":20858,"code_insee":"39121","nom_standard":"Châtenois","nom_a":null,"nom_de":null,"slug_ville":"chatenois","departement_id":0,"code_postal":"39700","population":411,"superficie_km2":"800.72","latitude_centre":"47.1543","longitude_centre":"5.5493","distance_km":3.86},{"id":0,"code_insee":"39584","nom_standard":"Vriange","nom_a":null,"nom_de":null,"slug_ville":"vriange","departement_id":0,"code_postal":"39700","population":163,"superficie_km2":"589.45","latitude_centre":"47.1832","longitude_centre":"5.5848","distance_km":3.97},{"id":20773,"code_insee":"39014","nom_standard":"Archelange","nom_a":null,"nom_de":null,"slug_ville":"archelange","departement_id":0,"code_postal":"39290","population":219,"superficie_km2":"495.65","latitude_centre":"47.1523","longitude_centre":"5.5163","distance_km":4.06},{"id":0,"code_insee":"39361","nom_standard":"Montmirey-le-Château","nom_a":null,"nom_de":null,"slug_ville":"montmirey-le-chateau","departement_id":0,"code_postal":"39290","population":198,"superficie_km2":"808.28","latitude_centre":"47.2267","longitude_centre":"5.5299","distance_km":4.41},{"id":20874,"code_insee":"39141","nom_standard":"Chevigny","nom_a":null,"nom_de":null,"slug_ville":"chevigny","departement_id":0,"code_postal":"39290","population":255,"superficie_km2":"787.26","latitude_centre":"47.1779","longitude_centre":"5.475","distance_km":4.47},{"id":0,"code_insee":"39409","nom_standard":"Peintre","nom_a":null,"nom_de":null,"slug_ville":"peintre","departement_id":0,"code_postal":"39290","population":135,"superficie_km2":"651.76","latitude_centre":"47.1988","longitude_centre":"5.4721","distance_km":4.75},{"id":0,"code_insee":"39432","nom_standard":"Pointre","nom_a":null,"nom_de":null,"slug_ville":"pointre","departement_id":0,"code_postal":"39290","population":127,"superficie_km2":"652.58","latitude_centre":"47.2214","longitude_centre":"5.493","distance_km":4.85},{"id":20820,"code_insee":"39074","nom_standard":"Brans","nom_a":null,"nom_de":null,"slug_ville":"brans","departement_id":0,"code_postal":"39290","population":200,"superficie_km2":"873.28","latitude_centre":"47.2238","longitude_centre":"5.574","distance_km":5.14},{"id":0,"code_insee":"39465","nom_standard":"Romange","nom_a":null,"nom_de":null,"slug_ville":"romange","departement_id":0,"code_postal":"39700","population":204,"superficie_km2":"547.59","latitude_centre":"47.1618","longitude_centre":"5.5954","distance_km":5.52},{"id":0,"code_insee":"39449","nom_standard":"Rainans","nom_a":null,"nom_de":null,"slug_ville":"rainans","departement_id":0,"code_postal":"39290","population":263,"superficie_km2":"371.67","latitude_centre":"47.1574","longitude_centre":"5.4718","distance_km":5.66},{"id":20971,"code_insee":"39270","nom_standard":"Jouhe","nom_a":null,"nom_de":null,"slug_ville":"jouhe","departement_id":0,"code_postal":"39100","population":531,"superficie_km2":"600.49","latitude_centre":"47.1373","longitude_centre":"5.4826","distance_km":6.7},{"id":20786,"code_insee":"39030","nom_standard":"Authume","nom_a":null,"nom_de":null,"slug_ville":"authume","departement_id":0,"code_postal":"39100","population":906,"superficie_km2":"759.57","latitude_centre":"47.1242","longitude_centre":"5.5075","distance_km":7.25},{"id":0,"code_insee":"39462","nom_standard":"Rochefort-sur-Nenon","nom_a":null,"nom_de":null,"slug_ville":"rochefort-sur-nenon","departement_id":0,"code_postal":"39700","population":700,"superficie_km2":"996.52","latitude_centre":"47.1226","longitude_centre":"5.5554","distance_km":7.38},{"id":20910,"code_insee":"39188","nom_standard":"Dammartin-Marpain","nom_a":null,"nom_de":null,"slug_ville":"dammartin-marpain","departement_id":0,"code_postal":"39290","population":340,"superficie_km2":"1133.07","latitude_centre":"47.2535","longitude_centre":"5.5522","distance_km":7.53}]}