{"ville":{"id":31899,"code_insee":"76440","nom_standard":"Molagnies","nom_a":null,"nom_de":null,"slug_ville":"molagnies","departement_id":0,"code_postal":"76220","population":209,"superficie_km2":"462.57","latitude_centre":"49.524","longitude_centre":"1.7256","dep_code":"76","dep_nom":"Seine-Maritime","dep_slug":"seine-maritime","reg_code":"28","reg_nom":"Normandie","reg_slug":"normandie"},"departement":{"code":"76","nom":"Seine-Maritime","slug":"seine-maritime"},"region":{"code":"28","nom":"Normandie","slug":"normandie"},"villes_proches":[{"id":27015,"code_insee":"60594","nom_standard":"Saint-Quentin-des-Prés","nom_a":null,"nom_de":null,"slug_ville":"saint-quentin-des-pres","departement_id":0,"code_postal":"60380","population":285,"superficie_km2":"1085.19","latitude_centre":"49.5192","longitude_centre":"1.7456","distance_km":1.54},{"id":31797,"code_insee":"76297","nom_standard":"Gancourt-Saint-Étienne","nom_a":null,"nom_de":null,"slug_ville":"gancourt-saint-etienne","departement_id":0,"code_postal":"76220","population":231,"superficie_km2":"1260.56","latitude_centre":"49.5465","longitude_centre":"1.7134","distance_km":2.65},{"id":26608,"code_insee":"60049","nom_standard":"Bazancourt","nom_a":null,"nom_de":null,"slug_ville":"bazancourt","departement_id":0,"code_postal":"60380","population":100,"superficie_km2":"319.43","latitude_centre":"49.5505","longitude_centre":"1.7386","distance_km":3.09},{"id":31742,"code_insee":"76208","nom_standard":"Cuy-Saint-Fiacre","nom_a":null,"nom_de":null,"slug_ville":"cuy-saint-fiacre","departement_id":0,"code_postal":"76220","population":625,"superficie_km2":"965.91","latitude_centre":"49.5113","longitude_centre":"1.6865","distance_km":3.16},{"id":26806,"code_insee":"60306","nom_standard":"Hécourt","nom_a":null,"nom_de":null,"slug_ville":"hecourt","departement_id":0,"code_postal":"60380","population":149,"superficie_km2":"750.14","latitude_centre":"49.5225","longitude_centre":"1.7796","distance_km":3.9},{"id":31743,"code_insee":"76209","nom_standard":"Dampierre-en-Bray","nom_a":null,"nom_de":null,"slug_ville":"dampierre-en-bray","departement_id":0,"code_postal":"76220","population":451,"superficie_km2":"1285.19","latitude_centre":"49.5341","longitude_centre":"1.6618","distance_km":4.74},{"id":0,"code_insee":"76260","nom_standard":"Ferrières-en-Bray","nom_a":null,"nom_de":null,"slug_ville":"ferrieres-en-bray","departement_id":0,"code_postal":"76220","population":1669,"superficie_km2":"1585.89","latitude_centre":"49.4863","longitude_centre":"1.758","distance_km":4.8},{"id":31748,"code_insee":"76218","nom_standard":"Doudeauville","nom_a":null,"nom_de":null,"slug_ville":"doudeauville","departement_id":0,"code_postal":"76220","population":115,"superficie_km2":"396.97","latitude_centre":"49.5671","longitude_centre":"1.6978","distance_km":5.2},{"id":0,"code_insee":"76312","nom_standard":"Gournay-en-Bray","nom_a":null,"nom_de":null,"slug_ville":"gournay-en-bray","departement_id":0,"code_postal":"76220","population":5723,"superficie_km2":"1041.48","latitude_centre":"49.4763","longitude_centre":"1.7168","distance_km":5.34},{"id":27086,"code_insee":"60691","nom_standard":"Villers-Vermont","nom_a":null,"nom_de":null,"slug_ville":"villers-vermont","departement_id":0,"code_postal":"60380","population":123,"superficie_km2":"661.00","latitude_centre":"49.5731","longitude_centre":"1.7222","distance_km":5.47},{"id":27037,"code_insee":"60624","nom_standard":"Sully","nom_a":null,"nom_de":null,"slug_ville":"sully","departement_id":0,"code_postal":"60380","population":165,"superficie_km2":"485.52","latitude_centre":"49.5602","longitude_centre":"1.7773","distance_km":5.49},{"id":26754,"code_insee":"60244","nom_standard":"Fontenay-Torcy","nom_a":null,"nom_de":null,"slug_ville":"fontenay-torcy","departement_id":0,"code_postal":"60380","population":143,"superficie_km2":"597.01","latitude_centre":"49.5677","longitude_centre":"1.7665","distance_km":5.69},{"id":31757,"code_insee":"76229","nom_standard":"Elbeuf-en-Bray","nom_a":null,"nom_de":null,"slug_ville":"elbeuf-en-bray","departement_id":0,"code_postal":"76220","population":395,"superficie_km2":"1088.04","latitude_centre":"49.4946","longitude_centre":"1.6582","distance_km":5.86},{"id":31623,"code_insee":"76048","nom_standard":"Avesnes-en-Bray","nom_a":null,"nom_de":null,"slug_ville":"avesnes-en-bray","departement_id":0,"code_postal":"76220","population":280,"superficie_km2":"1187.24","latitude_centre":"49.4737","longitude_centre":"1.6749","distance_km":6.68},{"id":26732,"code_insee":"60217","nom_standard":"Escames","nom_a":null,"nom_de":null,"slug_ville":"escames","departement_id":0,"code_postal":"60380","population":226,"superficie_km2":"1176.37","latitude_centre":"49.5608","longitude_centre":"1.8006","distance_km":6.78},{"id":27083,"code_insee":"60687","nom_standard":"Villers-sur-Auchy","nom_a":null,"nom_de":null,"slug_ville":"villers-sur-auchy","departement_id":0,"code_postal":"60650","population":370,"superficie_km2":"877.25","latitude_centre":"49.4752","longitude_centre":"1.7901","distance_km":7.15},{"id":31830,"code_insee":"76345","nom_standard":"Haussez","nom_a":null,"nom_de":null,"slug_ville":"haussez","departement_id":0,"code_postal":"76440","population":274,"superficie_km2":"1322.62","latitude_centre":"49.5864","longitude_centre":"1.6814","distance_km":7.64},{"id":26812,"code_insee":"60312","nom_standard":"Héricourt-sur-Thérain","nom_a":null,"nom_de":null,"slug_ville":"hericourt-sur-therain","departement_id":0,"code_postal":"60380","population":113,"superficie_km2":"432.53","latitude_centre":"49.5893","longitude_centre":"1.764","distance_km":7.77},{"id":27017,"code_insee":"60596","nom_standard":"Saint-Samson-la-Poterie","nom_a":null,"nom_de":null,"slug_ville":"saint-samson-la-poterie","departement_id":0,"code_postal":"60220","population":225,"superficie_km2":"432.13","latitude_centre":"49.5935","longitude_centre":"1.7413","distance_km":7.81},{"id":31766,"code_insee":"76242","nom_standard":"Ernemont-la-Villette","nom_a":null,"nom_de":null,"slug_ville":"ernemont-la-villette","departement_id":0,"code_postal":"76220","population":218,"superficie_km2":"751.48","latitude_centre":"49.4543","longitude_centre":"1.7111","distance_km":7.82}]}