{"ville":{"id":34870,"code_insee":"89262","nom_standard":"Molosmes","nom_a":null,"nom_de":null,"slug_ville":"molosmes","departement_id":0,"code_postal":"89700","population":155,"superficie_km2":"2461.67","latitude_centre":"47.9021","longitude_centre":"4.0279","dep_code":"89","dep_nom":"Yonne","dep_slug":"yonne","reg_code":"27","reg_nom":"Bourgogne-Franche-Comté","reg_slug":"bourgogne-franche-comte"},"departement":{"code":"89","nom":"Yonne","slug":"yonne"},"region":{"code":"27","nom":"Bourgogne-Franche-Comté","slug":"bourgogne-franche-comte"},"villes_proches":[{"id":34776,"code_insee":"89137","nom_standard":"Dannemoine","nom_a":null,"nom_de":null,"slug_ville":"dannemoine","departement_id":0,"code_postal":"89700","population":452,"superficie_km2":"1025.84","latitude_centre":"47.8978","longitude_centre":"3.9818","distance_km":3.47},{"id":34788,"code_insee":"89153","nom_standard":"Épineuil","nom_a":null,"nom_de":null,"slug_ville":"epineuil","departement_id":0,"code_postal":"89700","population":508,"superficie_km2":"619.60","latitude_centre":"47.8809","longitude_centre":"3.9907","distance_km":3.64},{"id":0,"code_insee":"89355","nom_standard":"Saint-Martin-sur-Armançon","nom_a":null,"nom_de":null,"slug_ville":"saint-martin-sur-armancon","departement_id":0,"code_postal":"89700","population":138,"superficie_km2":"1420.72","latitude_centre":"47.8764","longitude_centre":"4.0667","distance_km":4.07},{"id":34859,"code_insee":"89247","nom_standard":"Mélisey","nom_a":null,"nom_de":null,"slug_ville":"melisey","departement_id":0,"code_postal":"89430","population":223,"superficie_km2":"2225.77","latitude_centre":"47.9217","longitude_centre":"4.0751","distance_km":4.14},{"id":34750,"code_insee":"89098","nom_standard":"Cheney","nom_a":null,"nom_de":null,"slug_ville":"cheney","departement_id":0,"code_postal":"89700","population":235,"superficie_km2":"598.06","latitude_centre":"47.9152","longitude_centre":"3.9591","distance_km":5.33},{"id":12591,"code_insee":"10112","nom_standard":"Coussegrey","nom_a":null,"nom_de":null,"slug_ville":"coussegrey","departement_id":0,"code_postal":"10210","population":180,"superficie_km2":"1592.77","latitude_centre":"47.9511","longitude_centre":"4.0326","distance_km":5.46},{"id":0,"code_insee":"89423","nom_standard":"Tronchoy","nom_a":null,"nom_de":null,"slug_ville":"tronchoy","departement_id":0,"code_postal":"89700","population":119,"superficie_km2":"658.65","latitude_centre":"47.9234","longitude_centre":"3.9497","distance_km":6.29},{"id":0,"code_insee":"89413","nom_standard":"Thorey","nom_a":null,"nom_de":null,"slug_ville":"thorey","departement_id":0,"code_postal":"89430","population":44,"superficie_km2":"698.17","latitude_centre":"47.8983","longitude_centre":"4.114","distance_km":6.43},{"id":12568,"code_insee":"10087","nom_standard":"Chaserey","nom_a":null,"nom_de":null,"slug_ville":"chaserey","departement_id":0,"code_postal":"10210","population":45,"superficie_km2":"692.99","latitude_centre":"47.9534","longitude_centre":"4.0743","distance_km":6.67},{"id":34832,"code_insee":"89211","nom_standard":"Junay","nom_a":null,"nom_de":null,"slug_ville":"junay","departement_id":0,"code_postal":"89700","population":61,"superficie_km2":"362.47","latitude_centre":"47.8802","longitude_centre":"3.9395","distance_km":7.03},{"id":0,"code_insee":"89447","nom_standard":"Vézinnes","nom_a":null,"nom_de":null,"slug_ville":"vezinnes","departement_id":0,"code_postal":"89700","population":158,"superficie_km2":"626.10","latitude_centre":"47.894","longitude_centre":"3.9342","distance_km":7.04},{"id":0,"code_insee":"89407","nom_standard":"Tanlay","nom_a":null,"nom_de":null,"slug_ville":"tanlay","departement_id":0,"code_postal":"89430","population":897,"superficie_km2":"3863.40","latitude_centre":"47.8482","longitude_centre":"4.0831","distance_km":7.27},{"id":0,"code_insee":"89418","nom_standard":"Tonnerre","nom_a":null,"nom_de":null,"slug_ville":"tonnerre","departement_id":0,"code_postal":"89700","population":4261,"superficie_km2":"5859.78","latitude_centre":"47.8403","longitude_centre":"3.9771","distance_km":7.85},{"id":12671,"code_insee":"10196","nom_standard":"Lignières","nom_a":null,"nom_de":null,"slug_ville":"lignieres","departement_id":0,"code_postal":"10130","population":223,"superficie_km2":"2594.17","latitude_centre":"47.9635","longitude_centre":"3.967","distance_km":8.2},{"id":12770,"code_insee":"10309","nom_standard":"Prusy","nom_a":null,"nom_de":null,"slug_ville":"prusy","departement_id":0,"code_postal":"10210","population":84,"superficie_km2":"396.45","latitude_centre":"47.9744","longitude_centre":"4.0529","distance_km":8.25},{"id":12619,"code_insee":"10143","nom_standard":"Étourvy","nom_a":null,"nom_de":null,"slug_ville":"etourvy","departement_id":0,"code_postal":"10210","population":141,"superficie_km2":"1550.39","latitude_centre":"47.9494","longitude_centre":"4.1302","distance_km":9.26},{"id":12528,"code_insee":"10040","nom_standard":"Bernon","nom_a":null,"nom_de":null,"slug_ville":"bernon","departement_id":0,"code_postal":"10130","population":160,"superficie_km2":"1798.93","latitude_centre":"47.9862","longitude_centre":"3.9902","distance_km":9.76},{"id":12578,"code_insee":"10098","nom_standard":"Chesley","nom_a":null,"nom_de":null,"slug_ville":"chesley","departement_id":0,"code_postal":"10210","population":293,"superficie_km2":"2125.64","latitude_centre":"47.9756","longitude_centre":"4.1129","distance_km":10.34},{"id":12836,"code_insee":"10394","nom_standard":"Vallières","nom_a":null,"nom_de":null,"slug_ville":"vallieres","departement_id":0,"code_postal":"10210","population":167,"superficie_km2":"836.62","latitude_centre":"47.9988","longitude_centre":"4.0601","distance_km":11.02},{"id":34842,"code_insee":"89223","nom_standard":"Lézinnes","nom_a":null,"nom_de":null,"slug_ville":"lezinnes","departement_id":0,"code_postal":"89160","population":666,"superficie_km2":"1615.64","latitude_centre":"47.8026","longitude_centre":"4.0638","distance_km":11.38}]}