{"ville":{"id":18937,"code_insee":"31349","nom_standard":"Mondavezan","nom_a":null,"nom_de":null,"slug_ville":"mondavezan","departement_id":0,"code_postal":"31220","population":880,"superficie_km2":"2138.98","latitude_centre":"43.2394","longitude_centre":"1.041","dep_code":"31","dep_nom":"Haute-Garonne","dep_slug":"haute-garonne","reg_code":"76","reg_nom":"Occitanie","reg_slug":"occitanie"},"departement":{"code":"31","nom":"Haute-Garonne","slug":"haute-garonne"},"region":{"code":"76","nom":"Occitanie","slug":"occitanie"},"villes_proches":[{"id":0,"code_insee":"31530","nom_standard":"Sana","nom_a":null,"nom_de":null,"slug_ville":"sana","departement_id":0,"code_postal":"31220","population":236,"superficie_km2":"274.92","latitude_centre":"43.2277","longitude_centre":"1.0115","distance_km":2.72},{"id":18892,"code_insee":"31292","nom_standard":"Lescuns","nom_a":null,"nom_de":null,"slug_ville":"lescuns","departement_id":0,"code_postal":"31220","population":75,"superficie_km2":"303.15","latitude_centre":"43.2448","longitude_centre":"1.006","distance_km":2.9},{"id":18829,"code_insee":"31196","nom_standard":"Francon","nom_a":null,"nom_de":null,"slug_ville":"francon","departement_id":0,"code_postal":"31420","population":236,"superficie_km2":"959.77","latitude_centre":"43.2605","longitude_centre":"0.9884","distance_km":4.86},{"id":0,"code_insee":"31387","nom_standard":"Montoussin","nom_a":null,"nom_de":null,"slug_ville":"montoussin","departement_id":0,"code_postal":"31430","population":126,"superficie_km2":"491.77","latitude_centre":"43.2792","longitude_centre":"1.0101","distance_km":5.08},{"id":0,"code_insee":"31406","nom_standard":"Palaminy","nom_a":null,"nom_de":null,"slug_ville":"palaminy","departement_id":0,"code_postal":"31220","population":751,"superficie_km2":"1128.93","latitude_centre":"43.1948","longitude_centre":"1.059","distance_km":5.17},{"id":0,"code_insee":"31552","nom_standard":"Terrebasse","nom_a":null,"nom_de":null,"slug_ville":"terrebasse","departement_id":0,"code_postal":"31420","population":135,"superficie_km2":"970.28","latitude_centre":"43.2403","longitude_centre":"0.9752","distance_km":5.33},{"id":0,"code_insee":"31324","nom_standard":"Martres-Tolosane","nom_a":null,"nom_de":null,"slug_ville":"martres-tolosane","departement_id":0,"code_postal":"31220","population":2387,"superficie_km2":"2355.15","latitude_centre":"43.2052","longitude_centre":"0.994","distance_km":5.38},{"id":0,"code_insee":"31135","nom_standard":"Cazères","nom_a":null,"nom_de":null,"slug_ville":"cazeres","departement_id":0,"code_postal":"31220","population":4854,"superficie_km2":"1977.41","latitude_centre":"43.2155","longitude_centre":"1.1005","distance_km":5.5},{"id":0,"code_insee":"31193","nom_standard":"Le Fousseret","nom_a":null,"nom_de":null,"slug_ville":"le-fousseret","departement_id":0,"code_postal":"31430","population":1863,"superficie_km2":"3849.99","latitude_centre":"43.2867","longitude_centre":"1.0673","distance_km":5.67},{"id":18919,"code_insee":"31327","nom_standard":"Mauran","nom_a":null,"nom_de":null,"slug_ville":"mauran","departement_id":0,"code_postal":"31220","population":201,"superficie_km2":"525.58","latitude_centre":"43.1857","longitude_centre":"1.0193","distance_km":6.22},{"id":18888,"code_insee":"31286","nom_standard":"Lavelanet-de-Comminges","nom_a":null,"nom_de":null,"slug_ville":"lavelanet-de-comminges","departement_id":0,"code_postal":"31220","population":653,"superficie_km2":"1376.25","latitude_centre":"43.2545","longitude_centre":"1.1149","distance_km":6.22},{"id":18801,"code_insee":"31153","nom_standard":"Couladère","nom_a":null,"nom_de":null,"slug_ville":"couladere","departement_id":0,"code_postal":"31220","population":415,"superficie_km2":"229.38","latitude_centre":"43.1962","longitude_centre":"1.0935","distance_km":6.42},{"id":0,"code_insee":"31370","nom_standard":"Montégut-Bourjac","nom_a":null,"nom_de":null,"slug_ville":"montegut-bourjac","departement_id":0,"code_postal":"31430","population":129,"superficie_km2":"561.96","latitude_centre":"43.283","longitude_centre":"0.9863","distance_km":6.57},{"id":18911,"code_insee":"31318","nom_standard":"Marignac-Laspeyres","nom_a":null,"nom_de":null,"slug_ville":"marignac-laspeyres","departement_id":0,"code_postal":"31220","population":194,"superficie_km2":"1241.52","latitude_centre":"43.2121","longitude_centre":"0.9627","distance_km":7.03},{"id":0,"code_insee":"31367","nom_standard":"Montclar-de-Comminges","nom_a":null,"nom_de":null,"slug_ville":"montclar-de-comminges","departement_id":0,"code_postal":"31220","population":79,"superficie_km2":"634.29","latitude_centre":"43.169","longitude_centre":"1.033","distance_km":7.85},{"id":18772,"code_insee":"31119","nom_standard":"Castelnau-Picampeau","nom_a":null,"nom_de":null,"slug_ville":"castelnau-picampeau","departement_id":0,"code_postal":"31430","population":234,"superficie_km2":"1148.28","latitude_centre":"43.308","longitude_centre":"1.0138","distance_km":7.94},{"id":18835,"code_insee":"31204","nom_standard":"Fustignac","nom_a":null,"nom_de":null,"slug_ville":"fustignac","departement_id":0,"code_postal":"31430","population":70,"superficie_km2":"401.45","latitude_centre":"43.3028","longitude_centre":"0.9844","distance_km":8.41},{"id":0,"code_insee":"31422","nom_standard":"Plagne","nom_a":null,"nom_de":null,"slug_ville":"plagne","departement_id":0,"code_postal":"31220","population":95,"superficie_km2":"422.90","latitude_centre":"43.1591","longitude_centre":"1.0584","distance_km":9.04},{"id":0,"code_insee":"31505","nom_standard":"Saint-Michel","nom_a":null,"nom_de":null,"slug_ville":"saint-michel","departement_id":0,"code_postal":"31220","population":306,"superficie_km2":"1557.05","latitude_centre":"43.1613","longitude_centre":"1.0819","distance_km":9.3},{"id":18714,"code_insee":"31030","nom_standard":"Ausseing","nom_a":null,"nom_de":null,"slug_ville":"ausseing","departement_id":0,"code_postal":"31260","population":91,"superficie_km2":"593.62","latitude_centre":"43.1561","longitude_centre":"1.0284","distance_km":9.32}]}