{"ville":{"id":8221,"code_insee":"77312","nom_standard":"Montigny-sur-Loing","nom_a":null,"nom_de":null,"slug_ville":"montigny-sur-loing","departement_id":678,"code_postal":"77690","population":2621,"superficie_km2":"9.00","latitude_centre":"48.3409996","longitude_centre":"2.7509999","dep_code":"77","dep_nom":"Seine-et-Marne","dep_slug":"seine-et-marne","reg_code":"10","reg_nom":"Île-de-France","reg_slug":"ile-de-france"},"departement":{"code":"77","nom":"Seine-et-Marne","slug":"seine-et-marne"},"region":{"code":"10","nom":"Île-de-France","slug":"ile-de-france"},"villes_proches":[{"id":8101,"code_insee":"77048","nom_standard":"Bourron-Marlotte","nom_a":null,"nom_de":null,"slug_ville":"bourron-marlotte","departement_id":678,"code_postal":"77780","population":2762,"superficie_km2":"11.00","latitude_centre":"48.3349991","longitude_centre":"2.7019999","distance_km":3.68},{"id":8223,"code_insee":"77316","nom_standard":"Moret-Loing-et-Orvanne","nom_a":null,"nom_de":null,"slug_ville":"moret-loing-et-orvanne","departement_id":678,"code_postal":"77250","population":12581,"superficie_km2":"5.00","latitude_centre":"48.3650017","longitude_centre":"2.8120000","distance_km":5.24},{"id":8216,"code_insee":"77302","nom_standard":"Montcourt-Fromonville","nom_a":null,"nom_de":null,"slug_ville":"montcourt-fromonville","departement_id":678,"code_postal":"77140","population":1925,"superficie_km2":"8.00","latitude_centre":"48.2989998","longitude_centre":"2.7119999","distance_km":5.49},{"id":8178,"code_insee":"77216","nom_standard":"Grez-sur-Loing","nom_a":null,"nom_de":null,"slug_ville":"grez-sur-loing","departement_id":678,"code_postal":"77880","population":1436,"superficie_km2":"13.00","latitude_centre":"48.3069992","longitude_centre":"2.6770000","distance_km":6.65},{"id":8268,"code_insee":"77419","nom_standard":"Saint-Mammès","nom_a":null,"nom_de":null,"slug_ville":"saint-mammes","departement_id":678,"code_postal":"77670","population":3302,"superficie_km2":"2.00","latitude_centre":"48.3870010","longitude_centre":"2.8190000","distance_km":7.17},{"id":8289,"code_insee":"77463","nom_standard":"Thomery","nom_a":null,"nom_de":null,"slug_ville":"thomery","departement_id":678,"code_postal":"77810","population":3411,"superficie_km2":"4.00","latitude_centre":"48.4039993","longitude_centre":"2.7800000","distance_km":7.33},{"id":8091,"code_insee":"77014","nom_standard":"Avon","nom_a":null,"nom_de":null,"slug_ville":"avon","departement_id":678,"code_postal":"77210","population":13660,"superficie_km2":"4.00","latitude_centre":"48.4129982","longitude_centre":"2.7340000","distance_km":8.1},{"id":8115,"code_insee":"77079","nom_standard":"Champagne-sur-Seine","nom_a":null,"nom_de":null,"slug_ville":"champagne-sur-seine","departement_id":678,"code_postal":"77430","population":6356,"superficie_km2":"7.00","latitude_centre":"48.4090004","longitude_centre":"2.8080001","distance_km":8.65},{"id":8279,"code_insee":"77442","nom_standard":"Samoreau","nom_a":null,"nom_de":null,"slug_ville":"samoreau","departement_id":678,"code_postal":"77210","population":2426,"superficie_km2":"6.00","latitude_centre":"48.4199982","longitude_centre":"2.7700000","distance_km":8.9},{"id":8167,"code_insee":"77186","nom_standard":"Fontainebleau","nom_a":null,"nom_de":null,"slug_ville":"fontainebleau","departement_id":678,"code_postal":"77300","population":15945,"superficie_km2":"172.00","latitude_centre":"48.4070015","longitude_centre":"2.6800001","distance_km":9.02},{"id":8232,"code_insee":"77333","nom_standard":"Nemours","nom_a":null,"nom_de":null,"slug_ville":"nemours","departement_id":678,"code_postal":"77140","population":13189,"superficie_km2":"10.00","latitude_centre":"48.2599983","longitude_centre":"2.7110000","distance_km":9.48},{"id":8316,"code_insee":"77533","nom_standard":"Vulaines-sur-Seine","nom_a":null,"nom_de":null,"slug_ville":"vulaines-sur-seine","departement_id":678,"code_postal":"77870","population":2731,"superficie_km2":"4.00","latitude_centre":"48.4319992","longitude_centre":"2.7690001","distance_km":10.21},{"id":8302,"code_insee":"77494","nom_standard":"Vernou-la-Celle-sur-Seine","nom_a":null,"nom_de":null,"slug_ville":"vernou-la-celle-sur-seine","departement_id":678,"code_postal":"77670","population":2606,"superficie_km2":"22.00","latitude_centre":"48.4059982","longitude_centre":"2.8540001","distance_km":10.49},{"id":8271,"code_insee":"77431","nom_standard":"Saint-Pierre-lès-Nemours","nom_a":null,"nom_de":null,"slug_ville":"saint-pierre-les-nemours","departement_id":678,"code_postal":"77140","population":5416,"superficie_km2":"22.00","latitude_centre":"48.2649994","longitude_centre":"2.6659999","distance_km":10.53},{"id":8304,"code_insee":"77504","nom_standard":"Villemaréchal","nom_a":null,"nom_de":null,"slug_ville":"villemarechal","departement_id":678,"code_postal":"77710","population":1082,"superficie_km2":"14.00","latitude_centre":"48.2719994","longitude_centre":"2.8680000","distance_km":11.56},{"id":8183,"code_insee":"77226","nom_standard":"Héricy","nom_a":null,"nom_de":null,"slug_ville":"hericy","departement_id":678,"code_postal":"77850","population":2511,"superficie_km2":"11.00","latitude_centre":"48.4420013","longitude_centre":"2.7890000","distance_km":11.58},{"id":8175,"code_insee":"77210","nom_standard":"La Grande-Paroisse","nom_a":null,"nom_de":null,"slug_ville":"la-grande-paroisse","departement_id":678,"code_postal":"77130","population":2873,"superficie_km2":"29.00","latitude_centre":"48.3919983","longitude_centre":"2.8980000","distance_km":12.25},{"id":8278,"code_insee":"77441","nom_standard":"Samois-sur-Seine","nom_a":null,"nom_de":null,"slug_ville":"samois-sur-seine","departement_id":678,"code_postal":"77920","population":2010,"superficie_km2":"6.00","latitude_centre":"48.4550018","longitude_centre":"2.7530000","distance_km":12.68},{"id":8092,"code_insee":"77016","nom_standard":"Bagneaux-sur-Loing","nom_a":null,"nom_de":null,"slug_ville":"bagneaux-sur-loing","departement_id":678,"code_postal":"77167","population":1595,"superficie_km2":"5.00","latitude_centre":"48.2229996","longitude_centre":"2.7079999","distance_km":13.5},{"id":8298,"code_insee":"77482","nom_standard":"Varennes-sur-Seine","nom_a":null,"nom_de":null,"slug_ville":"varennes-sur-seine","departement_id":678,"code_postal":"77130","population":3688,"superficie_km2":"10.00","latitude_centre":"48.3680000","longitude_centre":"2.9300001","distance_km":13.56}]}