{"ville":{"id":17969,"code_insee":"28259","nom_standard":"Montboissier","nom_a":null,"nom_de":null,"slug_ville":"montboissier","departement_id":0,"code_postal":"28800","population":341,"superficie_km2":"1417.20","latitude_centre":"48.2292","longitude_centre":"1.412","dep_code":"28","dep_nom":"Eure-et-Loir","dep_slug":"eure-et-loir","reg_code":"24","reg_nom":"Centre-Val de Loire","reg_slug":"centre-val-de-loire"},"departement":{"code":"28","nom":"Eure-et-Loir","slug":"eure-et-loir"},"region":{"code":"24","nom":"Centre-Val de Loire","slug":"centre-val-de-loire"},"villes_proches":[{"id":0,"code_insee":"28270","nom_standard":"Moriers","nom_a":null,"nom_de":null,"slug_ville":"moriers","departement_id":0,"code_postal":"28800","population":223,"superficie_km2":"908.00","latitude_centre":"48.2191","longitude_centre":"1.4408","distance_km":2.41},{"id":17807,"code_insee":"28005","nom_standard":"Alluyes","nom_a":null,"nom_de":null,"slug_ville":"alluyes","departement_id":0,"code_postal":"28800","population":756,"superficie_km2":"1981.39","latitude_centre":"48.2251","longitude_centre":"1.3666","distance_km":3.39},{"id":17838,"code_insee":"28057","nom_standard":"Bouville","nom_a":null,"nom_de":null,"slug_ville":"bouville","departement_id":0,"code_postal":"28800","population":530,"superficie_km2":"1568.60","latitude_centre":"48.2631","longitude_centre":"1.3804","distance_km":4.44},{"id":0,"code_insee":"28306","nom_standard":"Pré-Saint-Martin","nom_a":null,"nom_de":null,"slug_ville":"pre-saint-martin","departement_id":0,"code_postal":"28800","population":174,"superficie_km2":"729.27","latitude_centre":"48.2222","longitude_centre":"1.4715","distance_km":4.48},{"id":0,"code_insee":"28419","nom_standard":"Vitray-en-Beauce","nom_a":null,"nom_de":null,"slug_ville":"vitray-en-beauce","departement_id":0,"code_postal":"28360","population":346,"superficie_km2":"1093.13","latitude_centre":"48.2759","longitude_centre":"1.4181","distance_km":5.21},{"id":17914,"code_insee":"28176","nom_standard":"Le Gault-Saint-Denis","nom_a":null,"nom_de":null,"slug_ville":"le-gault-saint-denis","departement_id":0,"code_postal":"28800","population":666,"superficie_km2":"2373.53","latitude_centre":"48.2413","longitude_centre":"1.4808","distance_km":5.27},{"id":0,"code_insee":"28305","nom_standard":"Pré-Saint-Évroult","nom_a":null,"nom_de":null,"slug_ville":"pre-saint-evroult","departement_id":0,"code_postal":"28800","population":283,"superficie_km2":"2160.62","latitude_centre":"48.1885","longitude_centre":"1.4526","distance_km":5.43},{"id":0,"code_insee":"28051","nom_standard":"Bonneval","nom_a":null,"nom_de":null,"slug_ville":"bonneval","departement_id":0,"code_postal":"28800","population":4868,"superficie_km2":"2884.67","latitude_centre":"48.1787","longitude_centre":"1.3844","distance_km":5.98},{"id":0,"code_insee":"28396","nom_standard":"Trizay-lès-Bonneval","nom_a":null,"nom_de":null,"slug_ville":"trizay-les-bonneval","departement_id":0,"code_postal":"28800","population":323,"superficie_km2":"990.45","latitude_centre":"48.1993","longitude_centre":"1.3336","distance_km":6.69},{"id":17960,"code_insee":"28246","nom_standard":"Meslay-le-Vidame","nom_a":null,"nom_de":null,"slug_ville":"meslay-le-vidame","departement_id":0,"code_postal":"28360","population":508,"superficie_km2":"1485.00","latitude_centre":"48.2757","longitude_centre":"1.4824","distance_km":7.34},{"id":0,"code_insee":"28370","nom_standard":"Saumeray","nom_a":null,"nom_de":null,"slug_ville":"saumeray","departement_id":0,"code_postal":"28800","population":465,"superficie_km2":"1951.15","latitude_centre":"48.2552","longitude_centre":"1.3169","distance_km":7.61},{"id":17946,"code_insee":"28222","nom_standard":"Luplanté","nom_a":null,"nom_de":null,"slug_ville":"luplante","departement_id":0,"code_postal":"28360","population":384,"superficie_km2":"1669.84","latitude_centre":"48.2987","longitude_centre":"1.385","distance_km":7.98},{"id":17889,"code_insee":"28142","nom_standard":"Ermenonville-la-Petite","nom_a":null,"nom_de":null,"slug_ville":"ermenonville-la-petite","departement_id":0,"code_postal":"28120","population":192,"superficie_km2":"512.93","latitude_centre":"48.29","longitude_centre":"1.3448","distance_km":8.39},{"id":0,"code_insee":"28353","nom_standard":"Saint-Maur-sur-le-Loir","nom_a":null,"nom_de":null,"slug_ville":"saint-maur-sur-le-loir","departement_id":0,"code_postal":"28800","population":411,"superficie_km2":"1669.05","latitude_centre":"48.152","longitude_centre":"1.4184","distance_km":8.6},{"id":0,"code_insee":"28260","nom_standard":"Montharville","nom_a":null,"nom_de":null,"slug_ville":"montharville","departement_id":0,"code_postal":"28800","population":105,"superficie_km2":"646.93","latitude_centre":"48.1771","longitude_centre":"1.326","distance_km":8.61},{"id":17854,"code_insee":"28081","nom_standard":"Charonville","nom_a":null,"nom_de":null,"slug_ville":"charonville","departement_id":0,"code_postal":"28120","population":293,"superficie_km2":"971.88","latitude_centre":"48.2796","longitude_centre":"1.3145","distance_km":9.14},{"id":17880,"code_insee":"28126","nom_standard":"Dancy","nom_a":null,"nom_de":null,"slug_ville":"dancy","departement_id":0,"code_postal":"28800","population":202,"superficie_km2":"990.74","latitude_centre":"48.1526","longitude_centre":"1.464","distance_km":9.35},{"id":17904,"code_insee":"28162","nom_standard":"Fresnay-le-Comte","nom_a":null,"nom_de":null,"slug_ville":"fresnay-le-comte","departement_id":0,"code_postal":"28360","population":281,"superficie_km2":"832.21","latitude_centre":"48.3046","longitude_centre":"1.4833","distance_km":9.91},{"id":17831,"code_insee":"28048","nom_standard":"La Bourdinière-Saint-Loup","nom_a":null,"nom_de":null,"slug_ville":"la-bourdiniere-saint-loup","departement_id":0,"code_postal":"28360","population":741,"superficie_km2":"2032.38","latitude_centre":"48.3183","longitude_centre":"1.4272","distance_km":9.97},{"id":0,"code_insee":"28329","nom_standard":"Saint-Christophe","nom_a":null,"nom_de":null,"slug_ville":"saint-christophe","departement_id":0,"code_postal":"28200","population":143,"superficie_km2":"615.47","latitude_centre":"48.133","longitude_centre":"1.3709","distance_km":11.12}]}