{"ville":{"id":28225,"code_insee":"63235","nom_standard":"Montcel","nom_a":null,"nom_de":null,"slug_ville":"montcel","departement_id":0,"code_postal":"63460","population":550,"superficie_km2":"947.42","latitude_centre":"46.0147","longitude_centre":"3.0608","dep_code":"63","dep_nom":"Puy-de-Dôme","dep_slug":"puy-de-dome","reg_code":"84","reg_nom":"Auvergne-Rhône-Alpes","reg_slug":"auvergne-rhone-alpes"},"departement":{"code":"63","nom":"Puy-de-Dôme","slug":"puy-de-dome"},"region":{"code":"84","nom":"Auvergne-Rhône-Alpes","slug":"auvergne-rhone-alpes"},"villes_proches":[{"id":28190,"code_insee":"63181","nom_standard":"Jozerand","nom_a":null,"nom_de":null,"slug_ville":"jozerand","departement_id":0,"code_postal":"63460","population":553,"superficie_km2":"1086.84","latitude_centre":"46.0229","longitude_centre":"3.0976","distance_km":2.98},{"id":0,"code_insee":"63116","nom_standard":"Combronde","nom_a":null,"nom_de":null,"slug_ville":"combronde","departement_id":0,"code_postal":"63460","population":2138,"superficie_km2":"1800.25","latitude_centre":"45.9881","longitude_centre":"3.0819","distance_km":3.38},{"id":0,"code_insee":"63358","nom_standard":"Saint-Hilaire-la-Croix","nom_a":null,"nom_de":null,"slug_ville":"saint-hilaire-la-croix","departement_id":0,"code_postal":"63440","population":374,"superficie_km2":"1615.33","latitude_centre":"46.0422","longitude_centre":"3.0402","distance_km":3.45},{"id":0,"code_insee":"63093","nom_standard":"Charbonnières-les-Vieilles","nom_a":null,"nom_de":null,"slug_ville":"charbonnieres-les-vieilles","departement_id":0,"code_postal":"63410","population":1170,"superficie_km2":"3281.86","latitude_centre":"45.9896","longitude_centre":"3.0131","distance_km":4.62},{"id":28118,"code_insee":"63082","nom_standard":"Champs","nom_a":null,"nom_de":null,"slug_ville":"champs","departement_id":0,"code_postal":"63440","population":441,"superficie_km2":"1517.41","latitude_centre":"46.0601","longitude_centre":"3.0973","distance_km":5.78},{"id":0,"code_insee":"63427","nom_standard":"Teilhède","nom_a":null,"nom_de":null,"slug_ville":"teilhede","departement_id":0,"code_postal":"63460","population":536,"superficie_km2":"1203.39","latitude_centre":"45.9625","longitude_centre":"3.0533","distance_km":5.83},{"id":0,"code_insee":"63379","nom_standard":"Saint-Myon","nom_a":null,"nom_de":null,"slug_ville":"saint-myon","departement_id":0,"code_postal":"63460","population":544,"superficie_km2":"555.76","latitude_centre":"45.9858","longitude_centre":"3.1282","distance_km":6.12},{"id":0,"code_insee":"63311","nom_standard":"Saint-Agoulin","nom_a":null,"nom_de":null,"slug_ville":"saint-agoulin","departement_id":0,"code_postal":"63260","population":310,"superficie_km2":"936.40","latitude_centre":"46.0414","longitude_centre":"3.1306","distance_km":6.15},{"id":0,"code_insee":"63382","nom_standard":"Saint-Pardoux","nom_a":null,"nom_de":null,"slug_ville":"saint-pardoux","departement_id":0,"code_postal":"63440","population":428,"superficie_km2":"1600.35","latitude_centre":"46.0574","longitude_centre":"3.003","distance_km":6.52},{"id":0,"code_insee":"63035","nom_standard":"Beauregard-Vendon","nom_a":null,"nom_de":null,"slug_ville":"beauregard-vendon","departement_id":0,"code_postal":"63460","population":1328,"superficie_km2":"730.05","latitude_centre":"45.9657","longitude_centre":"3.1108","distance_km":6.68},{"id":28071,"code_insee":"63012","nom_standard":"Artonne","nom_a":null,"nom_de":null,"slug_ville":"artonne","departement_id":0,"code_postal":"63460","population":912,"superficie_km2":"1766.18","latitude_centre":"46.0061","longitude_centre":"3.1489","distance_km":6.87},{"id":28210,"code_insee":"63208","nom_standard":"Marcillat","nom_a":null,"nom_de":null,"slug_ville":"marcillat","departement_id":0,"code_postal":"63440","population":340,"superficie_km2":"1172.20","latitude_centre":"46.0768","longitude_centre":"3.0364","distance_km":7.16},{"id":0,"code_insee":"63288","nom_standard":"Prompsat","nom_a":null,"nom_de":null,"slug_ville":"prompsat","departement_id":0,"code_postal":"63200","population":472,"superficie_km2":"422.94","latitude_centre":"45.9459","longitude_centre":"3.0684","distance_km":7.67},{"id":28179,"code_insee":"63167","nom_standard":"Gimeaux","nom_a":null,"nom_de":null,"slug_ville":"gimeaux","departement_id":0,"code_postal":"63200","population":383,"superficie_km2":"219.41","latitude_centre":"45.9488","longitude_centre":"3.0983","distance_km":7.88},{"id":0,"code_insee":"63390","nom_standard":"Saint-Quintin-sur-Sioule","nom_a":null,"nom_de":null,"slug_ville":"saint-quintin-sur-sioule","departement_id":0,"code_postal":"63440","population":387,"superficie_km2":"1432.82","latitude_centre":"46.0916","longitude_centre":"3.0632","distance_km":8.55},{"id":28153,"code_insee":"63135","nom_standard":"Davayat","nom_a":null,"nom_de":null,"slug_ville":"davayat","departement_id":0,"code_postal":"63200","population":666,"superficie_km2":"234.13","latitude_centre":"45.9468","longitude_centre":"3.1143","distance_km":8.61},{"id":0,"code_insee":"63473","nom_standard":"Yssac-la-Tourette","nom_a":null,"nom_de":null,"slug_ville":"yssac-la-tourette","departement_id":0,"code_postal":"63200","population":396,"superficie_km2":"214.99","latitude_centre":"45.9316","longitude_centre":"3.0911","distance_km":9.53},{"id":0,"code_insee":"63198","nom_standard":"Loubeyrat","nom_a":null,"nom_de":null,"slug_ville":"loubeyrat","departement_id":0,"code_postal":"63410","population":1437,"superficie_km2":"2425.88","latitude_centre":"45.9381","longitude_centre":"3.0042","distance_km":9.57},{"id":0,"code_insee":"63103","nom_standard":"Châtel-Guyon","nom_a":null,"nom_de":null,"slug_ville":"chatel-guyon","departement_id":0,"code_postal":"63140","population":6299,"superficie_km2":"1409.31","latitude_centre":"45.9212","longitude_centre":"3.0634","distance_km":10.4},{"id":0,"code_insee":"03107","nom_standard":"Ébreuil","nom_a":null,"nom_de":null,"slug_ville":"ebreuil","departement_id":0,"code_postal":"03450","population":1306,"superficie_km2":"2313.74","latitude_centre":"46.1121","longitude_centre":"3.074","distance_km":10.88}]}