{"ville":{"id":17975,"code_insee":"28267","nom_standard":"Montreuil","nom_a":null,"nom_de":null,"slug_ville":"montreuil","departement_id":0,"code_postal":"28500","population":538,"superficie_km2":"628.17","latitude_centre":"48.7791","longitude_centre":"1.3807","dep_code":"28","dep_nom":"Eure-et-Loir","dep_slug":"eure-et-loir","reg_code":"24","reg_nom":"Centre-Val de Loire","reg_slug":"centre-val-de-loire"},"departement":{"code":"28","nom":"Eure-et-Loir","slug":"eure-et-loir"},"region":{"code":"24","nom":"Centre-Val de Loire","slug":"centre-val-de-loire"},"villes_proches":[{"id":17697,"code_insee":"27543","nom_standard":"Saint-Georges-Motel","nom_a":null,"nom_de":null,"slug_ville":"saint-georges-motel","departement_id":0,"code_postal":"27710","population":880,"superficie_km2":"497.75","latitude_centre":"48.7926","longitude_centre":"1.3557","distance_km":2.37},{"id":0,"code_insee":"28001","nom_standard":"Abondant","nom_a":null,"nom_de":null,"slug_ville":"abondant","departement_id":0,"code_postal":"28410","population":2434,"superficie_km2":"3509.82","latitude_centre":"48.7983","longitude_centre":"1.4236","distance_km":3.8},{"id":0,"code_insee":"28134","nom_standard":"Dreux","nom_a":null,"nom_de":null,"slug_ville":"dreux","departement_id":0,"code_postal":"28100","population":31543,"superficie_km2":"2423.79","latitude_centre":"48.7482","longitude_centre":"1.3578","distance_km":3.82},{"id":17618,"code_insee":"27423","nom_standard":"Muzy","nom_a":null,"nom_de":null,"slug_ville":"muzy","departement_id":0,"code_postal":"27650","population":768,"superficie_km2":"908.84","latitude_centre":"48.7764","longitude_centre":"1.3245","distance_km":4.13},{"id":17583,"code_insee":"27376","nom_standard":"Louye","nom_a":null,"nom_de":null,"slug_ville":"louye","departement_id":0,"code_postal":"27650","population":210,"superficie_km2":"524.99","latitude_centre":"48.7964","longitude_centre":"1.3223","distance_km":4.69},{"id":0,"code_insee":"28098","nom_standard":"Cherisy","nom_a":null,"nom_de":null,"slug_ville":"cherisy","departement_id":0,"code_postal":"28500","population":1842,"superficie_km2":"1244.66","latitude_centre":"48.7573","longitude_centre":"1.4359","distance_km":4.72},{"id":0,"code_insee":"28377","nom_standard":"Sorel-Moussel","nom_a":null,"nom_de":null,"slug_ville":"sorel-moussel","departement_id":0,"code_postal":"28260","population":1758,"superficie_km2":"1299.14","latitude_centre":"48.8255","longitude_centre":"1.3989","distance_km":5.33},{"id":0,"code_insee":"28332","nom_standard":"Sainte-Gemme-Moronval","nom_a":null,"nom_de":null,"slug_ville":"sainte-gemme-moronval","departement_id":0,"code_postal":"28500","population":1114,"superficie_km2":"553.68","latitude_centre":"48.7357","longitude_centre":"1.416","distance_km":5.48},{"id":0,"code_insee":"27391","nom_standard":"Marcilly-sur-Eure","nom_a":null,"nom_de":null,"slug_ville":"marcilly-sur-eure","departement_id":0,"code_postal":"27810","population":1607,"superficie_km2":"1552.07","latitude_centre":"48.8213","longitude_centre":"1.3335","distance_km":5.83},{"id":17604,"code_insee":"27406","nom_standard":"Mesnil-sur-l'Estrée","nom_a":null,"nom_de":null,"slug_ville":"mesnil-sur-l-estree","departement_id":0,"code_postal":"27650","population":942,"superficie_km2":"582.93","latitude_centre":"48.7785","longitude_centre":"1.2923","distance_km":6.48},{"id":0,"code_insee":"28405","nom_standard":"Vert-en-Drouais","nom_a":null,"nom_de":null,"slug_ville":"vert-en-drouais","departement_id":0,"code_postal":"28500","population":1123,"superficie_km2":"973.00","latitude_centre":"48.7499","longitude_centre":"1.2924","distance_km":7.24},{"id":0,"code_insee":"28223","nom_standard":"Luray","nom_a":null,"nom_de":null,"slug_ville":"luray","departement_id":0,"code_postal":"28500","population":1566,"superficie_km2":"453.36","latitude_centre":"48.7144","longitude_centre":"1.3985","distance_km":7.31},{"id":0,"code_insee":"28251","nom_standard":"Mézières-en-Drouais","nom_a":null,"nom_de":null,"slug_ville":"mezieres-en-drouais","departement_id":0,"code_postal":"28500","population":1059,"superficie_km2":"850.82","latitude_centre":"48.7257","longitude_centre":"1.4419","distance_km":7.44},{"id":0,"code_insee":"28404","nom_standard":"Vernouillet","nom_a":null,"nom_de":null,"slug_ville":"vernouillet","departement_id":0,"code_postal":"28500","population":12310,"superficie_km2":"1225.96","latitude_centre":"48.7141","longitude_centre":"1.352","distance_km":7.53},{"id":0,"code_insee":"27193","nom_standard":"Croth","nom_a":null,"nom_de":null,"slug_ville":"croth","departement_id":0,"code_postal":"27530","population":1416,"superficie_km2":"1051.46","latitude_centre":"48.8509","longitude_centre":"1.3669","distance_km":8.05},{"id":0,"code_insee":"28371","nom_standard":"Saussay","nom_a":null,"nom_de":null,"slug_ville":"saussay","departement_id":0,"code_postal":"28260","population":1080,"superficie_km2":"470.04","latitude_centre":"48.8503","longitude_centre":"1.4102","distance_km":8.21},{"id":17885,"code_insee":"28136","nom_standard":"Écluzelles","nom_a":null,"nom_de":null,"slug_ville":"ecluzelles","departement_id":0,"code_postal":"28500","population":162,"superficie_km2":"326.48","latitude_centre":"48.7088","longitude_centre":"1.4218","distance_km":8.38},{"id":17705,"code_insee":"27555","nom_standard":"Saint-Laurent-des-Bois","nom_a":null,"nom_de":null,"slug_ville":"saint-laurent-des-bois","departement_id":0,"code_postal":"27220","population":243,"superficie_km2":"328.94","latitude_centre":"48.8464","longitude_centre":"1.3196","distance_km":8.72},{"id":0,"code_insee":"27073","nom_standard":"Bois-le-Roi","nom_a":null,"nom_de":null,"slug_ville":"bois-le-roi","departement_id":0,"code_postal":"27220","population":1238,"superficie_km2":"546.60","latitude_centre":"48.8605","longitude_centre":"1.3442","distance_km":9.44},{"id":17911,"code_insee":"28171","nom_standard":"Garnay","nom_a":null,"nom_de":null,"slug_ville":"garnay","departement_id":0,"code_postal":"28500","population":1019,"superficie_km2":"1436.59","latitude_centre":"48.6983","longitude_centre":"1.3371","distance_km":9.54}]}