{"ville":{"id":15551,"code_insee":"21426","nom_standard":"Montberthault","nom_a":null,"nom_de":null,"slug_ville":"montberthault","departement_id":0,"code_postal":"21460","population":226,"superficie_km2":"1213.79","latitude_centre":"47.4573","longitude_centre":"4.1598","dep_code":"21","dep_nom":"Côte-d'Or","dep_slug":"cote-d-or","reg_code":"27","reg_nom":"Bourgogne-Franche-Comté","reg_slug":"bourgogne-franche-comte"},"departement":{"code":"21","nom":"Côte-d'Or","slug":"cote-d-or"},"region":{"code":"27","nom":"Bourgogne-Franche-Comté","slug":"bourgogne-franche-comte"},"villes_proches":[{"id":0,"code_insee":"21681","nom_standard":"Vieux-Château","nom_a":null,"nom_de":null,"slug_ville":"vieux-chateau","departement_id":0,"code_postal":"21460","population":107,"superficie_km2":"645.55","latitude_centre":"47.4668","longitude_centre":"4.1401","distance_km":1.82},{"id":15354,"code_insee":"21203","nom_standard":"Courcelles-Frémoy","nom_a":null,"nom_de":null,"slug_ville":"courcelles-fremoy","departement_id":0,"code_postal":"21460","population":148,"superficie_km2":"1143.78","latitude_centre":"47.4488","longitude_centre":"4.1884","distance_km":2.35},{"id":0,"code_insee":"21608","nom_standard":"Sincey-lès-Rouvray","nom_a":null,"nom_de":null,"slug_ville":"sincey-les-rouvray","departement_id":0,"code_postal":"21530","population":103,"superficie_km2":"875.49","latitude_centre":"47.4338","longitude_centre":"4.1294","distance_km":3.47},{"id":15425,"code_insee":"21282","nom_standard":"Forléans","nom_a":null,"nom_de":null,"slug_ville":"forleans","departement_id":0,"code_postal":"21460","population":112,"superficie_km2":"714.53","latitude_centre":"47.4702","longitude_centre":"4.2051","distance_km":3.7},{"id":0,"code_insee":"89377","nom_standard":"Sauvigny-le-Beuréal","nom_a":null,"nom_de":null,"slug_ville":"sauvigny-le-beureal","departement_id":0,"code_postal":"89420","population":67,"superficie_km2":"478.45","latitude_centre":"47.4787","longitude_centre":"4.1086","distance_km":4.52},{"id":0,"code_insee":"21531","nom_standard":"Rouvray","nom_a":null,"nom_de":null,"slug_ville":"rouvray","departement_id":0,"code_postal":"21530","population":505,"superficie_km2":"942.87","latitude_centre":"47.4196","longitude_centre":"4.1128","distance_km":5.48},{"id":0,"code_insee":"21642","nom_standard":"Toutry","nom_a":null,"nom_de":null,"slug_ville":"toutry","departement_id":0,"code_postal":"21460","population":402,"superficie_km2":"641.32","latitude_centre":"47.5022","longitude_centre":"4.1287","distance_km":5.51},{"id":15393,"code_insee":"21247","nom_standard":"Époisses","nom_a":null,"nom_de":null,"slug_ville":"epoisses","departement_id":0,"code_postal":"21460","population":715,"superficie_km2":"2170.81","latitude_centre":"47.506","longitude_centre":"4.1762","distance_km":5.55},{"id":0,"code_insee":"21635","nom_standard":"Thoste","nom_a":null,"nom_de":null,"slug_ville":"thoste","departement_id":0,"code_postal":"21460","population":104,"superficie_km2":"1113.59","latitude_centre":"47.4385","longitude_centre":"4.2298","distance_km":5.66},{"id":0,"code_insee":"89351","nom_standard":"Sainte-Magnance","nom_a":null,"nom_de":null,"slug_ville":"sainte-magnance","departement_id":0,"code_postal":"89420","population":477,"superficie_km2":"1944.26","latitude_centre":"47.4542","longitude_centre":"4.079","distance_km":6.08},{"id":0,"code_insee":"89379","nom_standard":"Savigny-en-Terre-Plaine","nom_a":null,"nom_de":null,"slug_ville":"savigny-en-terre-plaine","departement_id":0,"code_postal":"89420","population":137,"superficie_km2":"887.29","latitude_centre":"47.4903","longitude_centre":"4.0857","distance_km":6.67},{"id":0,"code_insee":"21640","nom_standard":"Torcy-et-Pouligny","nom_a":null,"nom_de":null,"slug_ville":"torcy-et-pouligny","departement_id":0,"code_postal":"21460","population":202,"superficie_km2":"1033.39","latitude_centre":"47.498","longitude_centre":"4.2383","distance_km":7.44},{"id":15350,"code_insee":"21198","nom_standard":"Corrombles","nom_a":null,"nom_de":null,"slug_ville":"corrombles","departement_id":0,"code_postal":"21460","population":241,"superficie_km2":"1145.60","latitude_centre":"47.5192","longitude_centre":"4.2024","distance_km":7.59},{"id":0,"code_insee":"89333","nom_standard":"Saint-André-en-Terre-Plaine","nom_a":null,"nom_de":null,"slug_ville":"saint-andre-en-terre-plaine","departement_id":0,"code_postal":"89420","population":164,"superficie_km2":"1429.69","latitude_centre":"47.4836","longitude_centre":"4.0582","distance_km":8.18},{"id":0,"code_insee":"21538","nom_standard":"Saint-Andeux","nom_a":null,"nom_de":null,"slug_ville":"saint-andeux","departement_id":0,"code_postal":"21530","population":115,"superficie_km2":"1185.85","latitude_centre":"47.3957","longitude_centre":"4.0924","distance_km":8.52},{"id":15378,"code_insee":"21232","nom_standard":"Dompierre-en-Morvan","nom_a":null,"nom_de":null,"slug_ville":"dompierre-en-morvan","departement_id":0,"code_postal":"21390","population":201,"superficie_km2":"1532.80","latitude_centre":"47.3999","longitude_centre":"4.2348","distance_km":8.52},{"id":0,"code_insee":"21525","nom_standard":"La Roche-en-Brenil","nom_a":null,"nom_de":null,"slug_ville":"la-roche-en-brenil","departement_id":0,"code_postal":"21530","population":911,"superficie_km2":"5156.26","latitude_centre":"47.3762","longitude_centre":"4.1728","distance_km":9.07},{"id":15211,"code_insee":"21047","nom_standard":"Bard-lès-Époisses","nom_a":null,"nom_de":null,"slug_ville":"bard-les-epoisses","departement_id":0,"code_postal":"21460","population":72,"superficie_km2":"358.26","latitude_centre":"47.5291","longitude_centre":"4.2252","distance_km":9.37},{"id":0,"code_insee":"21548","nom_standard":"Saint-Germain-de-Modéon","nom_a":null,"nom_de":null,"slug_ville":"saint-germain-de-modeon","departement_id":0,"code_postal":"21530","population":174,"superficie_km2":"1658.95","latitude_centre":"47.3711","longitude_centre":"4.1253","distance_km":9.93},{"id":15351,"code_insee":"21199","nom_standard":"Corsaint","nom_a":null,"nom_de":null,"slug_ville":"corsaint","departement_id":0,"code_postal":"21460","population":129,"superficie_km2":"2052.94","latitude_centre":"47.5515","longitude_centre":"4.2038","distance_km":10.98}]}