{"ville":{"id":30837,"code_insee":"71317","nom_standard":"Montmort","nom_a":null,"nom_de":null,"slug_ville":"montmort","departement_id":0,"code_postal":"71320","population":185,"superficie_km2":"3165.42","latitude_centre":"46.741","longitude_centre":"4.095","dep_code":"71","dep_nom":"Saône-et-Loire","dep_slug":"saone-et-loire","reg_code":"27","reg_nom":"Bourgogne-Franche-Comté","reg_slug":"bourgogne-franche-comte"},"departement":{"code":"71","nom":"Saône-et-Loire","slug":"saone-et-loire"},"region":{"code":"27","nom":"Bourgogne-Franche-Comté","slug":"bourgogne-franche-comte"},"villes_proches":[{"id":30672,"code_insee":"71098","nom_standard":"Charbonnat","nom_a":null,"nom_de":null,"slug_ville":"charbonnat","departement_id":0,"code_postal":"71320","population":216,"superficie_km2":"2232.83","latitude_centre":"46.7766","longitude_centre":"4.1037","distance_km":4.01},{"id":30632,"code_insee":"71046","nom_standard":"La Boulaye","nom_a":null,"nom_de":null,"slug_ville":"la-boulaye","departement_id":0,"code_postal":"71320","population":102,"superficie_km2":"1391.99","latitude_centre":"46.7346","longitude_centre":"4.1531","distance_km":4.48},{"id":0,"code_insee":"71474","nom_standard":"Sainte-Radegonde","nom_a":null,"nom_de":null,"slug_ville":"sainte-radegonde","departement_id":0,"code_postal":"71320","population":146,"superficie_km2":"2305.96","latitude_centre":"46.6935","longitude_centre":"4.0792","distance_km":5.42},{"id":30721,"code_insee":"71166","nom_standard":"Cuzy","nom_a":null,"nom_de":null,"slug_ville":"cuzy","departement_id":0,"code_postal":"71320","population":110,"superficie_km2":"1805.68","latitude_centre":"46.7617","longitude_centre":"4.0305","distance_km":5.43},{"id":0,"code_insee":"71537","nom_standard":"Thil-sur-Arroux","nom_a":null,"nom_de":null,"slug_ville":"thil-sur-arroux","departement_id":0,"code_postal":"71190","population":138,"superficie_km2":"1347.80","latitude_centre":"46.8034","longitude_centre":"4.0939","distance_km":6.94},{"id":30777,"code_insee":"71239","nom_standard":"Issy-l'Évêque","nom_a":null,"nom_de":null,"slug_ville":"issy-l-eveque","departement_id":0,"code_postal":"71760","population":692,"superficie_km2":"7118.66","latitude_centre":"46.7133","longitude_centre":"4.01","distance_km":7.17},{"id":0,"code_insee":"71542","nom_standard":"Toulon-sur-Arroux","nom_a":null,"nom_de":null,"slug_ville":"toulon-sur-arroux","departement_id":0,"code_postal":"71320","population":1433,"superficie_km2":"4366.06","latitude_centre":"46.6869","longitude_centre":"4.1526","distance_km":7.45},{"id":30726,"code_insee":"71172","nom_standard":"Dettey","nom_a":null,"nom_de":null,"slug_ville":"dettey","departement_id":0,"code_postal":"71190","population":88,"superficie_km2":"2252.18","latitude_centre":"46.7711","longitude_centre":"4.1967","distance_km":8.44},{"id":0,"code_insee":"71466","nom_standard":"Saint-Nizier-sur-Arroux","nom_a":null,"nom_de":null,"slug_ville":"saint-nizier-sur-arroux","departement_id":0,"code_postal":"71190","population":124,"superficie_km2":"1018.90","latitude_centre":"46.8168","longitude_centre":"4.1559","distance_km":9.62},{"id":0,"code_insee":"71411","nom_standard":"Saint-Eugène","nom_a":null,"nom_de":null,"slug_ville":"saint-eugene","departement_id":0,"code_postal":"71320","population":150,"superficie_km2":"3532.84","latitude_centre":"46.7351","longitude_centre":"4.2238","distance_km":9.84},{"id":0,"code_insee":"58149","nom_standard":"Luzy","nom_a":null,"nom_de":null,"slug_ville":"luzy","departement_id":0,"code_postal":"58170","population":2006,"superficie_km2":"4196.48","latitude_centre":"46.7986","longitude_centre":"3.9929","distance_km":10.07},{"id":0,"code_insee":"71552","nom_standard":"Uxeau","nom_a":null,"nom_de":null,"slug_ville":"uxeau","departement_id":0,"code_postal":"71130","population":486,"superficie_km2":"3289.68","latitude_centre":"46.6545","longitude_centre":"4.0462","distance_km":10.31},{"id":0,"code_insee":"71407","nom_standard":"Saint-Didier-sur-Arroux","nom_a":null,"nom_de":null,"slug_ville":"saint-didier-sur-arroux","departement_id":0,"code_postal":"71190","population":232,"superficie_km2":"2803.44","latitude_centre":"46.8346","longitude_centre":"4.1023","distance_km":10.42},{"id":0,"code_insee":"71531","nom_standard":"La Tagnière","nom_a":null,"nom_de":null,"slug_ville":"la-tagniere","departement_id":0,"code_postal":"71190","population":209,"superficie_km2":"3411.91","latitude_centre":"46.7982","longitude_centre":"4.218","distance_km":11.32},{"id":0,"code_insee":"71478","nom_standard":"Saint-Romain-sous-Versigny","nom_a":null,"nom_de":null,"slug_ville":"saint-romain-sous-versigny","departement_id":0,"code_postal":"71420","population":77,"superficie_km2":"1776.96","latitude_centre":"46.652","longitude_centre":"4.1844","distance_km":12.02},{"id":0,"code_insee":"71565","nom_standard":"Vendenesse-sur-Arroux","nom_a":null,"nom_de":null,"slug_ville":"vendenesse-sur-arroux","departement_id":0,"code_postal":"71130","population":552,"superficie_km2":"1621.63","latitude_centre":"46.6343","longitude_centre":"4.0637","distance_km":12.1},{"id":30812,"code_insee":"71281","nom_standard":"Marly-sur-Arroux","nom_a":null,"nom_de":null,"slug_ville":"marly-sur-arroux","departement_id":0,"code_postal":"71420","population":301,"superficie_km2":"2576.74","latitude_centre":"46.6218","longitude_centre":"4.1328","distance_km":13.56},{"id":26141,"code_insee":"58168","nom_standard":"Millay","nom_a":null,"nom_de":null,"slug_ville":"millay","departement_id":0,"code_postal":"58170","population":440,"superficie_km2":"3742.75","latitude_centre":"46.8363","longitude_centre":"3.9813","distance_km":13.68},{"id":26181,"code_insee":"58211","nom_standard":"Poil","nom_a":null,"nom_de":null,"slug_ville":"poil","departement_id":0,"code_postal":"58170","population":152,"superficie_km2":"2702.51","latitude_centre":"46.8704","longitude_centre":"4.0559","distance_km":14.69},{"id":30704,"code_insee":"71142","nom_standard":"La Comelle","nom_a":null,"nom_de":null,"slug_ville":"la-comelle","departement_id":0,"code_postal":"71990","population":248,"superficie_km2":"2274.52","latitude_centre":"46.8771","longitude_centre":"4.1192","distance_km":15.25}]}