{"ville":{"id":11668,"code_insee":"07163","nom_standard":"Montselgues","nom_a":null,"nom_de":null,"slug_ville":"montselgues","departement_id":0,"code_postal":"07140","population":86,"superficie_km2":"3639.24","latitude_centre":"44.5234","longitude_centre":"4.0037","dep_code":"07","dep_nom":"Ardèche","dep_slug":"ardeche","reg_code":"84","reg_nom":"Auvergne-Rhône-Alpes","reg_slug":"auvergne-rhone-alpes"},"departement":{"code":"07","nom":"Ardèche","slug":"ardeche"},"region":{"code":"84","nom":"Auvergne-Rhône-Alpes","slug":"auvergne-rhone-alpes"},"villes_proches":[{"id":0,"code_insee":"07266","nom_standard":"Sainte-Marguerite-Lafigère","nom_a":null,"nom_de":null,"slug_ville":"sainte-marguerite-lafigere","departement_id":0,"code_postal":"07140","population":111,"superficie_km2":"981.31","latitude_centre":"44.4866","longitude_centre":"3.9975","distance_km":4.12},{"id":0,"code_insee":"48015","nom_standard":"Pied-de-Borne","nom_a":null,"nom_de":null,"slug_ville":"pied-de-borne","departement_id":0,"code_postal":"48800","population":208,"superficie_km2":"2756.90","latitude_centre":"44.4839","longitude_centre":"3.9685","distance_km":5.2},{"id":0,"code_insee":"07202","nom_standard":"Sablières","nom_a":null,"nom_de":null,"slug_ville":"sablieres","departement_id":0,"code_postal":"07260","population":166,"superficie_km2":"3836.95","latitude_centre":"44.5451","longitude_centre":"4.0675","distance_km":5.6},{"id":11655,"code_insee":"07147","nom_standard":"Malarce-sur-la-Thines","nom_a":null,"nom_de":null,"slug_ville":"malarce-sur-la-thines","departement_id":0,"code_postal":"07140","population":268,"superficie_km2":"3784.19","latitude_centre":"44.4777","longitude_centre":"4.0512","distance_km":6.33},{"id":0,"code_insee":"48119","nom_standard":"Prévenchères","nom_a":null,"nom_de":null,"slug_ville":"prevencheres","departement_id":0,"code_postal":"48800","population":267,"superficie_km2":"6160.87","latitude_centre":"44.5144","longitude_centre":"3.9119","distance_km":7.35},{"id":0,"code_insee":"07262","nom_standard":"Saint-Laurent-les-Bains-Laval-d'Aurelle","nom_a":null,"nom_de":null,"slug_ville":"saint-laurent-les-bains-laval-d-aurelle","departement_id":0,"code_postal":"07590","population":183,"superficie_km2":"3569.87","latitude_centre":"44.5906","longitude_centre":"3.9592","distance_km":8.26},{"id":11653,"code_insee":"07144","nom_standard":"Loubaresse","nom_a":null,"nom_de":null,"slug_ville":"loubaresse","departement_id":0,"code_postal":"07110","population":43,"superficie_km2":"912.73","latitude_centre":"44.5921","longitude_centre":"4.0555","distance_km":8.67},{"id":0,"code_insee":"07284","nom_standard":"Saint-Pierre-Saint-Jean","nom_a":null,"nom_de":null,"slug_ville":"saint-pierre-saint-jean","departement_id":0,"code_postal":"07140","population":195,"superficie_km2":"2372.22","latitude_centre":"44.4785","longitude_centre":"4.0971","distance_km":8.93},{"id":11607,"code_insee":"07081","nom_standard":"Dompnac","nom_a":null,"nom_de":null,"slug_ville":"dompnac","departement_id":0,"code_postal":"07260","population":78,"superficie_km2":"1629.15","latitude_centre":"44.5607","longitude_centre":"4.1132","distance_km":9.62},{"id":0,"code_insee":"07275","nom_standard":"Saint-Mélany","nom_a":null,"nom_de":null,"slug_ville":"saint-melany","departement_id":0,"code_postal":"07260","population":118,"superficie_km2":"1062.49","latitude_centre":"44.5391","longitude_centre":"4.1276","distance_km":9.98},{"id":11578,"code_insee":"07038","nom_standard":"Borne","nom_a":null,"nom_de":null,"slug_ville":"borne","departement_id":0,"code_postal":"07590","population":42,"superficie_km2":"3219.29","latitude_centre":"44.6115","longitude_centre":"4.0444","distance_km":10.31},{"id":0,"code_insee":"48021","nom_standard":"La Bastide-Puylaurent","nom_a":null,"nom_de":null,"slug_ville":"la-bastide-puylaurent","departement_id":0,"code_postal":"48250","population":167,"superficie_km2":"2393.61","latitude_centre":"44.5662","longitude_centre":"3.8882","distance_km":10.32},{"id":0,"code_insee":"48198","nom_standard":"Villefort","nom_a":null,"nom_de":null,"slug_ville":"villefort","departement_id":0,"code_postal":"48800","population":618,"superficie_km2":"810.09","latitude_centre":"44.4429","longitude_centre":"3.9293","distance_km":10.72},{"id":0,"code_insee":"30153","nom_standard":"Malons-et-Elze","nom_a":null,"nom_de":null,"slug_ville":"malons-et-elze","departement_id":0,"code_postal":"30450","population":111,"superficie_km2":"3115.96","latitude_centre":"44.4221","longitude_centre":"4.0197","distance_km":11.34},{"id":0,"code_insee":"07329","nom_standard":"Valgorge","nom_a":null,"nom_de":null,"slug_ville":"valgorge","departement_id":0,"code_postal":"07110","population":412,"superficie_km2":"2643.76","latitude_centre":"44.5918","longitude_centre":"4.1118","distance_km":11.45},{"id":11646,"code_insee":"07136","nom_standard":"Laveyrune","nom_a":null,"nom_de":null,"slug_ville":"laveyrune","departement_id":0,"code_postal":"48250","population":111,"superficie_km2":"1352.04","latitude_centre":"44.6174","longitude_centre":"3.9255","distance_km":12.15},{"id":11623,"code_insee":"07100","nom_standard":"Gravières","nom_a":null,"nom_de":null,"slug_ville":"gravieres","departement_id":0,"code_postal":"07140","population":508,"superficie_km2":"1880.42","latitude_centre":"44.4199","longitude_centre":"4.0715","distance_km":12.7},{"id":0,"code_insee":"48135","nom_standard":"Saint-André-Capcèze","nom_a":null,"nom_de":null,"slug_ville":"saint-andre-capceze","departement_id":0,"code_postal":"48800","population":206,"superficie_km2":"976.55","latitude_centre":"44.4167","longitude_centre":"3.9446","distance_km":12.76},{"id":0,"code_insee":"30201","nom_standard":"Ponteils-et-Brésis","nom_a":null,"nom_de":null,"slug_ville":"ponteils-et-bresis","departement_id":0,"code_postal":"30450","population":365,"superficie_km2":"2766.99","latitude_centre":"44.4026","longitude_centre":"3.96","distance_km":13.87},{"id":0,"code_insee":"07232","nom_standard":"Saint-Étienne-de-Lugdarès","nom_a":null,"nom_de":null,"slug_ville":"saint-etienne-de-lugdares","departement_id":0,"code_postal":"07590","population":406,"superficie_km2":"5083.54","latitude_centre":"44.6468","longitude_centre":"3.974","distance_km":13.92}]}