{"ville":{"id":34498,"code_insee":"88308","nom_standard":"Mont-lès-Neufchâteau","nom_a":null,"nom_de":null,"slug_ville":"mont-les-neufchateau","departement_id":0,"code_postal":"88300","population":267,"superficie_km2":"1148.54","latitude_centre":"48.3513","longitude_centre":"5.6452","dep_code":"88","dep_nom":"Vosges","dep_slug":"vosges","reg_code":"44","reg_nom":"Grand Est","reg_slug":"grand-est"},"departement":{"code":"88","nom":"Vosges","slug":"vosges"},"region":{"code":"44","nom":"Grand Est","slug":"grand-est"},"villes_proches":[{"id":34395,"code_insee":"88189","nom_standard":"Fréville","nom_a":null,"nom_de":null,"slug_ville":"freville","departement_id":0,"code_postal":"88350","population":133,"superficie_km2":"637.89","latitude_centre":"48.3247","longitude_centre":"5.6235","distance_km":3.36},{"id":34390,"code_insee":"88183","nom_standard":"Frebécourt","nom_a":null,"nom_de":null,"slug_ville":"frebecourt","departement_id":0,"code_postal":"88630","population":341,"superficie_km2":"1056.10","latitude_centre":"48.3821","longitude_centre":"5.6756","distance_km":4.1},{"id":0,"code_insee":"88321","nom_standard":"Neufchâteau","nom_a":null,"nom_de":null,"slug_ville":"neufchateau","departement_id":0,"code_postal":"88300","population":6732,"superficie_km2":"3195.80","latitude_centre":"48.3568","longitude_centre":"5.7026","distance_km":4.29},{"id":0,"code_insee":"88344","nom_standard":"Pargny-sous-Mureau","nom_a":null,"nom_de":null,"slug_ville":"pargny-sous-mureau","departement_id":0,"code_postal":"88350","population":190,"superficie_km2":"1786.26","latitude_centre":"48.3638","longitude_centre":"5.59","distance_km":4.31},{"id":0,"code_insee":"88511","nom_standard":"Villouxel","nom_a":null,"nom_de":null,"slug_ville":"villouxel","departement_id":0,"code_postal":"88350","population":83,"superficie_km2":"461.50","latitude_centre":"48.3477","longitude_centre":"5.5797","distance_km":4.86},{"id":0,"code_insee":"88457","nom_standard":"Sionne","nom_a":null,"nom_de":null,"slug_ville":"sionne","departement_id":0,"code_postal":"88630","population":139,"superficie_km2":"1189.49","latitude_centre":"48.395","longitude_centre":"5.6355","distance_km":4.91},{"id":34278,"code_insee":"88044","nom_standard":"Bazoilles-sur-Meuse","nom_a":null,"nom_de":null,"slug_ville":"bazoilles-sur-meuse","departement_id":0,"code_postal":"88300","population":612,"superficie_km2":"2135.98","latitude_centre":"48.2989","longitude_centre":"5.649","distance_km":5.83},{"id":0,"code_insee":"88376","nom_standard":"Rebeuville","nom_a":null,"nom_de":null,"slug_ville":"rebeuville","departement_id":0,"code_postal":"88300","population":294,"superficie_km2":"871.41","latitude_centre":"48.3367","longitude_centre":"5.722","distance_km":5.9},{"id":34494,"code_insee":"88303","nom_standard":"Midrevaux","nom_a":null,"nom_de":null,"slug_ville":"midrevaux","departement_id":0,"code_postal":"88630","population":173,"superficie_km2":"1424.17","latitude_centre":"48.3869","longitude_centre":"5.5827","distance_km":6.08},{"id":0,"code_insee":"88270","nom_standard":"Liffol-le-Grand","nom_a":null,"nom_de":null,"slug_ville":"liffol-le-grand","departement_id":0,"code_postal":"88350","population":2097,"superficie_km2":"3412.67","latitude_centre":"48.3161","longitude_centre":"5.5728","distance_km":6.63},{"id":34326,"code_insee":"88104","nom_standard":"Circourt-sur-Mouzon","nom_a":null,"nom_de":null,"slug_ville":"circourt-sur-mouzon","departement_id":0,"code_postal":"88300","population":186,"superficie_km2":"1017.58","latitude_centre":"48.3033","longitude_centre":"5.6997","distance_km":6.69},{"id":34336,"code_insee":"88118","nom_standard":"Coussey","nom_a":null,"nom_de":null,"slug_ville":"coussey","departement_id":0,"code_postal":"88630","population":716,"superficie_km2":"1623.91","latitude_centre":"48.4136","longitude_centre":"5.6671","distance_km":7.11},{"id":34311,"code_insee":"88083","nom_standard":"Certilleux","nom_a":null,"nom_de":null,"slug_ville":"certilleux","departement_id":0,"code_postal":"88300","population":216,"superficie_km2":"592.80","latitude_centre":"48.3198","longitude_centre":"5.733","distance_km":7.37},{"id":0,"code_insee":"88352","nom_standard":"Pompierre","nom_a":null,"nom_de":null,"slug_ville":"pompierre","departement_id":0,"code_postal":"88300","population":187,"superficie_km2":"1262.55","latitude_centre":"48.2782","longitude_centre":"5.6767","distance_km":8.46},{"id":34324,"code_insee":"88102","nom_standard":"Chermisey","nom_a":null,"nom_de":null,"slug_ville":"chermisey","departement_id":0,"code_postal":"88630","population":83,"superficie_km2":"1077.79","latitude_centre":"48.4125","longitude_centre":"5.5717","distance_km":8.7},{"id":34495,"code_insee":"88305","nom_standard":"Moncel-sur-Vair","nom_a":null,"nom_de":null,"slug_ville":"moncel-sur-vair","departement_id":0,"code_postal":"88630","population":171,"superficie_km2":"729.61","latitude_centre":"48.4221","longitude_centre":"5.7044","distance_km":9.0},{"id":0,"code_insee":"88453","nom_standard":"Seraumont","nom_a":null,"nom_de":null,"slug_ville":"seraumont","departement_id":0,"code_postal":"88630","population":33,"superficie_km2":"1041.71","latitude_centre":"48.4322","longitude_centre":"5.6075","distance_km":9.42},{"id":24041,"code_insee":"52237","nom_standard":"Harréville-les-Chanteurs","nom_a":null,"nom_de":null,"slug_ville":"harreville-les-chanteurs","departement_id":0,"code_postal":"52150","population":259,"superficie_km2":"1586.92","latitude_centre":"48.2671","longitude_centre":"5.618","distance_km":9.58},{"id":34366,"code_insee":"88154","nom_standard":"Domrémy-la-Pucelle","nom_a":null,"nom_de":null,"slug_ville":"domremy-la-pucelle","departement_id":0,"code_postal":"88630","population":102,"superficie_km2":"897.83","latitude_centre":"48.4409","longitude_centre":"5.6566","distance_km":10.0},{"id":25267,"code_insee":"55436","nom_standard":"Les Roises","nom_a":null,"nom_de":null,"slug_ville":"les-roises","departement_id":0,"code_postal":"55130","population":27,"superficie_km2":"378.12","latitude_centre":"48.4521","longitude_centre":"5.6327","distance_km":11.25}]}