{"ville":{"id":22404,"code_insee":"46196","nom_standard":"Montamel","nom_a":null,"nom_de":null,"slug_ville":"montamel","departement_id":0,"code_postal":"46310","population":90,"superficie_km2":"971.22","latitude_centre":"44.6097","longitude_centre":"1.4662","dep_code":"46","dep_nom":"Lot","dep_slug":"lot","reg_code":"76","reg_nom":"Occitanie","reg_slug":"occitanie"},"departement":{"code":"46","nom":"Lot","slug":"lot"},"region":{"code":"76","nom":"Occitanie","slug":"occitanie"},"villes_proches":[{"id":22399,"code_insee":"46190","nom_standard":"Mechmont","nom_a":null,"nom_de":null,"slug_ville":"mechmont","departement_id":0,"code_postal":"46150","population":134,"superficie_km2":"672.55","latitude_centre":"44.5856","longitude_centre":"1.4632","distance_km":2.69},{"id":0,"code_insee":"46323","nom_standard":"Ussel","nom_a":null,"nom_de":null,"slug_ville":"ussel","departement_id":0,"code_postal":"46240","population":94,"superficie_km2":"679.94","latitude_centre":"44.5921","longitude_centre":"1.4961","distance_km":3.07},{"id":22340,"code_insee":"46119","nom_standard":"Gigouzac","nom_a":null,"nom_de":null,"slug_ville":"gigouzac","departement_id":0,"code_postal":"46150","population":303,"superficie_km2":"992.89","latitude_centre":"44.5851","longitude_centre":"1.4343","distance_km":3.72},{"id":22365,"code_insee":"46151","nom_standard":"Lamothe-Cassel","nom_a":null,"nom_de":null,"slug_ville":"lamothe-cassel","departement_id":0,"code_postal":"46240","population":116,"superficie_km2":"1145.55","latitude_centre":"44.6132","longitude_centre":"1.5137","distance_km":3.78},{"id":0,"code_insee":"46267","nom_standard":"Saint-Germain-du-Bel-Air","nom_a":null,"nom_de":null,"slug_ville":"saint-germain-du-bel-air","departement_id":0,"code_postal":"46310","population":624,"superficie_km2":"2141.02","latitude_centre":"44.6447","longitude_centre":"1.4342","distance_km":4.64},{"id":22334,"code_insee":"46113","nom_standard":"Frayssinet","nom_a":null,"nom_de":null,"slug_ville":"frayssinet","departement_id":0,"code_postal":"46310","population":309,"superficie_km2":"1683.51","latitude_centre":"44.6519","longitude_centre":"1.4858","distance_km":4.94},{"id":0,"code_insee":"46210","nom_standard":"Nadillac","nom_a":null,"nom_de":null,"slug_ville":"nadillac","departement_id":0,"code_postal":"46360","population":75,"superficie_km2":"744.35","latitude_centre":"44.5654","longitude_centre":"1.5074","distance_km":5.91},{"id":22333,"code_insee":"46112","nom_standard":"Francoulès","nom_a":null,"nom_de":null,"slug_ville":"francoules","departement_id":0,"code_postal":"46090","population":265,"superficie_km2":"1362.55","latitude_centre":"44.5567","longitude_centre":"1.4879","distance_km":6.14},{"id":0,"code_insee":"46219","nom_standard":"Peyrilles","nom_a":null,"nom_de":null,"slug_ville":"peyrilles","departement_id":0,"code_postal":"46310","population":347,"superficie_km2":"2855.38","latitude_centre":"44.6204","longitude_centre":"1.3869","distance_km":6.39},{"id":0,"code_insee":"46324","nom_standard":"Uzech","nom_a":null,"nom_de":null,"slug_ville":"uzech","departement_id":0,"code_postal":"46310","population":196,"superficie_km2":"1222.68","latitude_centre":"44.592","longitude_centre":"1.3843","distance_km":6.78},{"id":22397,"code_insee":"46188","nom_standard":"Maxou","nom_a":null,"nom_de":null,"slug_ville":"maxou","departement_id":0,"code_postal":"46090","population":287,"superficie_km2":"1255.27","latitude_centre":"44.5475","longitude_centre":"1.4448","distance_km":7.12},{"id":0,"code_insee":"46264","nom_standard":"Saint-Denis-Catus","nom_a":null,"nom_de":null,"slug_ville":"saint-denis-catus","departement_id":0,"code_postal":"46150","population":198,"superficie_km2":"1076.37","latitude_centre":"44.5685","longitude_centre":"1.3897","distance_km":7.6},{"id":0,"code_insee":"46253","nom_standard":"Saint-Chamarand","nom_a":null,"nom_de":null,"slug_ville":"saint-chamarand","departement_id":0,"code_postal":"46310","population":192,"superficie_km2":"1310.06","latitude_centre":"44.6836","longitude_centre":"1.4565","distance_km":8.25},{"id":0,"code_insee":"46252","nom_standard":"Les Pechs du Vers","nom_a":null,"nom_de":null,"slug_ville":"les-pechs-du-vers","departement_id":0,"code_postal":"46360","population":303,"superficie_km2":"2618.28","latitude_centre":"44.5874","longitude_centre":"1.5661","distance_km":8.29},{"id":22267,"code_insee":"46032","nom_standard":"Boissières","nom_a":null,"nom_de":null,"slug_ville":"boissieres","departement_id":0,"code_postal":"46150","population":371,"superficie_km2":"1313.54","latitude_centre":"44.5494","longitude_centre":"1.4036","distance_km":8.34},{"id":22305,"code_insee":"46079","nom_standard":"Cras","nom_a":null,"nom_de":null,"slug_ville":"cras","departement_id":0,"code_postal":"46360","population":97,"superficie_km2":"1031.02","latitude_centre":"44.5578","longitude_centre":"1.545","distance_km":8.5},{"id":22299,"code_insee":"46072","nom_standard":"Concorès","nom_a":null,"nom_de":null,"slug_ville":"concores","departement_id":0,"code_postal":"46310","population":312,"superficie_km2":"1906.58","latitude_centre":"44.6695","longitude_centre":"1.3915","distance_km":8.9},{"id":0,"code_insee":"46340","nom_standard":"Saint-Pierre-Lafeuille","nom_a":null,"nom_de":null,"slug_ville":"saint-pierre-lafeuille","departement_id":0,"code_postal":"46090","population":419,"superficie_km2":"848.99","latitude_centre":"44.5194","longitude_centre":"1.455","distance_km":10.08},{"id":0,"code_insee":"46258","nom_standard":"Saint-Cirq-Souillaguet","nom_a":null,"nom_de":null,"slug_ville":"saint-cirq-souillaguet","departement_id":0,"code_postal":"46300","population":172,"superficie_km2":"850.53","latitude_centre":"44.7049","longitude_centre":"1.4461","distance_km":10.7},{"id":0,"code_insee":"46308","nom_standard":"Soucirac","nom_a":null,"nom_de":null,"slug_ville":"soucirac","departement_id":0,"code_postal":"46300","population":102,"superficie_km2":"1133.19","latitude_centre":"44.7073","longitude_centre":"1.503","distance_km":11.24}]}