{"ville":{"id":18950,"code_insee":"31367","nom_standard":"Montclar-de-Comminges","nom_a":null,"nom_de":null,"slug_ville":"montclar-de-comminges","departement_id":0,"code_postal":"31220","population":79,"superficie_km2":"634.29","latitude_centre":"43.169","longitude_centre":"1.033","dep_code":"31","dep_nom":"Haute-Garonne","dep_slug":"haute-garonne","reg_code":"76","reg_nom":"Occitanie","reg_slug":"occitanie"},"departement":{"code":"31","nom":"Haute-Garonne","slug":"haute-garonne"},"region":{"code":"76","nom":"Occitanie","slug":"occitanie"},"villes_proches":[{"id":18714,"code_insee":"31030","nom_standard":"Ausseing","nom_a":null,"nom_de":null,"slug_ville":"ausseing","departement_id":0,"code_postal":"31260","population":91,"superficie_km2":"593.62","latitude_centre":"43.1561","longitude_centre":"1.0284","distance_km":1.48},{"id":18919,"code_insee":"31327","nom_standard":"Mauran","nom_a":null,"nom_de":null,"slug_ville":"mauran","departement_id":0,"code_postal":"31220","population":201,"superficie_km2":"525.58","latitude_centre":"43.1857","longitude_centre":"1.0193","distance_km":2.16},{"id":0,"code_insee":"31422","nom_standard":"Plagne","nom_a":null,"nom_de":null,"slug_ville":"plagne","departement_id":0,"code_postal":"31220","population":95,"superficie_km2":"422.90","latitude_centre":"43.1591","longitude_centre":"1.0584","distance_km":2.34},{"id":0,"code_insee":"31406","nom_standard":"Palaminy","nom_a":null,"nom_de":null,"slug_ville":"palaminy","departement_id":0,"code_postal":"31220","population":751,"superficie_km2":"1128.93","latitude_centre":"43.1948","longitude_centre":"1.059","distance_km":3.56},{"id":0,"code_insee":"31505","nom_standard":"Saint-Michel","nom_a":null,"nom_de":null,"slug_ville":"saint-michel","departement_id":0,"code_postal":"31220","population":306,"superficie_km2":"1557.05","latitude_centre":"43.1613","longitude_centre":"1.0819","distance_km":4.06},{"id":18731,"code_insee":"31059","nom_standard":"Belbèze-en-Comminges","nom_a":null,"nom_de":null,"slug_ville":"belbeze-en-comminges","departement_id":0,"code_postal":"31260","population":108,"superficie_km2":"962.84","latitude_centre":"43.1326","longitude_centre":"1.0273","distance_km":4.07},{"id":0,"code_insee":"31457","nom_standard":"Roquefort-sur-Garonne","nom_a":null,"nom_de":null,"slug_ville":"roquefort-sur-garonne","departement_id":0,"code_postal":"31360","population":801,"superficie_km2":"1364.31","latitude_centre":"43.1603","longitude_centre":"0.9839","distance_km":4.1},{"id":0,"code_insee":"31324","nom_standard":"Martres-Tolosane","nom_a":null,"nom_de":null,"slug_ville":"martres-tolosane","departement_id":0,"code_postal":"31220","population":2387,"superficie_km2":"2355.15","latitude_centre":"43.2052","longitude_centre":"0.994","distance_km":5.12},{"id":18801,"code_insee":"31153","nom_standard":"Couladère","nom_a":null,"nom_de":null,"slug_ville":"couladere","departement_id":0,"code_postal":"31220","population":415,"superficie_km2":"229.38","latitude_centre":"43.1962","longitude_centre":"1.0935","distance_km":5.76},{"id":18767,"code_insee":"31110","nom_standard":"Cassagne","nom_a":null,"nom_de":null,"slug_ville":"cassagne","departement_id":0,"code_postal":"31260","population":641,"superficie_km2":"1103.90","latitude_centre":"43.1242","longitude_centre":"0.992","distance_km":5.99},{"id":0,"code_insee":"31084","nom_standard":"Boussens","nom_a":null,"nom_de":null,"slug_ville":"boussens","departement_id":0,"code_postal":"31360","population":1135,"superficie_km2":"439.97","latitude_centre":"43.1747","longitude_centre":"0.9594","distance_km":6.0},{"id":12286,"code_insee":"09094","nom_standard":"Cérizols","nom_a":null,"nom_de":null,"slug_ville":"cerizols","departement_id":0,"code_postal":"09230","population":138,"superficie_km2":"1451.64","latitude_centre":"43.1211","longitude_centre":"1.0675","distance_km":6.02},{"id":0,"code_insee":"31591","nom_standard":"Escoulis","nom_a":null,"nom_de":null,"slug_ville":"escoulis","departement_id":0,"code_postal":"31260","population":76,"superficie_km2":"468.78","latitude_centre":"43.1106","longitude_centre":"1.0302","distance_km":6.5},{"id":0,"code_insee":"31530","nom_standard":"Sana","nom_a":null,"nom_de":null,"slug_ville":"sana","departement_id":0,"code_postal":"31220","population":236,"superficie_km2":"274.92","latitude_centre":"43.2277","longitude_centre":"1.0115","distance_km":6.76},{"id":18927,"code_insee":"31336","nom_standard":"Mazères-sur-Salat","nom_a":null,"nom_de":null,"slug_ville":"mazeres-sur-salat","departement_id":0,"code_postal":"31260","population":628,"superficie_km2":"682.53","latitude_centre":"43.1341","longitude_centre":"0.9605","distance_km":7.05},{"id":18911,"code_insee":"31318","nom_standard":"Marignac-Laspeyres","nom_a":null,"nom_de":null,"slug_ville":"marignac-laspeyres","departement_id":0,"code_postal":"31220","population":194,"superficie_km2":"1241.52","latitude_centre":"43.2121","longitude_centre":"0.9627","distance_km":7.45},{"id":0,"code_insee":"31135","nom_standard":"Cazères","nom_a":null,"nom_de":null,"slug_ville":"cazeres","departement_id":0,"code_postal":"31220","population":4854,"superficie_km2":"1977.41","latitude_centre":"43.2155","longitude_centre":"1.1005","distance_km":7.53},{"id":18914,"code_insee":"31321","nom_standard":"Marsoulas","nom_a":null,"nom_de":null,"slug_ville":"marsoulas","departement_id":0,"code_postal":"31260","population":143,"superficie_km2":"241.52","latitude_centre":"43.1072","longitude_centre":"0.9929","distance_km":7.6},{"id":18937,"code_insee":"31349","nom_standard":"Mondavezan","nom_a":null,"nom_de":null,"slug_ville":"mondavezan","departement_id":0,"code_postal":"31220","population":880,"superficie_km2":"2138.98","latitude_centre":"43.2394","longitude_centre":"1.041","distance_km":7.85},{"id":18892,"code_insee":"31292","nom_standard":"Lescuns","nom_a":null,"nom_de":null,"slug_ville":"lescuns","departement_id":0,"code_postal":"31220","population":75,"superficie_km2":"303.15","latitude_centre":"43.2448","longitude_centre":"1.006","distance_km":8.71}]}