{"ville":{"id":5061,"code_insee":"53158","nom_standard":"Montjean","nom_a":null,"nom_de":null,"slug_ville":"montjean","departement_id":654,"code_postal":"53320","population":1033,"superficie_km2":"20.00","latitude_centre":"48.0079994","longitude_centre":"-0.9420000","dep_code":"53","dep_nom":"Mayenne","dep_slug":"mayenne","reg_code":"17","reg_nom":"Pays de la Loire","reg_slug":"pays-de-la-loire"},"departement":{"code":"53","nom":"Mayenne","slug":"mayenne"},"region":{"code":"17","nom":"Pays de la Loire","slug":"pays-de-la-loire"},"villes_proches":[{"id":5015,"code_insee":"53001","nom_standard":"Ahuillé","nom_a":null,"nom_de":null,"slug_ville":"ahuille","departement_id":654,"code_postal":"53940","population":1859,"superficie_km2":"31.00","latitude_centre":"48.0239983","longitude_centre":"-0.8730000","distance_km":5.43},{"id":5052,"code_insee":"53137","nom_standard":"Loiron-Ruillé","nom_a":null,"nom_de":null,"slug_ville":"loiron-ruille","departement_id":654,"code_postal":"53320","population":2732,"superficie_km2":"23.00","latitude_centre":"48.0629997","longitude_centre":"-0.9190000","distance_km":6.35},{"id":5033,"code_insee":"53077","nom_standard":"Cossé-le-Vivien","nom_a":null,"nom_de":null,"slug_ville":"cosse-le-vivien","departement_id":654,"code_postal":"53230","population":3246,"superficie_km2":"45.00","latitude_centre":"47.9459992","longitude_centre":"-0.9350000","distance_km":6.91},{"id":5057,"code_insee":"53151","nom_standard":"Méral","nom_a":null,"nom_de":null,"slug_ville":"meral","departement_id":654,"code_postal":"53230","population":1098,"superficie_km2":"30.00","latitude_centre":"47.9519997","longitude_centre":"-1.0150000","distance_km":8.26},{"id":3329,"code_insee":"35217","nom_standard":"Le Pertre","nom_a":null,"nom_de":null,"slug_ville":"le-pertre","departement_id":636,"code_postal":"35370","population":1375,"superficie_km2":"44.00","latitude_centre":"48.0340004","longitude_centre":"-1.0560000","distance_km":8.96},{"id":5060,"code_insee":"53157","nom_standard":"Montigné-le-Brillant","nom_a":null,"nom_de":null,"slug_ville":"montigne-le-brillant","departement_id":654,"code_postal":"53970","population":1330,"superficie_km2":"18.00","latitude_centre":"48.0130005","longitude_centre":"-0.8170000","distance_km":9.32},{"id":5071,"code_insee":"53201","nom_standard":"Saint-Berthevin","nom_a":null,"nom_de":null,"slug_ville":"saint-berthevin","departement_id":654,"code_postal":"53940","population":7353,"superficie_km2":"32.00","latitude_centre":"48.0699997","longitude_centre":"-0.8450000","distance_km":9.98},{"id":5040,"code_insee":"53103","nom_standard":"Le Genest-Saint-Isle","nom_a":null,"nom_de":null,"slug_ville":"le-genest-saint-isle","departement_id":654,"code_postal":"53940","population":2126,"superficie_km2":"19.00","latitude_centre":"48.1040001","longitude_centre":"-0.8950000","distance_km":11.23},{"id":5063,"code_insee":"53168","nom_standard":"Nuillé-sur-Vicoin","nom_a":null,"nom_de":null,"slug_ville":"nuille-sur-vicoin","departement_id":654,"code_postal":"53970","population":1235,"superficie_km2":"24.00","latitude_centre":"47.9799995","longitude_centre":"-0.7790000","distance_km":12.52},{"id":5066,"code_insee":"53182","nom_standard":"Port-Brillet","nom_a":null,"nom_de":null,"slug_ville":"port-brillet","departement_id":654,"code_postal":"53410","population":1805,"superficie_km2":"8.00","latitude_centre":"48.1209984","longitude_centre":"-0.9640000","distance_km":12.67},{"id":5079,"code_insee":"53247","nom_standard":"Saint-Pierre-la-Cour","nom_a":null,"nom_de":null,"slug_ville":"saint-pierre-la-cour","departement_id":654,"code_postal":"53410","population":2306,"superficie_km2":"16.00","latitude_centre":"48.1080017","longitude_centre":"-1.0240000","distance_km":12.68},{"id":5043,"code_insee":"53119","nom_standard":"L'Huisserie","nom_a":null,"nom_de":null,"slug_ville":"l-huisserie","departement_id":654,"code_postal":"53970","population":4435,"superficie_km2":"15.00","latitude_centre":"48.0169983","longitude_centre":"-0.7660000","distance_km":13.13},{"id":5068,"code_insee":"53186","nom_standard":"Quelaines-Saint-Gault","nom_a":null,"nom_de":null,"slug_ville":"quelaines-saint-gault","departement_id":654,"code_postal":"53360","population":2133,"superficie_km2":"43.00","latitude_centre":"47.9280014","longitude_centre":"-0.7990000","distance_km":13.87},{"id":5050,"code_insee":"53130","nom_standard":"Laval","nom_a":null,"nom_de":null,"slug_ville":"laval","departement_id":654,"code_postal":"53000","population":49657,"superficie_km2":"34.00","latitude_centre":"48.0610008","longitude_centre":"-0.7660000","distance_km":14.35},{"id":5022,"code_insee":"53018","nom_standard":"Ballots","nom_a":null,"nom_de":null,"slug_ville":"ballots","departement_id":654,"code_postal":"53350","population":1317,"superficie_km2":"36.00","latitude_centre":"47.9039993","longitude_centre":"-1.0590000","distance_km":14.48},{"id":3198,"code_insee":"35006","nom_standard":"Argentré-du-Plessis","nom_a":null,"nom_de":null,"slug_ville":"argentre-du-plessis","departement_id":636,"code_postal":"35370","population":4549,"superficie_km2":"41.00","latitude_centre":"48.0480003","longitude_centre":"-1.1380000","distance_km":15.24},{"id":5029,"code_insee":"53054","nom_standard":"Changé","nom_a":null,"nom_de":null,"slug_ville":"change","departement_id":654,"code_postal":"53810","population":6397,"superficie_km2":"36.00","latitude_centre":"48.1080017","longitude_centre":"-0.8000000","distance_km":15.33},{"id":5077,"code_insee":"53243","nom_standard":"Saint-Ouën-des-Toits","nom_a":null,"nom_de":null,"slug_ville":"saint-ouen-des-toits","departement_id":654,"code_postal":"53410","population":1782,"superficie_km2":"21.00","latitude_centre":"48.1419983","longitude_centre":"-0.8930000","distance_km":15.34},{"id":5035,"code_insee":"53094","nom_standard":"Entrammes","nom_a":null,"nom_de":null,"slug_ville":"entrammes","departement_id":654,"code_postal":"53260","population":2262,"superficie_km2":"27.00","latitude_centre":"47.9930000","longitude_centre":"-0.7150000","distance_km":16.97},{"id":3257,"code_insee":"35105","nom_standard":"Erbrée","nom_a":null,"nom_de":null,"slug_ville":"erbree","departement_id":636,"code_postal":"35500","population":1723,"superficie_km2":"36.00","latitude_centre":"48.1090012","longitude_centre":"-1.1170000","distance_km":17.18}]}