{"ville":{"id":19927,"code_insee":"34167","nom_standard":"Montels","nom_a":null,"nom_de":null,"slug_ville":"montels","departement_id":0,"code_postal":"34310","population":247,"superficie_km2":"740.61","latitude_centre":"43.2889","longitude_centre":"3.0294","dep_code":"34","dep_nom":"Hérault","dep_slug":"herault","reg_code":"76","reg_nom":"Occitanie","reg_slug":"occitanie"},"departement":{"code":"34","nom":"Hérault","slug":"herault"},"region":{"code":"76","nom":"Occitanie","slug":"occitanie"},"villes_proches":[{"id":0,"code_insee":"34052","nom_standard":"Capestang","nom_a":null,"nom_de":null,"slug_ville":"capestang","departement_id":0,"code_postal":"34310","population":3514,"superficie_km2":"4052.65","latitude_centre":"43.3184","longitude_centre":"3.0501","distance_km":3.68},{"id":0,"code_insee":"11116","nom_standard":"Cuxac-d'Aude","nom_a":null,"nom_de":null,"slug_ville":"cuxac-d-aude","departement_id":0,"code_postal":"11590","population":4079,"superficie_km2":"2177.19","latitude_centre":"43.2571","longitude_centre":"3.0093","distance_km":3.89},{"id":0,"code_insee":"11269","nom_standard":"Ouveillan","nom_a":null,"nom_de":null,"slug_ville":"ouveillan","departement_id":0,"code_postal":"11590","population":2713,"superficie_km2":"3016.40","latitude_centre":"43.2926","longitude_centre":"2.9687","distance_km":4.93},{"id":0,"code_insee":"34206","nom_standard":"Poilhes","nom_a":null,"nom_de":null,"slug_ville":"poilhes","departement_id":0,"code_postal":"34310","population":548,"superficie_km2":"595.69","latitude_centre":"43.304","longitude_centre":"3.0915","distance_km":5.3},{"id":0,"code_insee":"11106","nom_standard":"Coursan","nom_a":null,"nom_de":null,"slug_ville":"coursan","departement_id":0,"code_postal":"11110","population":5737,"superficie_km2":"2456.20","latitude_centre":"43.2458","longitude_centre":"3.062","distance_km":5.47},{"id":0,"code_insee":"34183","nom_standard":"Nissan-lez-Enserune","nom_a":null,"nom_de":null,"slug_ville":"nissan-lez-enserune","departement_id":0,"code_postal":"34440","population":4124,"superficie_km2":"3012.59","latitude_centre":"43.282","longitude_centre":"3.1051","distance_km":6.18},{"id":0,"code_insee":"34226","nom_standard":"Quarante","nom_a":null,"nom_de":null,"slug_ville":"quarante","departement_id":0,"code_postal":"34310","population":1776,"superficie_km2":"3005.14","latitude_centre":"43.353","longitude_centre":"2.9881","distance_km":7.87},{"id":0,"code_insee":"11369","nom_standard":"Sallèles-d'Aude","nom_a":null,"nom_de":null,"slug_ville":"salleles-d-aude","departement_id":0,"code_postal":"11590","population":3179,"superficie_km2":"1250.65","latitude_centre":"43.2712","longitude_centre":"2.9342","distance_km":7.95},{"id":0,"code_insee":"34161","nom_standard":"Montady","nom_a":null,"nom_de":null,"slug_ville":"montady","departement_id":0,"code_postal":"34310","population":3990,"superficie_km2":"991.27","latitude_centre":"43.3277","longitude_centre":"3.1177","distance_km":8.35},{"id":0,"code_insee":"11258","nom_standard":"Moussan","nom_a":null,"nom_de":null,"slug_ville":"moussan","departement_id":0,"code_postal":"11120","population":2093,"superficie_km2":"1497.43","latitude_centre":"43.2303","longitude_centre":"2.9583","distance_km":8.7},{"id":0,"code_insee":"11370","nom_standard":"Salles-d'Aude","nom_a":null,"nom_de":null,"slug_ville":"salles-d-aude","departement_id":0,"code_postal":"11110","population":3369,"superficie_km2":"1829.14","latitude_centre":"43.2349","longitude_centre":"3.1082","distance_km":8.76},{"id":0,"code_insee":"34155","nom_standard":"Maureilhan","nom_a":null,"nom_de":null,"slug_ville":"maureilhan","departement_id":0,"code_postal":"34370","population":2495,"superficie_km2":"1038.38","latitude_centre":"43.3517","longitude_centre":"3.0982","distance_km":8.93},{"id":0,"code_insee":"11353","nom_standard":"Saint-Marcel-sur-Aude","nom_a":null,"nom_de":null,"slug_ville":"saint-marcel-sur-aude","departement_id":0,"code_postal":"11120","population":2014,"superficie_km2":"844.82","latitude_centre":"43.252","longitude_centre":"2.929","distance_km":9.11},{"id":0,"code_insee":"34081","nom_standard":"Colombiers","nom_a":null,"nom_de":null,"slug_ville":"colombiers","departement_id":0,"code_postal":"34440","population":2814,"superficie_km2":"1018.68","latitude_centre":"43.3175","longitude_centre":"3.1415","distance_km":9.61},{"id":0,"code_insee":"11012","nom_standard":"Argeliers","nom_a":null,"nom_de":null,"slug_ville":"argeliers","departement_id":0,"code_postal":"11120","population":2124,"superficie_km2":"1088.93","latitude_centre":"43.309","longitude_centre":"2.9137","distance_km":9.63},{"id":0,"code_insee":"34089","nom_standard":"Creissan","nom_a":null,"nom_de":null,"slug_ville":"creissan","departement_id":0,"code_postal":"34370","population":1436,"superficie_km2":"865.25","latitude_centre":"43.3759","longitude_centre":"3.0021","distance_km":9.92},{"id":0,"code_insee":"34225","nom_standard":"Puisserguier","nom_a":null,"nom_de":null,"slug_ville":"puisserguier","departement_id":0,"code_postal":"34620","population":3078,"superficie_km2":"2815.90","latitude_centre":"43.379","longitude_centre":"3.056","distance_km":10.25},{"id":13249,"code_insee":"11441","nom_standard":"Vinassan","nom_a":null,"nom_de":null,"slug_ville":"vinassan","departement_id":0,"code_postal":"11110","population":2662,"superficie_km2":"894.48","latitude_centre":"43.207","longitude_centre":"3.0969","distance_km":10.62},{"id":19894,"code_insee":"34092","nom_standard":"Cruzy","nom_a":null,"nom_de":null,"slug_ville":"cruzy","departement_id":0,"code_postal":"34310","population":992,"superficie_km2":"2597.51","latitude_centre":"43.3528","longitude_centre":"2.9244","distance_km":11.07},{"id":0,"code_insee":"11014","nom_standard":"Armissan","nom_a":null,"nom_de":null,"slug_ville":"armissan","departement_id":0,"code_postal":"11110","population":1461,"superficie_km2":"1244.27","latitude_centre":"43.1888","longitude_centre":"3.0888","distance_km":12.13}]}