{"ville":{"id":24736,"code_insee":"54386","nom_standard":"Moriviller","nom_a":null,"nom_de":null,"slug_ville":"moriviller","departement_id":0,"code_postal":"54830","population":95,"superficie_km2":"729.83","latitude_centre":"48.4801","longitude_centre":"6.4393","dep_code":"54","dep_nom":"Meurthe-et-Moselle","dep_slug":"meurthe-et-moselle","reg_code":"44","reg_nom":"Grand Est","reg_slug":"grand-est"},"departement":{"code":"54","nom":"Meurthe-et-Moselle","slug":"meurthe-et-moselle"},"region":{"code":"44","nom":"Grand Est","slug":"grand-est"},"villes_proches":[{"id":24547,"code_insee":"54130","nom_standard":"Clayeures","nom_a":null,"nom_de":null,"slug_ville":"clayeures","departement_id":0,"code_postal":"54290","population":175,"superficie_km2":"935.25","latitude_centre":"48.4705","longitude_centre":"6.4118","distance_km":2.29},{"id":24606,"code_insee":"54209","nom_standard":"Franconville","nom_a":null,"nom_de":null,"slug_ville":"franconville","departement_id":0,"code_postal":"54830","population":63,"superficie_km2":"457.36","latitude_centre":"48.5004","longitude_centre":"6.4528","distance_km":2.47},{"id":24672,"code_insee":"54293","nom_standard":"Landécourt","nom_a":null,"nom_de":null,"slug_ville":"landecourt","departement_id":0,"code_postal":"54360","population":86,"superficie_km2":"586.21","latitude_centre":"48.5007","longitude_centre":"6.4223","distance_km":2.61},{"id":0,"code_insee":"54455","nom_standard":"Remenoville","nom_a":null,"nom_de":null,"slug_ville":"remenoville","departement_id":0,"code_postal":"54830","population":157,"superficie_km2":"849.39","latitude_centre":"48.4659","longitude_centre":"6.4727","distance_km":2.93},{"id":24579,"code_insee":"54175","nom_standard":"Einvaux","nom_a":null,"nom_de":null,"slug_ville":"einvaux","departement_id":0,"code_postal":"54360","population":338,"superficie_km2":"744.28","latitude_centre":"48.495","longitude_centre":"6.3929","distance_km":3.8},{"id":24646,"code_insee":"54255","nom_standard":"Haudonville","nom_a":null,"nom_de":null,"slug_ville":"haudonville","departement_id":0,"code_postal":"54830","population":82,"superficie_km2":"759.84","latitude_centre":"48.5033","longitude_centre":"6.4779","distance_km":3.84},{"id":0,"code_insee":"54467","nom_standard":"Rozelieures","nom_a":null,"nom_de":null,"slug_ville":"rozelieures","departement_id":0,"code_postal":"54290","population":185,"superficie_km2":"947.36","latitude_centre":"48.4436","longitude_centre":"6.4316","distance_km":4.1},{"id":0,"code_insee":"54561","nom_standard":"Vennezey","nom_a":null,"nom_de":null,"slug_ville":"vennezey","departement_id":0,"code_postal":"54830","population":37,"superficie_km2":"346.36","latitude_centre":"48.4428","longitude_centre":"6.4598","distance_km":4.41},{"id":24671,"code_insee":"54292","nom_standard":"Lamath","nom_a":null,"nom_de":null,"slug_ville":"lamath","departement_id":0,"code_postal":"54300","population":180,"superficie_km2":"560.37","latitude_centre":"48.522","longitude_centre":"6.4388","distance_km":4.66},{"id":24511,"code_insee":"54085","nom_standard":"Borville","nom_a":null,"nom_de":null,"slug_ville":"borville","departement_id":0,"code_postal":"54290","population":83,"superficie_km2":"476.34","latitude_centre":"48.446","longitude_centre":"6.3953","distance_km":4.99},{"id":0,"code_insee":"54222","nom_standard":"Gerbéviller","nom_a":null,"nom_de":null,"slug_ville":"gerbeviller","departement_id":0,"code_postal":"54830","population":1316,"superficie_km2":"2377.62","latitude_centre":"48.4922","longitude_centre":"6.5102","distance_km":5.4},{"id":24720,"code_insee":"54359","nom_standard":"Méhoncourt","nom_a":null,"nom_de":null,"slug_ville":"mehoncourt","departement_id":0,"code_postal":"54360","population":240,"superficie_km2":"786.95","latitude_centre":"48.5109","longitude_centre":"6.3819","distance_km":5.44},{"id":24612,"code_insee":"54216","nom_standard":"Froville","nom_a":null,"nom_de":null,"slug_ville":"froville","departement_id":0,"code_postal":"54290","population":119,"superficie_km2":"588.81","latitude_centre":"48.4679","longitude_centre":"6.3627","distance_km":5.81},{"id":24622,"code_insee":"54228","nom_standard":"Giriviller","nom_a":null,"nom_de":null,"slug_ville":"giriviller","departement_id":0,"code_postal":"54830","population":71,"superficie_km2":"773.12","latitude_centre":"48.4343","longitude_centre":"6.4955","distance_km":6.57},{"id":24586,"code_insee":"54183","nom_standard":"Essey-la-Côte","nom_a":null,"nom_de":null,"slug_ville":"essey-la-cote","departement_id":0,"code_postal":"54830","population":76,"superficie_km2":"667.99","latitude_centre":"48.4231","longitude_centre":"6.4718","distance_km":6.78},{"id":24540,"code_insee":"54121","nom_standard":"Charmois","nom_a":null,"nom_de":null,"slug_ville":"charmois","departement_id":0,"code_postal":"54360","population":201,"superficie_km2":"547.33","latitude_centre":"48.5341","longitude_centre":"6.3908","distance_km":6.99},{"id":0,"code_insee":"54471","nom_standard":"Saint-Boingt","nom_a":null,"nom_de":null,"slug_ville":"saint-boingt","departement_id":0,"code_postal":"54290","population":76,"superficie_km2":"822.44","latitude_centre":"48.4162","longitude_centre":"6.4271","distance_km":7.16},{"id":0,"code_insee":"54595","nom_standard":"Xermaménil","nom_a":null,"nom_de":null,"slug_ville":"xermamenil","departement_id":0,"code_postal":"54300","population":539,"superficie_km2":"1084.30","latitude_centre":"48.5398","longitude_centre":"6.4805","distance_km":7.3},{"id":0,"code_insee":"54383","nom_standard":"Mont-sur-Meurthe","nom_a":null,"nom_de":null,"slug_ville":"mont-sur-meurthe","departement_id":0,"code_postal":"54360","population":1135,"superficie_km2":"964.91","latitude_centre":"48.5489","longitude_centre":"6.4453","distance_km":7.66},{"id":0,"code_insee":"54076","nom_standard":"Blainville-sur-l'Eau","nom_a":null,"nom_de":null,"slug_ville":"blainville-sur-l-eau","departement_id":0,"code_postal":"54360","population":3893,"superficie_km2":"1188.71","latitude_centre":"48.5499","longitude_centre":"6.4158","distance_km":7.95}]}