{"ville":{"id":19376,"code_insee":"32291","nom_standard":"Mormès","nom_a":null,"nom_de":null,"slug_ville":"mormes","departement_id":0,"code_postal":"32240","population":107,"superficie_km2":"917.85","latitude_centre":"43.7965","longitude_centre":"-0.1517","dep_code":"32","dep_nom":"Gers","dep_slug":"gers","reg_code":"76","reg_nom":"Occitanie","reg_slug":"occitanie"},"departement":{"code":"32","nom":"Gers","slug":"gers"},"region":{"code":"76","nom":"Occitanie","slug":"occitanie"},"villes_proches":[{"id":0,"code_insee":"32310","nom_standard":"Perchède","nom_a":null,"nom_de":null,"slug_ville":"perchede","departement_id":0,"code_postal":"32460","population":104,"superficie_km2":"530.02","latitude_centre":"43.7774","longitude_centre":"-0.1412","distance_km":2.28},{"id":19297,"code_insee":"32202","nom_standard":"Laujuzan","nom_a":null,"nom_de":null,"slug_ville":"laujuzan","departement_id":0,"code_postal":"32110","population":294,"superficie_km2":"1145.51","latitude_centre":"43.8035","longitude_centre":"-0.1167","distance_km":2.91},{"id":19360,"code_insee":"32274","nom_standard":"Monlezun-d'Armagnac","nom_a":null,"nom_de":null,"slug_ville":"monlezun-d-armagnac","departement_id":0,"code_postal":"32240","population":188,"superficie_km2":"650.10","latitude_centre":"43.8272","longitude_centre":"-0.1492","distance_km":3.42},{"id":0,"code_insee":"32155","nom_standard":"Le Houga","nom_a":null,"nom_de":null,"slug_ville":"le-houga","departement_id":0,"code_postal":"32460","population":1202,"superficie_km2":"3187.97","latitude_centre":"43.773","longitude_centre":"-0.1836","distance_km":3.66},{"id":0,"code_insee":"32449","nom_standard":"Toujouse","nom_a":null,"nom_de":null,"slug_ville":"toujouse","departement_id":0,"code_postal":"32240","population":293,"superficie_km2":"1483.34","latitude_centre":"43.8229","longitude_centre":"-0.1826","distance_km":3.84},{"id":19315,"code_insee":"32222","nom_standard":"Magnan","nom_a":null,"nom_de":null,"slug_ville":"magnan","departement_id":0,"code_postal":"32110","population":230,"superficie_km2":"1141.68","latitude_centre":"43.7632","longitude_centre":"-0.1141","distance_km":4.78},{"id":19337,"code_insee":"32246","nom_standard":"Maupas","nom_a":null,"nom_de":null,"slug_ville":"maupas","departement_id":0,"code_postal":"32240","population":198,"superficie_km2":"986.52","latitude_centre":"43.844","longitude_centre":"-0.1295","distance_km":5.57},{"id":19201,"code_insee":"32094","nom_standard":"Caupenne-d'Armagnac","nom_a":null,"nom_de":null,"slug_ville":"caupenne-d-armagnac","departement_id":0,"code_postal":"32110","population":446,"superficie_km2":"2166.58","latitude_centre":"43.7864","longitude_centre":"-0.0701","distance_km":6.65},{"id":0,"code_insee":"40052","nom_standard":"Bourdalat","nom_a":null,"nom_de":null,"slug_ville":"bourdalat","departement_id":0,"code_postal":"40190","population":204,"superficie_km2":"1416.96","latitude_centre":"43.8321","longitude_centre":"-0.2191","distance_km":6.7},{"id":0,"code_insee":"32305","nom_standard":"Panjas","nom_a":null,"nom_de":null,"slug_ville":"panjas","departement_id":0,"code_postal":"32110","population":431,"superficie_km2":"1995.92","latitude_centre":"43.827","longitude_centre":"-0.0792","distance_km":6.73},{"id":19313,"code_insee":"32220","nom_standard":"Luppé-Violles","nom_a":null,"nom_de":null,"slug_ville":"luppe-violles","departement_id":0,"code_postal":"32110","population":133,"superficie_km2":"767.03","latitude_centre":"43.7351","longitude_centre":"-0.1399","distance_km":6.89},{"id":0,"code_insee":"40166","nom_standard":"Lussagnet","nom_a":null,"nom_de":null,"slug_ville":"lussagnet","departement_id":0,"code_postal":"40270","population":80,"superficie_km2":"846.12","latitude_centre":"43.772","longitude_centre":"-0.2345","distance_km":7.18},{"id":19357,"code_insee":"32271","nom_standard":"Monguilhem","nom_a":null,"nom_de":null,"slug_ville":"monguilhem","departement_id":0,"code_postal":"32240","population":282,"superficie_km2":"578.48","latitude_centre":"43.8557","longitude_centre":"-0.1882","distance_km":7.2},{"id":19286,"code_insee":"32191","nom_standard":"Lanne-Soubiran","nom_a":null,"nom_de":null,"slug_ville":"lanne-soubiran","departement_id":0,"code_postal":"32110","population":141,"superficie_km2":"680.08","latitude_centre":"43.7404","longitude_centre":"-0.1031","distance_km":7.36},{"id":19194,"code_insee":"32087","nom_standard":"Castex-d'Armagnac","nom_a":null,"nom_de":null,"slug_ville":"castex-d-armagnac","departement_id":0,"code_postal":"32240","population":144,"superficie_km2":"1235.73","latitude_centre":"43.8669","longitude_centre":"-0.1681","distance_km":7.94},{"id":0,"code_insee":"32460","nom_standard":"Vergoignan","nom_a":null,"nom_de":null,"slug_ville":"vergoignan","departement_id":0,"code_postal":"32720","population":324,"superficie_km2":"1055.80","latitude_centre":"43.7243","longitude_centre":"-0.1899","distance_km":8.59},{"id":0,"code_insee":"32380","nom_standard":"Saint-Griède","nom_a":null,"nom_de":null,"slug_ville":"saint-griede","departement_id":0,"code_postal":"32110","population":142,"superficie_km2":"762.77","latitude_centre":"43.7249","longitude_centre":"-0.0969","distance_km":9.1},{"id":19231,"code_insee":"32127","nom_standard":"Estang","nom_a":null,"nom_de":null,"slug_ville":"estang","departement_id":0,"code_postal":"32240","population":668,"superficie_km2":"2281.65","latitude_centre":"43.8761","longitude_centre":"-0.1043","distance_km":9.63},{"id":0,"code_insee":"40193","nom_standard":"Montégut","nom_a":null,"nom_de":null,"slug_ville":"montegut","departement_id":0,"code_postal":"40190","population":79,"superficie_km2":"478.14","latitude_centre":"43.8747","longitude_centre":"-0.2042","distance_km":9.66},{"id":19303,"code_insee":"32209","nom_standard":"Lelin-Lapujolle","nom_a":null,"nom_de":null,"slug_ville":"lelin-lapujolle","departement_id":0,"code_postal":"32400","population":273,"superficie_km2":"1356.50","latitude_centre":"43.7086","longitude_centre":"-0.1391","distance_km":9.83}]}