{"ville":{"id":6219,"code_insee":"61293","nom_standard":"Mortagne-au-Perche","nom_a":null,"nom_de":null,"slug_ville":"mortagne-au-perche","departement_id":662,"code_postal":"61400","population":3815,"superficie_km2":"9.00","latitude_centre":"48.5200005","longitude_centre":"0.5610000","dep_code":"61","dep_nom":"Orne","dep_slug":"orne","reg_code":"14","reg_nom":"Normandie","reg_slug":"normandie"},"departement":{"code":"61","nom":"Orne","slug":"orne"},"region":{"code":"14","nom":"Normandie","slug":"normandie"},"villes_proches":[{"id":6244,"code_insee":"61491","nom_standard":"Tourouvre au Perche","nom_a":null,"nom_de":null,"slug_ville":"tourouvre-au-perche","departement_id":662,"code_postal":"61190","population":3023,"superficie_km2":"24.00","latitude_centre":"48.5890007","longitude_centre":"0.6600000","distance_km":10.58},{"id":6214,"code_insee":"61230","nom_standard":"Longny les Villages","nom_a":null,"nom_de":null,"slug_ville":"longny-les-villages","departement_id":662,"code_postal":"61290","population":2878,"superficie_km2":"40.00","latitude_centre":"48.5289993","longitude_centre":"0.7580000","distance_km":14.54},{"id":6191,"code_insee":"61038","nom_standard":"Bellême","nom_a":null,"nom_de":null,"slug_ville":"belleme","departement_id":662,"code_postal":"61130","population":1456,"superficie_km2":"2.00","latitude_centre":"48.3730011","longitude_centre":"0.5630000","distance_km":16.35},{"id":6210,"code_insee":"61196","nom_standard":"Belforêt-en-Perche","nom_a":null,"nom_de":null,"slug_ville":"belforet-en-perche","departement_id":662,"code_postal":"61130","population":1491,"superficie_km2":"19.00","latitude_centre":"48.3720017","longitude_centre":"0.5100000","distance_km":16.88},{"id":6227,"code_insee":"61345","nom_standard":"Rémalard en Perche","nom_a":null,"nom_de":null,"slug_ville":"remalard-en-perche","departement_id":662,"code_postal":"61110","population":1896,"superficie_km2":"21.00","latitude_centre":"48.4500008","longitude_centre":"0.7790000","distance_km":17.85},{"id":6221,"code_insee":"61309","nom_standard":"Perche en Nocé","nom_a":null,"nom_de":null,"slug_ville":"perche-en-noce","departement_id":662,"code_postal":"61340","population":2001,"superficie_km2":"21.00","latitude_centre":"48.3810005","longitude_centre":"0.6870000","distance_km":18.03},{"id":6231,"code_insee":"61389","nom_standard":"Sainte-Gauburge-Sainte-Colombe","nom_a":null,"nom_de":null,"slug_ville":"sainte-gauburge-sainte-colombe","departement_id":662,"code_postal":"61370","population":1017,"superficie_km2":"21.00","latitude_centre":"48.7080002","longitude_centre":"0.4440000","distance_km":22.6},{"id":6193,"code_insee":"61043","nom_standard":"Berd'huis","nom_a":null,"nom_de":null,"slug_ville":"berd-huis","departement_id":662,"code_postal":"61340","population":1094,"superficie_km2":"11.00","latitude_centre":"48.3499985","longitude_centre":"0.7400000","distance_km":23.06},{"id":7576,"code_insee":"72180","nom_standard":"Mamers","nom_a":null,"nom_de":null,"slug_ville":"mamers","departement_id":673,"code_postal":"72600","population":5103,"superficie_km2":"5.00","latitude_centre":"48.3540001","longitude_centre":"0.3710000","distance_km":23.18},{"id":6190,"code_insee":"61008","nom_standard":"Aube","nom_a":null,"nom_de":null,"slug_ville":"aube","departement_id":662,"code_postal":"61270","population":1247,"superficie_km2":"6.00","latitude_centre":"48.7319984","longitude_centre":"0.5460000","distance_km":23.6},{"id":7559,"code_insee":"72137","nom_standard":"Villeneuve-en-Perseigne","nom_a":null,"nom_de":null,"slug_ville":"villeneuve-en-perseigne","departement_id":673,"code_postal":"72600","population":2203,"superficie_km2":"31.00","latitude_centre":"48.4379997","longitude_centre":"0.2370000","distance_km":25.56},{"id":6225,"code_insee":"61342","nom_standard":"Rai","nom_a":null,"nom_de":null,"slug_ville":"rai","departement_id":662,"code_postal":"61270","population":1427,"superficie_km2":"16.00","latitude_centre":"48.7560005","longitude_centre":"0.5630000","distance_km":26.24},{"id":6212,"code_insee":"61214","nom_standard":"L'Aigle","nom_a":null,"nom_de":null,"slug_ville":"l-aigle","departement_id":662,"code_postal":"61300","population":7824,"superficie_km2":"18.00","latitude_centre":"48.7560005","longitude_centre":"0.6110000","distance_km":26.5},{"id":6194,"code_insee":"61061","nom_standard":"Bretoncelles","nom_a":null,"nom_de":null,"slug_ville":"bretoncelles","departement_id":662,"code_postal":"61110","population":1469,"superficie_km2":"40.00","latitude_centre":"48.4360008","longitude_centre":"0.9010000","distance_km":26.75},{"id":6200,"code_insee":"61116","nom_standard":"Sablons sur Huisne","nom_a":null,"nom_de":null,"slug_ville":"sablons-sur-huisne","departement_id":662,"code_postal":"61110","population":1983,"superficie_km2":"18.00","latitude_centre":"48.3790016","longitude_centre":"0.8650000","distance_km":27.36},{"id":7588,"code_insee":"72215","nom_standard":"Neufchâtel-en-Saosnois","nom_a":null,"nom_de":null,"slug_ville":"neufchatel-en-saosnois","departement_id":673,"code_postal":"72600","population":1043,"superficie_km2":"23.00","latitude_centre":"48.3880005","longitude_centre":"0.2450000","distance_km":27.54},{"id":7607,"code_insee":"72276","nom_standard":"Saint-Cosme-en-Vairais","nom_a":null,"nom_de":null,"slug_ville":"saint-cosme-en-vairais","departement_id":673,"code_postal":"72110","population":1888,"superficie_km2":"33.00","latitude_centre":"48.2739983","longitude_centre":"0.4580000","distance_km":28.39},{"id":2177,"code_insee":"28280","nom_standard":"Nogent-le-Rotrou","nom_a":null,"nom_de":null,"slug_ville":"nogent-le-rotrou","departement_id":629,"code_postal":"28400","population":9341,"superficie_km2":"23.00","latitude_centre":"48.3180008","longitude_centre":"0.8040000","distance_km":28.74},{"id":6242,"code_insee":"61484","nom_standard":"Val-au-Perche","nom_a":null,"nom_de":null,"slug_ville":"val-au-perche","departement_id":662,"code_postal":"61130","population":3369,"superficie_km2":"10.00","latitude_centre":"48.2680016","longitude_centre":"0.6510000","distance_km":28.8},{"id":2171,"code_insee":"28236","nom_standard":"Arcisses","nom_a":null,"nom_de":null,"slug_ville":"arcisses","departement_id":629,"code_postal":"28400","population":2200,"superficie_km2":"12.00","latitude_centre":"48.3370018","longitude_centre":"0.8510000","distance_km":29.53}]}