{"ville":{"id":25806,"code_insee":"57486","nom_standard":"Morville-sur-Nied","nom_a":null,"nom_de":null,"slug_ville":"morville-sur-nied","departement_id":0,"code_postal":"57590","population":121,"superficie_km2":"577.17","latitude_centre":"48.9482","longitude_centre":"6.4283","dep_code":"57","dep_nom":"Moselle","dep_slug":"moselle","reg_code":"44","reg_nom":"Grand Est","reg_slug":"grand-est"},"departement":{"code":"57","nom":"Moselle","slug":"moselle"},"region":{"code":"44","nom":"Grand Est","slug":"grand-est"},"villes_proches":[{"id":0,"code_insee":"57671","nom_standard":"Thimonville","nom_a":null,"nom_de":null,"slug_ville":"thimonville","departement_id":0,"code_postal":"57580","population":133,"superficie_km2":"737.13","latitude_centre":"48.9448","longitude_centre":"6.3953","distance_km":2.44},{"id":0,"code_insee":"57609","nom_standard":"Saint-Epvre","nom_a":null,"nom_de":null,"slug_ville":"saint-epvre","departement_id":0,"code_postal":"57580","population":177,"superficie_km2":"463.06","latitude_centre":"48.9703","longitude_centre":"6.4302","distance_km":2.46},{"id":0,"code_insee":"57555","nom_standard":"Prévocourt","nom_a":null,"nom_de":null,"slug_ville":"prevocourt","departement_id":0,"code_postal":"57590","population":105,"superficie_km2":"678.13","latitude_centre":"48.9253","longitude_centre":"6.4358","distance_km":2.6},{"id":25493,"code_insee":"57054","nom_standard":"Baudrecourt","nom_a":null,"nom_de":null,"slug_ville":"baudrecourt","departement_id":0,"code_postal":"57580","population":173,"superficie_km2":"505.51","latitude_centre":"48.9609","longitude_centre":"6.4585","distance_km":2.62},{"id":25486,"code_insee":"57045","nom_standard":"Bacourt","nom_a":null,"nom_de":null,"slug_ville":"bacourt","departement_id":0,"code_postal":"57590","population":114,"superficie_km2":"395.49","latitude_centre":"48.9292","longitude_centre":"6.4044","distance_km":2.74},{"id":25611,"code_insee":"57220","nom_standard":"Flocourt","nom_a":null,"nom_de":null,"slug_ville":"flocourt","departement_id":0,"code_postal":"57580","population":135,"superficie_km2":"452.46","latitude_centre":"48.9719","longitude_centre":"6.412","distance_km":2.89},{"id":0,"code_insee":"57676","nom_standard":"Tragny","nom_a":null,"nom_de":null,"slug_ville":"tragny","departement_id":0,"code_postal":"57580","population":87,"superficie_km2":"541.96","latitude_centre":"48.9562","longitude_centre":"6.3806","distance_km":3.59},{"id":25766,"code_insee":"57424","nom_standard":"Lucy","nom_a":null,"nom_de":null,"slug_ville":"lucy","departement_id":0,"code_postal":"57590","population":224,"superficie_km2":"750.44","latitude_centre":"48.9412","longitude_centre":"6.4781","distance_km":3.72},{"id":25662,"code_insee":"57292","nom_standard":"Hannocourt","nom_a":null,"nom_de":null,"slug_ville":"hannocourt","departement_id":0,"code_postal":"57590","population":15,"superficie_km2":"417.49","latitude_centre":"48.915","longitude_centre":"6.4521","distance_km":4.08},{"id":25620,"code_insee":"57236","nom_standard":"Frémery","nom_a":null,"nom_de":null,"slug_ville":"fremery","departement_id":0,"code_postal":"57590","population":87,"superficie_km2":"448.63","latitude_centre":"48.9217","longitude_centre":"6.4693","distance_km":4.2},{"id":25663,"code_insee":"57293","nom_standard":"Han-sur-Nied","nom_a":null,"nom_de":null,"slug_ville":"han-sur-nied","departement_id":0,"code_postal":"57580","population":249,"superficie_km2":"201.73","latitude_centre":"48.9888","longitude_centre":"6.4449","distance_km":4.67},{"id":25557,"code_insee":"57138","nom_standard":"Chenois","nom_a":null,"nom_de":null,"slug_ville":"chenois","departement_id":0,"code_postal":"57580","population":79,"superficie_km2":"357.27","latitude_centre":"48.958","longitude_centre":"6.4912","distance_km":4.72},{"id":0,"code_insee":"57698","nom_standard":"Vatimont","nom_a":null,"nom_de":null,"slug_ville":"vatimont","departement_id":0,"code_postal":"57580","population":306,"superficie_km2":"802.68","latitude_centre":"48.9775","longitude_centre":"6.4759","distance_km":4.76},{"id":25496,"code_insee":"57057","nom_standard":"Béchy","nom_a":null,"nom_de":null,"slug_ville":"bechy","departement_id":0,"code_postal":"57580","population":615,"superficie_km2":"957.81","latitude_centre":"48.9836","longitude_centre":"6.3905","distance_km":4.81},{"id":0,"code_insee":"57674","nom_standard":"Tincry","nom_a":null,"nom_de":null,"slug_ville":"tincry","departement_id":0,"code_postal":"57590","population":169,"superficie_km2":"844.11","latitude_centre":"48.9077","longitude_centre":"6.4049","distance_km":4.82},{"id":25713,"code_insee":"57354","nom_standard":"Juville","nom_a":null,"nom_de":null,"slug_ville":"juville","departement_id":0,"code_postal":"57590","population":146,"superficie_km2":"613.78","latitude_centre":"48.9295","longitude_centre":"6.3589","distance_km":5.48},{"id":0,"code_insee":"57755","nom_standard":"Xocourt","nom_a":null,"nom_de":null,"slug_ville":"xocourt","departement_id":0,"code_postal":"57590","population":99,"superficie_km2":"490.13","latitude_centre":"48.9111","longitude_centre":"6.3767","distance_km":5.59},{"id":0,"code_insee":"57727","nom_standard":"Viviers","nom_a":null,"nom_de":null,"slug_ville":"viviers","departement_id":0,"code_postal":"57590","population":120,"superficie_km2":"737.28","latitude_centre":"48.8949","longitude_centre":"6.4378","distance_km":5.97},{"id":25462,"code_insee":"57007","nom_standard":"Adaincourt","nom_a":null,"nom_de":null,"slug_ville":"adaincourt","departement_id":0,"code_postal":"57580","population":135,"superficie_km2":"341.41","latitude_centre":"49.0064","longitude_centre":"6.4445","distance_km":6.58},{"id":25586,"code_insee":"57182","nom_standard":"Donjeux","nom_a":null,"nom_de":null,"slug_ville":"donjeux","departement_id":0,"code_postal":"57590","population":92,"superficie_km2":"322.22","latitude_centre":"48.8792","longitude_centre":"6.4116","distance_km":7.77}]}