{"ville":{"id":20439,"code_insee":"37161","nom_standard":"Mosnes","nom_a":null,"nom_de":null,"slug_ville":"mosnes","departement_id":0,"code_postal":"37530","population":812,"superficie_km2":"1439.33","latitude_centre":"47.4469","longitude_centre":"1.0987","dep_code":"37","dep_nom":"Indre-et-Loire","dep_slug":"indre-et-loire","reg_code":"24","reg_nom":"Centre-Val de Loire","reg_slug":"centre-val-de-loire"},"departement":{"code":"37","nom":"Indre-et-Loire","slug":"indre-et-loire"},"region":{"code":"24","nom":"Centre-Val de Loire","slug":"centre-val-de-loire"},"villes_proches":[{"id":0,"code_insee":"41189","nom_standard":"Rilly-sur-Loire","nom_a":null,"nom_de":null,"slug_ville":"rilly-sur-loire","departement_id":0,"code_postal":"41150","population":445,"superficie_km2":"1020.93","latitude_centre":"47.4577","longitude_centre":"1.1409","distance_km":3.39},{"id":0,"code_insee":"41144","nom_standard":"Monteaux","nom_a":null,"nom_de":null,"slug_ville":"monteaux","departement_id":0,"code_postal":"41150","population":729,"superficie_km2":"623.34","latitude_centre":"47.4842","longitude_centre":"1.1084","distance_km":4.21},{"id":0,"code_insee":"37060","nom_standard":"Chargé","nom_a":null,"nom_de":null,"slug_ville":"charge","departement_id":0,"code_postal":"37530","population":1359,"superficie_km2":"851.13","latitude_centre":"47.4319","longitude_centre":"1.0417","distance_km":4.6},{"id":0,"code_insee":"37131","nom_standard":"Limeray","nom_a":null,"nom_de":null,"slug_ville":"limeray","departement_id":0,"code_postal":"37530","population":1252,"superficie_km2":"1384.52","latitude_centre":"47.4602","longitude_centre":"1.0342","distance_km":5.07},{"id":0,"code_insee":"41267","nom_standard":"Vallières-les-Grandes","nom_a":null,"nom_de":null,"slug_ville":"vallieres-les-grandes","departement_id":0,"code_postal":"41400","population":943,"superficie_km2":"4078.16","latitude_centre":"47.409","longitude_centre":"1.1431","distance_km":5.38},{"id":0,"code_insee":"37252","nom_standard":"Souvigny-de-Touraine","nom_a":null,"nom_de":null,"slug_ville":"souvigny-de-touraine","departement_id":0,"code_postal":"37530","population":380,"superficie_km2":"2584.28","latitude_centre":"47.3997","longitude_centre":"1.0825","distance_km":5.39},{"id":0,"code_insee":"37043","nom_standard":"Cangey","nom_a":null,"nom_de":null,"slug_ville":"cangey","departement_id":0,"code_postal":"37530","population":1021,"superficie_km2":"2278.81","latitude_centre":"47.4901","longitude_centre":"1.0651","distance_km":5.43},{"id":0,"code_insee":"37236","nom_standard":"Saint-Règle","nom_a":null,"nom_de":null,"slug_ville":"saint-regle","departement_id":0,"code_postal":"37530","population":599,"superficie_km2":"632.23","latitude_centre":"47.4102","longitude_centre":"1.0321","distance_km":6.46},{"id":0,"code_insee":"41045","nom_standard":"Chaumont-sur-Loire","nom_a":null,"nom_de":null,"slug_ville":"chaumont-sur-loire","departement_id":0,"code_postal":"41150","population":1096,"superficie_km2":"2677.08","latitude_centre":"47.4647","longitude_centre":"1.1966","distance_km":7.62},{"id":0,"code_insee":"41167","nom_standard":"Veuzain-sur-Loire","nom_a":null,"nom_de":null,"slug_ville":"veuzain-sur-loire","departement_id":0,"code_postal":"41150","population":3333,"superficie_km2":"3811.98","latitude_centre":"47.5079","longitude_centre":"1.15","distance_km":7.8},{"id":0,"code_insee":"41137","nom_standard":"Mesland","nom_a":null,"nom_de":null,"slug_ville":"mesland","departement_id":0,"code_postal":"41150","population":539,"superficie_km2":"2664.38","latitude_centre":"47.5196","longitude_centre":"1.0944","distance_km":8.09},{"id":0,"code_insee":"37230","nom_standard":"Saint-Ouen-les-Vignes","nom_a":null,"nom_de":null,"slug_ville":"saint-ouen-les-vignes","departement_id":0,"code_postal":"37530","population":963,"superficie_km2":"1892.21","latitude_centre":"47.4821","longitude_centre":"0.9989","distance_km":8.46},{"id":0,"code_insee":"37185","nom_standard":"Pocé-sur-Cisse","nom_a":null,"nom_de":null,"slug_ville":"poce-sur-cisse","departement_id":0,"code_postal":"37530","population":1711,"superficie_km2":"1082.51","latitude_centre":"47.442","longitude_centre":"0.9833","distance_km":8.7},{"id":0,"code_insee":"37003","nom_standard":"Amboise","nom_a":null,"nom_de":null,"slug_ville":"amboise","departement_id":0,"code_postal":"37400","population":12937,"superficie_km2":"4099.07","latitude_centre":"47.3967","longitude_centre":"0.9989","distance_km":9.36},{"id":0,"code_insee":"41051","nom_standard":"Chissay-en-Touraine","nom_a":null,"nom_de":null,"slug_ville":"chissay-en-touraine","departement_id":0,"code_postal":"41400","population":1100,"superficie_km2":"1830.94","latitude_centre":"47.3573","longitude_centre":"1.1369","distance_km":10.37},{"id":20384,"code_insee":"37073","nom_standard":"Chisseaux","nom_a":null,"nom_de":null,"slug_ville":"chisseaux","departement_id":0,"code_postal":"37150","population":610,"superficie_km2":"1173.56","latitude_centre":"47.3501","longitude_centre":"1.0998","distance_km":10.76},{"id":20345,"code_insee":"37009","nom_standard":"Autrèche","nom_a":null,"nom_de":null,"slug_ville":"autreche","departement_id":0,"code_postal":"37110","population":419,"superficie_km2":"2072.69","latitude_centre":"47.5216","longitude_centre":"1.0028","distance_km":11.0},{"id":20382,"code_insee":"37070","nom_standard":"Chenonceaux","nom_a":null,"nom_de":null,"slug_ville":"chenonceaux","departement_id":0,"code_postal":"37150","population":334,"superficie_km2":"428.29","latitude_centre":"47.3436","longitude_centre":"1.0701","distance_km":11.69},{"id":20400,"code_insee":"37095","nom_standard":"Dame-Marie-les-Bois","nom_a":null,"nom_de":null,"slug_ville":"dame-marie-les-bois","departement_id":0,"code_postal":"37110","population":343,"superficie_km2":"900.08","latitude_centre":"47.5502","longitude_centre":"1.0489","distance_km":12.08},{"id":0,"code_insee":"41234","nom_standard":"Santenay","nom_a":null,"nom_de":null,"slug_ville":"santenay","departement_id":0,"code_postal":"41190","population":296,"superficie_km2":"3052.77","latitude_centre":"47.5658","longitude_centre":"1.0998","distance_km":13.22}]}