{"ville":{"id":437,"code_insee":"06084","nom_standard":"Mouans-Sartoux","nom_a":null,"nom_de":null,"slug_ville":"mouans-sartoux","departement_id":606,"code_postal":"06370","population":10531,"superficie_km2":"13.00","latitude_centre":"43.6180000","longitude_centre":"6.9650002","dep_code":"06","dep_nom":"Alpes-Maritimes","dep_slug":"alpes-maritimes","reg_code":"18","reg_nom":"Provence-Alpes-Côte d'Azur","reg_slug":"provence-alpes-cote-d-azur"},"departement":{"code":"06","nom":"Alpes-Maritimes","slug":"alpes-maritimes"},"region":{"code":"18","nom":"Provence-Alpes-Côte d'Azur","slug":"provence-alpes-cote-d-azur"},"villes_proches":[{"id":438,"code_insee":"06085","nom_standard":"Mougins","nom_a":null,"nom_de":null,"slug_ville":"mougins","departement_id":606,"code_postal":"06250","population":19677,"superficie_km2":"26.00","latitude_centre":"43.5960007","longitude_centre":"7.0009999","distance_km":3.79},{"id":449,"code_insee":"06108","nom_standard":"La Roquette-sur-Siagne","nom_a":null,"nom_de":null,"slug_ville":"la-roquette-sur-siagne","departement_id":606,"code_postal":"06550","population":5436,"superficie_km2":"6.00","latitude_centre":"43.5849991","longitude_centre":"6.9499998","distance_km":3.86},{"id":401,"code_insee":"06007","nom_standard":"Auribeau-sur-Siagne","nom_a":null,"nom_de":null,"slug_ville":"auribeau-sur-siagne","departement_id":606,"code_postal":"06810","population":3251,"superficie_km2":"5.00","latitude_centre":"43.6119995","longitude_centre":"6.9120002","distance_km":4.32},{"id":441,"code_insee":"06090","nom_standard":"Pégomas","nom_a":null,"nom_de":null,"slug_ville":"pegomas","departement_id":606,"code_postal":"06580","population":8045,"superficie_km2":"11.00","latitude_centre":"43.5870018","longitude_centre":"6.9219999","distance_km":4.89},{"id":431,"code_insee":"06069","nom_standard":"Grasse","nom_a":null,"nom_de":null,"slug_ville":"grasse","departement_id":606,"code_postal":"06130","population":48323,"superficie_km2":"44.00","latitude_centre":"43.6559982","longitude_centre":"6.9320002","distance_km":4.99},{"id":471,"code_insee":"06152","nom_standard":"Valbonne","nom_a":null,"nom_de":null,"slug_ville":"valbonne","departement_id":606,"code_postal":"06560","population":12754,"superficie_km2":"20.00","latitude_centre":"43.6279984","longitude_centre":"7.0300002","distance_km":5.35},{"id":419,"code_insee":"06038","nom_standard":"Châteauneuf-Grasse","nom_a":null,"nom_de":null,"slug_ville":"chateauneuf-grasse","departement_id":606,"code_postal":"06740","population":3716,"superficie_km2":"9.00","latitude_centre":"43.6660004","longitude_centre":"6.9790001","distance_km":5.45},{"id":440,"code_insee":"06089","nom_standard":"Opio","nom_a":null,"nom_de":null,"slug_ville":"opio","departement_id":606,"code_postal":"06650","population":2393,"superficie_km2":"9.00","latitude_centre":"43.6580010","longitude_centre":"7.0089998","distance_km":5.69},{"id":413,"code_insee":"06030","nom_standard":"Le Cannet","nom_a":null,"nom_de":null,"slug_ville":"le-cannet","departement_id":606,"code_postal":"06110","population":41597,"superficie_km2":"8.00","latitude_centre":"43.5730019","longitude_centre":"7.0060000","distance_km":5.99},{"id":444,"code_insee":"06095","nom_standard":"Peymeinade","nom_a":null,"nom_de":null,"slug_ville":"peymeinade","departement_id":606,"code_postal":"06530","population":8256,"superficie_km2":"10.00","latitude_centre":"43.6300011","longitude_centre":"6.8820000","distance_km":6.81},{"id":450,"code_insee":"06112","nom_standard":"Le Rouret","nom_a":null,"nom_de":null,"slug_ville":"le-rouret","departement_id":606,"code_postal":"06650","population":4157,"superficie_km2":"7.00","latitude_centre":"43.6800003","longitude_centre":"7.0100002","distance_km":7.79},{"id":412,"code_insee":"06029","nom_standard":"Cannes","nom_a":null,"nom_de":null,"slug_ville":"cannes","departement_id":606,"code_postal":"06150","population":73255,"superficie_km2":"21.00","latitude_centre":"43.5530014","longitude_centre":"7.0040002","distance_km":7.88},{"id":410,"code_insee":"06026","nom_standard":"Cabris","nom_a":null,"nom_de":null,"slug_ville":"cabris","departement_id":606,"code_postal":"06530","population":1393,"superficie_km2":"5.00","latitude_centre":"43.6599999","longitude_centre":"6.8779998","distance_km":8.42},{"id":472,"code_insee":"06155","nom_standard":"Vallauris","nom_a":null,"nom_de":null,"slug_ville":"vallauris","departement_id":606,"code_postal":"06220","population":28025,"superficie_km2":"13.00","latitude_centre":"43.5769997","longitude_centre":"7.0580001","distance_km":8.77},{"id":402,"code_insee":"06010","nom_standard":"Le Bar-sur-Loup","nom_a":null,"nom_de":null,"slug_ville":"le-bar-sur-loup","departement_id":606,"code_postal":"06620","population":2947,"superficie_km2":"14.00","latitude_centre":"43.6990013","longitude_centre":"6.9629998","distance_km":9.01},{"id":466,"code_insee":"06140","nom_standard":"Le Tignet","nom_a":null,"nom_de":null,"slug_ville":"le-tignet","departement_id":606,"code_postal":"06530","population":3105,"superficie_km2":"11.00","latitude_centre":"43.6240006","longitude_centre":"6.8530002","distance_km":9.04},{"id":448,"code_insee":"06105","nom_standard":"Roquefort-les-Pins","nom_a":null,"nom_de":null,"slug_ville":"roquefort-les-pins","departement_id":606,"code_postal":"06330","population":7276,"superficie_km2":"22.00","latitude_centre":"43.6739998","longitude_centre":"7.0530000","distance_km":9.43},{"id":464,"code_insee":"06137","nom_standard":"Spéracèdes","nom_a":null,"nom_de":null,"slug_ville":"speracedes","departement_id":606,"code_postal":"06530","population":1176,"superficie_km2":"3.00","latitude_centre":"43.6520004","longitude_centre":"6.8569999","distance_km":9.48},{"id":406,"code_insee":"06018","nom_standard":"Biot","nom_a":null,"nom_de":null,"slug_ville":"biot","departement_id":606,"code_postal":"06410","population":9880,"superficie_km2":"16.00","latitude_centre":"43.6279984","longitude_centre":"7.0830002","distance_km":9.56},{"id":435,"code_insee":"06079","nom_standard":"Mandelieu-la-Napoule","nom_a":null,"nom_de":null,"slug_ville":"mandelieu-la-napoule","departement_id":606,"code_postal":"06210","population":21561,"superficie_km2":"32.00","latitude_centre":"43.5379982","longitude_centre":"6.9180002","distance_km":9.67}]}