{"ville":{"id":24738,"code_insee":"54388","nom_standard":"Mouacourt","nom_a":null,"nom_de":null,"slug_ville":"mouacourt","departement_id":0,"code_postal":"54370","population":71,"superficie_km2":"859.26","latitude_centre":"48.6688","longitude_centre":"6.6388","dep_code":"54","dep_nom":"Meurthe-et-Moselle","dep_slug":"meurthe-et-moselle","reg_code":"44","reg_nom":"Grand Est","reg_slug":"grand-est"},"departement":{"code":"54","nom":"Meurthe-et-Moselle","slug":"meurthe-et-moselle"},"region":{"code":"44","nom":"Grand Est","slug":"grand-est"},"villes_proches":[{"id":0,"code_insee":"54418","nom_standard":"Parroy","nom_a":null,"nom_de":null,"slug_ville":"parroy","departement_id":0,"code_postal":"54370","population":183,"superficie_km2":"1775.64","latitude_centre":"48.6733","longitude_centre":"6.6107","distance_km":2.12},{"id":0,"code_insee":"54601","nom_standard":"Xures","nom_a":null,"nom_de":null,"slug_ville":"xures","departement_id":0,"code_postal":"54370","population":91,"superficie_km2":"703.87","latitude_centre":"48.6887","longitude_centre":"6.6578","distance_km":2.62},{"id":0,"code_insee":"54551","nom_standard":"Vaucourt","nom_a":null,"nom_de":null,"slug_ville":"vaucourt","departement_id":0,"code_postal":"54370","population":64,"superficie_km2":"631.84","latitude_centre":"48.6676","longitude_centre":"6.688","distance_km":3.62},{"id":24550,"code_insee":"54133","nom_standard":"Coincourt","nom_a":null,"nom_de":null,"slug_ville":"coincourt","departement_id":0,"code_postal":"54370","population":129,"superficie_km2":"807.38","latitude_centre":"48.7028","longitude_centre":"6.618","distance_km":4.08},{"id":24580,"code_insee":"54177","nom_standard":"Emberménil","nom_a":null,"nom_de":null,"slug_ville":"embermenil","departement_id":0,"code_postal":"54370","population":229,"superficie_km2":"1452.20","latitude_centre":"48.6402","longitude_centre":"6.6852","distance_km":4.66},{"id":24648,"code_insee":"54258","nom_standard":"Hénaménil","nom_a":null,"nom_de":null,"slug_ville":"henamenil","departement_id":0,"code_postal":"54370","population":147,"superficie_km2":"1450.73","latitude_centre":"48.6653","longitude_centre":"6.5732","distance_km":4.83},{"id":0,"code_insee":"54600","nom_standard":"Xousse","nom_a":null,"nom_de":null,"slug_ville":"xousse","departement_id":0,"code_postal":"54370","population":115,"superficie_km2":"616.41","latitude_centre":"48.6553","longitude_centre":"6.7046","distance_km":5.06},{"id":24676,"code_insee":"54297","nom_standard":"Laneuveville-aux-Bois","nom_a":null,"nom_de":null,"slug_ville":"laneuveville-aux-bois","departement_id":0,"code_postal":"54370","population":300,"superficie_km2":"1917.28","latitude_centre":"48.621","longitude_centre":"6.6415","distance_km":5.32},{"id":0,"code_insee":"57473","nom_standard":"Moncourt","nom_a":null,"nom_de":null,"slug_ville":"moncourt","departement_id":0,"code_postal":"57810","population":63,"superficie_km2":"670.26","latitude_centre":"48.7189","longitude_centre":"6.6412","distance_km":5.57},{"id":0,"code_insee":"57375","nom_standard":"Lagarde","nom_a":null,"nom_de":null,"slug_ville":"lagarde","departement_id":0,"code_postal":"57810","population":179,"superficie_km2":"2242.33","latitude_centre":"48.6865","longitude_centre":"6.7099","distance_km":5.58},{"id":24529,"code_insee":"54106","nom_standard":"Bures","nom_a":null,"nom_de":null,"slug_ville":"bures","departement_id":0,"code_postal":"54370","population":64,"superficie_km2":"576.38","latitude_centre":"48.6969","longitude_centre":"6.569","distance_km":6.0},{"id":24561,"code_insee":"54147","nom_standard":"Crion","nom_a":null,"nom_de":null,"slug_ville":"crion","departement_id":0,"code_postal":"54300","population":112,"superficie_km2":"821.02","latitude_centre":"48.6446","longitude_centre":"6.5566","distance_km":6.61},{"id":0,"code_insee":"57524","nom_standard":"Ommeray","nom_a":null,"nom_de":null,"slug_ville":"ommeray","departement_id":0,"code_postal":"57810","population":127,"superficie_km2":"1015.19","latitude_centre":"48.7193","longitude_centre":"6.6932","distance_km":6.89},{"id":0,"code_insee":"54446","nom_standard":"Réchicourt-la-Petite","nom_a":null,"nom_de":null,"slug_ville":"rechicourt-la-petite","departement_id":0,"code_postal":"54370","population":61,"superficie_km2":"547.69","latitude_centre":"48.7192","longitude_centre":"6.579","distance_km":7.12},{"id":0,"code_insee":"57077","nom_standard":"Bezange-la-Petite","nom_a":null,"nom_de":null,"slug_ville":"bezange-la-petite","departement_id":0,"code_postal":"57630","population":92,"superficie_km2":"790.89","latitude_centre":"48.7335","longitude_centre":"6.6128","distance_km":7.44},{"id":0,"code_insee":"57397","nom_standard":"Ley","nom_a":null,"nom_de":null,"slug_ville":"ley","departement_id":0,"code_postal":"57810","population":109,"superficie_km2":"615.41","latitude_centre":"48.7346","longitude_centre":"6.6578","distance_km":7.45},{"id":24713,"code_insee":"54350","nom_standard":"Marainviller","nom_a":null,"nom_de":null,"slug_ville":"marainviller","departement_id":0,"code_postal":"54300","population":704,"superficie_km2":"1719.75","latitude_centre":"48.6012","longitude_centre":"6.61","distance_km":7.81},{"id":24562,"code_insee":"54148","nom_standard":"Croismare","nom_a":null,"nom_de":null,"slug_ville":"croismare","departement_id":0,"code_postal":"54300","population":626,"superficie_km2":"1592.88","latitude_centre":"48.6093","longitude_centre":"6.5763","distance_km":8.05},{"id":24712,"code_insee":"54349","nom_standard":"Manonviller","nom_a":null,"nom_de":null,"slug_ville":"manonviller","departement_id":0,"code_postal":"54300","population":172,"superficie_km2":"691.29","latitude_centre":"48.5909","longitude_centre":"6.6626","distance_km":8.84},{"id":0,"code_insee":"57399","nom_standard":"Lezey","nom_a":null,"nom_de":null,"slug_ville":"lezey","departement_id":0,"code_postal":"57630","population":90,"superficie_km2":"745.14","latitude_centre":"48.7542","longitude_centre":"6.6161","distance_km":9.64}]}