{"ville":{"id":28739,"code_insee":"64408","nom_standard":"Mouhous","nom_a":null,"nom_de":null,"slug_ville":"mouhous","departement_id":0,"code_postal":"64330","population":75,"superficie_km2":"332.28","latitude_centre":"43.492","longitude_centre":"-0.2538","dep_code":"64","dep_nom":"Pyrénées-Atlantiques","dep_slug":"pyrenees-atlantiques","reg_code":"75","reg_nom":"Nouvelle-Aquitaine","reg_slug":"nouvelle-aquitaine"},"departement":{"code":"64","nom":"Pyrénées-Atlantiques","slug":"pyrenees-atlantiques"},"region":{"code":"75","nom":"Nouvelle-Aquitaine","slug":"nouvelle-aquitaine"},"villes_proches":[{"id":28543,"code_insee":"64167","nom_standard":"Carrère","nom_a":null,"nom_de":null,"slug_ville":"carrere","departement_id":0,"code_postal":"64160","population":221,"superficie_km2":"663.65","latitude_centre":"43.4791","longitude_centre":"-0.2784","distance_km":2.45},{"id":0,"code_insee":"64534","nom_standard":"Taron-Sadirac-Viellenave","nom_a":null,"nom_de":null,"slug_ville":"taron-sadirac-viellenave","departement_id":0,"code_postal":"64330","population":168,"superficie_km2":"1383.91","latitude_centre":"43.5142","longitude_centre":"-0.2451","distance_km":2.57},{"id":28664,"code_insee":"64311","nom_standard":"Lannecaube","nom_a":null,"nom_de":null,"slug_ville":"lannecaube","departement_id":0,"code_postal":"64350","population":145,"superficie_km2":"866.80","latitude_centre":"43.4806","longitude_centre":"-0.2208","distance_km":2.95},{"id":28563,"code_insee":"64190","nom_standard":"Claracq","nom_a":null,"nom_de":null,"slug_ville":"claracq","departement_id":0,"code_postal":"64330","population":237,"superficie_km2":"991.58","latitude_centre":"43.5047","longitude_centre":"-0.2942","distance_km":3.55},{"id":0,"code_insee":"64464","nom_standard":"Ribarrouy","nom_a":null,"nom_de":null,"slug_ville":"ribarrouy","departement_id":0,"code_postal":"64330","population":79,"superficie_km2":"231.49","latitude_centre":"43.5196","longitude_centre":"-0.2775","distance_km":3.62},{"id":28533,"code_insee":"64153","nom_standard":"Burosse-Mendousse","nom_a":null,"nom_de":null,"slug_ville":"burosse-mendousse","departement_id":0,"code_postal":"64330","population":81,"superficie_km2":"564.98","latitude_centre":"43.5123","longitude_centre":"-0.2113","distance_km":4.1},{"id":0,"code_insee":"64523","nom_standard":"Sévignacq","nom_a":null,"nom_de":null,"slug_ville":"sevignacq","departement_id":0,"code_postal":"64160","population":805,"superficie_km2":"1742.71","latitude_centre":"43.4536","longitude_centre":"-0.2585","distance_km":4.29},{"id":28724,"code_insee":"64385","nom_standard":"Miossens-Lanusse","nom_a":null,"nom_de":null,"slug_ville":"miossens-lanusse","departement_id":0,"code_postal":"64450","population":288,"superficie_km2":"914.74","latitude_centre":"43.4687","longitude_centre":"-0.3043","distance_km":4.83},{"id":28566,"code_insee":"64194","nom_standard":"Coslédaà-Lube-Boast","nom_a":null,"nom_de":null,"slug_ville":"cosledaa-lube-boast","departement_id":0,"code_postal":"64160","population":374,"superficie_km2":"1395.81","latitude_centre":"43.4496","longitude_centre":"-0.2308","distance_km":5.07},{"id":28661,"code_insee":"64308","nom_standard":"Lalonquette","nom_a":null,"nom_de":null,"slug_ville":"lalonquette","departement_id":0,"code_postal":"64450","population":261,"superficie_km2":"531.74","latitude_centre":"43.4905","longitude_centre":"-0.3176","distance_km":5.15},{"id":28660,"code_insee":"64307","nom_standard":"Lalongue","nom_a":null,"nom_de":null,"slug_ville":"lalongue","departement_id":0,"code_postal":"64350","population":201,"superficie_km2":"796.29","latitude_centre":"43.4794","longitude_centre":"-0.1888","distance_km":5.43},{"id":28486,"code_insee":"64090","nom_standard":"Baliracq-Maumusson","nom_a":null,"nom_de":null,"slug_ville":"baliracq-maumusson","departement_id":0,"code_postal":"64330","population":120,"superficie_km2":"603.78","latitude_centre":"43.5422","longitude_centre":"-0.2499","distance_km":5.59},{"id":28709,"code_insee":"64366","nom_standard":"Mascaraàs-Haron","nom_a":null,"nom_de":null,"slug_ville":"mascaraas-haron","departement_id":0,"code_postal":"64330","population":109,"superficie_km2":"877.92","latitude_centre":"43.5415","longitude_centre":"-0.2195","distance_km":6.16},{"id":0,"code_insee":"64552","nom_standard":"Vialer","nom_a":null,"nom_de":null,"slug_ville":"vialer","departement_id":0,"code_postal":"64330","population":144,"superficie_km2":"734.31","latitude_centre":"43.5101","longitude_centre":"-0.1793","distance_km":6.34},{"id":28704,"code_insee":"64361","nom_standard":"Lussagnet-Lusson","nom_a":null,"nom_de":null,"slug_ville":"lussagnet-lusson","departement_id":0,"code_postal":"64160","population":183,"superficie_km2":"672.25","latitude_centre":"43.4452","longitude_centre":"-0.199","distance_km":6.83},{"id":0,"code_insee":"64486","nom_standard":"Saint-Jean-Poudge","nom_a":null,"nom_de":null,"slug_ville":"saint-jean-poudge","departement_id":0,"code_postal":"64330","population":79,"superficie_km2":"396.52","latitude_centre":"43.5287","longitude_centre":"-0.1847","distance_km":6.91},{"id":28671,"code_insee":"64321","nom_standard":"Lasclaveries","nom_a":null,"nom_de":null,"slug_ville":"lasclaveries","departement_id":0,"code_postal":"64450","population":246,"superficie_km2":"612.89","latitude_centre":"43.4352","longitude_centre":"-0.2915","distance_km":7.01},{"id":0,"code_insee":"64233","nom_standard":"Garlin","nom_a":null,"nom_de":null,"slug_ville":"garlin","departement_id":0,"code_postal":"64330","population":1360,"superficie_km2":"1820.02","latitude_centre":"43.5578","longitude_centre":"-0.2739","distance_km":7.49},{"id":28555,"code_insee":"64180","nom_standard":"Castetpugon","nom_a":null,"nom_de":null,"slug_ville":"castetpugon","departement_id":0,"code_postal":"64330","population":214,"superficie_km2":"739.89","latitude_centre":"43.5613","longitude_centre":"-0.2238","distance_km":8.08},{"id":28579,"code_insee":"64208","nom_standard":"Escoubès","nom_a":null,"nom_de":null,"slug_ville":"escoubes","departement_id":0,"code_postal":"64160","population":416,"superficie_km2":"648.16","latitude_centre":"43.416","longitude_centre":"-0.2434","distance_km":8.49}]}