{"ville":{"id":32480,"code_insee":"78437","nom_standard":"Mousseaux-sur-Seine","nom_a":null,"nom_de":null,"slug_ville":"mousseaux-sur-seine","departement_id":0,"code_postal":"78270","population":689,"superficie_km2":"720.57","latitude_centre":"49.051","longitude_centre":"1.6548","dep_code":"78","dep_nom":"Yvelines","dep_slug":"yvelines","reg_code":"11","reg_nom":"Île-de-France","reg_slug":"ile-de-france"},"departement":{"code":"78","nom":"Yvelines","slug":"yvelines"},"region":{"code":"11","nom":"Île-de-France","slug":"ile-de-france"},"villes_proches":[{"id":32475,"code_insee":"78410","nom_standard":"Moisson","nom_a":null,"nom_de":null,"slug_ville":"moisson","departement_id":0,"code_postal":"78840","population":902,"superficie_km2":"1009.26","latitude_centre":"49.0663","longitude_centre":"1.6587","distance_km":1.72},{"id":0,"code_insee":"78567","nom_standard":"Saint-Martin-la-Garenne","nom_a":null,"nom_de":null,"slug_ville":"saint-martin-la-garenne","departement_id":0,"code_postal":"78520","population":942,"superficie_km2":"1593.35","latitude_centre":"49.0372","longitude_centre":"1.6707","distance_km":1.92},{"id":32470,"code_insee":"78391","nom_standard":"Méricourt","nom_a":null,"nom_de":null,"slug_ville":"mericourt","departement_id":0,"code_postal":"78270","population":383,"superficie_km2":"243.69","latitude_centre":"49.037","longitude_centre":"1.6254","distance_km":2.65},{"id":0,"code_insee":"78255","nom_standard":"Freneuse","nom_a":null,"nom_de":null,"slug_ville":"freneuse","departement_id":0,"code_postal":"78840","population":4505,"superficie_km2":"1039.34","latitude_centre":"49.0489","longitude_centre":"1.6139","distance_km":2.99},{"id":0,"code_insee":"95301","nom_standard":"Haute-Isle","nom_a":null,"nom_de":null,"slug_ville":"haute-isle","departement_id":0,"code_postal":"95780","population":293,"superficie_km2":"251.81","latitude_centre":"49.0848","longitude_centre":"1.6675","distance_km":3.87},{"id":0,"code_insee":"78290","nom_standard":"Guernes","nom_a":null,"nom_de":null,"slug_ville":"guernes","departement_id":0,"code_postal":"78520","population":1085,"superficie_km2":"862.97","latitude_centre":"49.0164","longitude_centre":"1.6435","distance_km":3.93},{"id":0,"code_insee":"95651","nom_standard":"Vétheuil","nom_a":null,"nom_de":null,"slug_ville":"vetheuil","departement_id":0,"code_postal":"95510","population":849,"superficie_km2":"438.72","latitude_centre":"49.0619","longitude_centre":"1.7097","distance_km":4.18},{"id":0,"code_insee":"78239","nom_standard":"Follainville-Dennemont","nom_a":null,"nom_de":null,"slug_ville":"follainville-dennemont","departement_id":0,"code_postal":"78520","population":2184,"superficie_km2":"975.51","latitude_centre":"49.0293","longitude_centre":"1.7027","distance_km":4.24},{"id":0,"code_insee":"95523","nom_standard":"La Roche-Guyon","nom_a":null,"nom_de":null,"slug_ville":"la-roche-guyon","departement_id":0,"code_postal":"95780","population":399,"superficie_km2":"466.65","latitude_centre":"49.0899","longitude_centre":"1.6337","distance_km":4.59},{"id":0,"code_insee":"95157","nom_standard":"Chérence","nom_a":null,"nom_de":null,"slug_ville":"cherence","departement_id":0,"code_postal":"95510","population":137,"superficie_km2":"861.42","latitude_centre":"49.0912","longitude_centre":"1.678","distance_km":4.78},{"id":32449,"code_insee":"78276","nom_standard":"Gommecourt","nom_a":null,"nom_de":null,"slug_ville":"gommecourt","departement_id":0,"code_postal":"78270","population":613,"superficie_km2":"575.97","latitude_centre":"49.0697","longitude_centre":"1.5931","distance_km":4.95},{"id":0,"code_insee":"95656","nom_standard":"Vienne-en-Arthies","nom_a":null,"nom_de":null,"slug_ville":"vienne-en-arthies","departement_id":0,"code_postal":"95510","population":379,"superficie_km2":"377.86","latitude_centre":"49.0655","longitude_centre":"1.7236","distance_km":5.27},{"id":0,"code_insee":"78528","nom_standard":"Rolleboise","nom_a":null,"nom_de":null,"slug_ville":"rolleboise","departement_id":0,"code_postal":"78270","population":346,"superficie_km2":"303.80","latitude_centre":"49.0195","longitude_centre":"1.6006","distance_km":5.28},{"id":0,"code_insee":"95012","nom_standard":"Amenucourt","nom_a":null,"nom_de":null,"slug_ville":"amenucourt","departement_id":0,"code_postal":"95510","population":212,"superficie_km2":"878.00","latitude_centre":"49.1084","longitude_centre":"1.6469","distance_km":6.41},{"id":0,"code_insee":"78361","nom_standard":"Mantes-la-Jolie","nom_a":null,"nom_de":null,"slug_ville":"mantes-la-jolie","departement_id":0,"code_postal":"78200","population":43526,"superficie_km2":"943.48","latitude_centre":"48.9961","longitude_centre":"1.6918","distance_km":6.67},{"id":0,"code_insee":"27279","nom_standard":"Gasny","nom_a":null,"nom_de":null,"slug_ville":"gasny","departement_id":0,"code_postal":"27620","population":3062,"superficie_km2":"1291.49","latitude_centre":"49.1004","longitude_centre":"1.5977","distance_km":6.89},{"id":0,"code_insee":"78531","nom_standard":"Rosny-sur-Seine","nom_a":null,"nom_de":null,"slug_ville":"rosny-sur-seine","departement_id":0,"code_postal":"78710","population":7328,"superficie_km2":"1923.60","latitude_centre":"48.9978","longitude_centre":"1.6054","distance_km":6.93},{"id":0,"code_insee":"78118","nom_standard":"Buchelay","nom_a":null,"nom_de":null,"slug_ville":"buchelay","departement_id":0,"code_postal":"78200","population":3360,"superficie_km2":"492.97","latitude_centre":"48.983","longitude_centre":"1.6788","distance_km":7.76},{"id":0,"code_insee":"95150","nom_standard":"Chaussy","nom_a":null,"nom_de":null,"slug_ville":"chaussy","departement_id":0,"code_postal":"95710","population":631,"superficie_km2":"1478.85","latitude_centre":"49.1153","longitude_centre":"1.7075","distance_km":8.11},{"id":32462,"code_insee":"78324","nom_standard":"Jouy-Mauvoisin","nom_a":null,"nom_de":null,"slug_ville":"jouy-mauvoisin","departement_id":0,"code_postal":"78200","population":554,"superficie_km2":"284.29","latitude_centre":"48.9746","longitude_centre":"1.6461","distance_km":8.52}]}