{"ville":{"id":4353,"code_insee":"44107","nom_standard":"Mouzeil","nom_a":null,"nom_de":null,"slug_ville":"mouzeil","departement_id":645,"code_postal":"44850","population":1973,"superficie_km2":"19.00","latitude_centre":"47.4379997","longitude_centre":"-1.3310000","dep_code":"44","dep_nom":"Loire-Atlantique","dep_slug":"loire-atlantique","reg_code":"17","reg_nom":"Pays de la Loire","reg_slug":"pays-de-la-loire"},"departement":{"code":"44","nom":"Loire-Atlantique","slug":"loire-atlantique"},"region":{"code":"17","nom":"Pays de la Loire","slug":"pays-de-la-loire"},"villes_proches":[{"id":4436,"code_insee":"44202","nom_standard":"Teillé","nom_a":null,"nom_de":null,"slug_ville":"teille","departement_id":645,"code_postal":"44440","population":1812,"superficie_km2":"29.00","latitude_centre":"47.4640007","longitude_centre":"-1.2869999","distance_km":4.39},{"id":4441,"code_insee":"44207","nom_standard":"Trans-sur-Erdre","nom_a":null,"nom_de":null,"slug_ville":"trans-sur-erdre","departement_id":645,"code_postal":"44440","population":1114,"superficie_km2":"23.00","latitude_centre":"47.4790001","longitude_centre":"-1.3640000","distance_km":5.19},{"id":4333,"code_insee":"44082","nom_standard":"Ligné","nom_a":null,"nom_de":null,"slug_ville":"ligne","departement_id":645,"code_postal":"44850","population":5451,"superficie_km2":"46.00","latitude_centre":"47.4010010","longitude_centre":"-1.3810000","distance_km":5.57},{"id":4305,"code_insee":"44048","nom_standard":"Couffé","nom_a":null,"nom_de":null,"slug_ville":"couffe","departement_id":645,"code_postal":"44521","population":2535,"superficie_km2":"40.00","latitude_centre":"47.3889999","longitude_centre":"-1.2930000","distance_km":6.15},{"id":4439,"code_insee":"44205","nom_standard":"Les Touches","nom_a":null,"nom_de":null,"slug_ville":"les-touches","departement_id":645,"code_postal":"44390","population":2577,"superficie_km2":"35.00","latitude_centre":"47.4519997","longitude_centre":"-1.4280000","distance_km":7.46},{"id":4344,"code_insee":"44096","nom_standard":"Mésanger","nom_a":null,"nom_de":null,"slug_ville":"mesanger","departement_id":645,"code_postal":"44522","population":4704,"superficie_km2":"50.00","latitude_centre":"47.4290009","longitude_centre":"-1.2260000","distance_km":7.96},{"id":4387,"code_insee":"44144","nom_standard":"Riaillé","nom_a":null,"nom_de":null,"slug_ville":"riaille","departement_id":645,"code_postal":"44440","population":2358,"superficie_km2":"51.00","latitude_centre":"47.5209999","longitude_centre":"-1.3120000","distance_km":9.34},{"id":4366,"code_insee":"44122","nom_standard":"Petit-Mars","nom_a":null,"nom_de":null,"slug_ville":"petit-mars","departement_id":645,"code_postal":"44390","population":3841,"superficie_km2":"26.00","latitude_centre":"47.4049988","longitude_centre":"-1.4570000","distance_km":10.16},{"id":4360,"code_insee":"44115","nom_standard":"Oudon","nom_a":null,"nom_de":null,"slug_ville":"oudon","departement_id":645,"code_postal":"44521","population":3925,"superficie_km2":"22.00","latitude_centre":"47.3549995","longitude_centre":"-1.2710000","distance_km":10.27},{"id":4363,"code_insee":"44118","nom_standard":"Pannecé","nom_a":null,"nom_de":null,"slug_ville":"pannece","departement_id":645,"code_postal":"44440","population":1439,"superficie_km2":"31.00","latitude_centre":"47.4879990","longitude_centre":"-1.2160000","distance_km":10.28},{"id":4330,"code_insee":"44077","nom_standard":"Joué-sur-Erdre","nom_a":null,"nom_de":null,"slug_ville":"joue-sur-erdre","departement_id":645,"code_postal":"44440","population":2693,"superficie_km2":"55.00","latitude_centre":"47.5089989","longitude_centre":"-1.4290000","distance_km":10.8},{"id":4289,"code_insee":"44028","nom_standard":"Le Cellier","nom_a":null,"nom_de":null,"slug_ville":"le-cellier","departement_id":645,"code_postal":"44850","population":3992,"superficie_km2":"36.00","latitude_centre":"47.3380013","longitude_centre":"-1.3600000","distance_km":11.33},{"id":4377,"code_insee":"44134","nom_standard":"Pouillé-les-Côteaux","nom_a":null,"nom_de":null,"slug_ville":"pouille-les-coteaux","departement_id":645,"code_postal":"44522","population":1067,"superficie_km2":"12.00","latitude_centre":"47.4679985","longitude_centre":"-1.1750000","distance_km":12.19},{"id":4416,"code_insee":"44179","nom_standard":"Saint-Mars-du-Désert","nom_a":null,"nom_de":null,"slug_ville":"saint-mars-du-desert","departement_id":645,"code_postal":"44850","population":5299,"superficie_km2":"30.00","latitude_centre":"47.3569984","longitude_centre":"-1.4450001","distance_km":12.44},{"id":4268,"code_insee":"44003","nom_standard":"Ancenis-Saint-Géréon","nom_a":null,"nom_de":null,"slug_ville":"ancenis-saint-gereon","departement_id":645,"code_postal":"44150","population":11099,"superficie_km2":"20.00","latitude_centre":"47.3829994","longitude_centre":"-1.1820000","distance_km":12.77},{"id":4721,"code_insee":"49069","nom_standard":"Orée d'Anjou","nom_a":null,"nom_de":null,"slug_ville":"oree-d-anjou","departement_id":650,"code_postal":"49270","population":16709,"superficie_km2":"16.00","latitude_centre":"47.3219986","longitude_centre":"-1.2600000","distance_km":13.96},{"id":4453,"code_insee":"44222","nom_standard":"La Roche-Blanche","nom_a":null,"nom_de":null,"slug_ville":"la-roche-blanche","departement_id":645,"code_postal":"44522","population":1245,"superficie_km2":"15.00","latitude_centre":"47.4379997","longitude_centre":"-1.1440001","distance_km":14.06},{"id":4356,"code_insee":"44110","nom_standard":"Nort-sur-Erdre","nom_a":null,"nom_de":null,"slug_ville":"nort-sur-erdre","departement_id":645,"code_postal":"44390","population":9327,"superficie_km2":"67.00","latitude_centre":"47.4469986","longitude_centre":"-1.5180000","distance_km":14.1},{"id":4417,"code_insee":"44180","nom_standard":"Vallons-de-l'Erdre","nom_a":null,"nom_de":null,"slug_ville":"vallons-de-l-erdre","departement_id":645,"code_postal":"44540","population":6559,"superficie_km2":"20.00","latitude_centre":"47.5309982","longitude_centre":"-1.1940000","distance_km":14.59},{"id":4342,"code_insee":"44094","nom_standard":"Mauves-sur-Loire","nom_a":null,"nom_de":null,"slug_ville":"mauves-sur-loire","departement_id":645,"code_postal":"44470","population":3312,"superficie_km2":"14.00","latitude_centre":"47.3160019","longitude_centre":"-1.4030000","distance_km":14.61}]}