{"ville":{"id":23167,"code_insee":"50365","nom_standard":"Muneville-sur-Mer","nom_a":null,"nom_de":null,"slug_ville":"muneville-sur-mer","departement_id":0,"code_postal":"50290","population":491,"superficie_km2":"741.50","latitude_centre":"48.9379","longitude_centre":"-1.4835","dep_code":"50","dep_nom":"Manche","dep_slug":"manche","reg_code":"28","reg_nom":"Normandie","reg_slug":"normandie"},"departement":{"code":"50","nom":"Manche","slug":"manche"},"region":{"code":"28","nom":"Normandie","slug":"normandie"},"villes_proches":[{"id":0,"code_insee":"50085","nom_standard":"Bricqueville-sur-Mer","nom_a":null,"nom_de":null,"slug_ville":"bricqueville-sur-mer","departement_id":0,"code_postal":"50290","population":1261,"superficie_km2":"1280.66","latitude_centre":"48.9204","longitude_centre":"-1.5206","distance_km":3.34},{"id":0,"code_insee":"50272","nom_standard":"Tourneville-sur-Mer","nom_a":null,"nom_de":null,"slug_ville":"tourneville-sur-mer","departement_id":0,"code_postal":"50660","population":1666,"superficie_km2":"1753.72","latitude_centre":"48.9529","longitude_centre":"-1.5302","distance_km":3.8},{"id":0,"code_insee":"50109","nom_standard":"Cérences","nom_a":null,"nom_de":null,"slug_ville":"cerences","departement_id":0,"code_postal":"50510","population":1852,"superficie_km2":"2624.47","latitude_centre":"48.9075","longitude_centre":"-1.4389","distance_km":4.7},{"id":0,"code_insee":"50419","nom_standard":"Quettreville-sur-Sienne","nom_a":null,"nom_de":null,"slug_ville":"quettreville-sur-sienne","departement_id":0,"code_postal":"50210","population":3167,"superficie_km2":"4978.03","latitude_centre":"48.968","longitude_centre":"-1.4322","distance_km":5.02},{"id":23036,"code_insee":"50120","nom_standard":"Chanteloup","nom_a":null,"nom_de":null,"slug_ville":"chanteloup","departement_id":0,"code_postal":"50510","population":407,"superficie_km2":"422.60","latitude_centre":"48.8918","longitude_centre":"-1.4784","distance_km":5.14},{"id":23136,"code_insee":"50304","nom_standard":"Le Mesnil-Aubert","nom_a":null,"nom_de":null,"slug_ville":"le-mesnil-aubert","departement_id":0,"code_postal":"50510","population":197,"superficie_km2":"600.66","latitude_centre":"48.945","longitude_centre":"-1.4125","distance_km":5.25},{"id":0,"code_insee":"50076","nom_standard":"Bréhal","nom_a":null,"nom_de":null,"slug_ville":"brehal","departement_id":0,"code_postal":"50290","population":3487,"superficie_km2":"1281.63","latitude_centre":"48.8979","longitude_centre":"-1.5278","distance_km":5.5},{"id":23093,"code_insee":"50231","nom_standard":"Hauteville-sur-Mer","nom_a":null,"nom_de":null,"slug_ville":"hauteville-sur-mer","departement_id":0,"code_postal":"50590","population":707,"superficie_km2":"331.22","latitude_centre":"48.9748","longitude_centre":"-1.541","distance_km":5.87},{"id":0,"code_insee":"50349","nom_standard":"Montmartin-sur-Mer","nom_a":null,"nom_de":null,"slug_ville":"montmartin-sur-mer","departement_id":0,"code_postal":"50590","population":1425,"superficie_km2":"948.17","latitude_centre":"48.9932","longitude_centre":"-1.5305","distance_km":7.04},{"id":23105,"code_insee":"50252","nom_standard":"Hudimesnil","nom_a":null,"nom_de":null,"slug_ville":"hudimesnil","departement_id":0,"code_postal":"50510","population":928,"superficie_km2":"1909.88","latitude_centre":"48.8709","longitude_centre":"-1.4652","distance_km":7.57},{"id":0,"code_insee":"50388","nom_standard":"Orval sur Sienne","nom_a":null,"nom_de":null,"slug_ville":"orval-sur-sienne","departement_id":0,"code_postal":"50660","population":1233,"superficie_km2":"1943.83","latitude_centre":"49.0092","longitude_centre":"-1.4763","distance_km":7.95},{"id":23045,"code_insee":"50143","nom_standard":"Coudeville-sur-Mer","nom_a":null,"nom_de":null,"slug_ville":"coudeville-sur-mer","departement_id":0,"code_postal":"50290","population":887,"superficie_km2":"878.23","latitude_centre":"48.8707","longitude_centre":"-1.5321","distance_km":8.27},{"id":23015,"code_insee":"50081","nom_standard":"Bréville-sur-Mer","nom_a":null,"nom_de":null,"slug_ville":"breville-sur-mer","departement_id":0,"code_postal":"50290","population":791,"superficie_km2":"684.92","latitude_centre":"48.8697","longitude_centre":"-1.5549","distance_km":9.21},{"id":23121,"code_insee":"50278","nom_standard":"Le Loreur","nom_a":null,"nom_de":null,"slug_ville":"le-loreur","departement_id":0,"code_postal":"50510","population":258,"superficie_km2":"329.09","latitude_centre":"48.8633","longitude_centre":"-1.4257","distance_km":9.31},{"id":0,"code_insee":"50568","nom_standard":"Saussey","nom_a":null,"nom_de":null,"slug_ville":"saussey","departement_id":0,"code_postal":"50200","population":463,"superficie_km2":"903.55","latitude_centre":"49.0121","longitude_centre":"-1.4245","distance_km":9.31},{"id":0,"code_insee":"50429","nom_standard":"Regnéville-sur-Mer","nom_a":null,"nom_de":null,"slug_ville":"regneville-sur-mer","departement_id":0,"code_postal":"50590","population":730,"superficie_km2":"830.09","latitude_centre":"49.0153","longitude_centre":"-1.5361","distance_km":9.42},{"id":23120,"code_insee":"50277","nom_standard":"Longueville","nom_a":null,"nom_de":null,"slug_ville":"longueville","departement_id":0,"code_postal":"50290","population":638,"superficie_km2":"416.86","latitude_centre":"48.8605","longitude_centre":"-1.5371","distance_km":9.46},{"id":22978,"code_insee":"50008","nom_standard":"Anctoville-sur-Boscq","nom_a":null,"nom_de":null,"slug_ville":"anctoville-sur-boscq","departement_id":0,"code_postal":"50400","population":435,"superficie_km2":"217.95","latitude_centre":"48.8456","longitude_centre":"-1.528","distance_km":10.77},{"id":23101,"code_insee":"50243","nom_standard":"Heugueville-sur-Sienne","nom_a":null,"nom_de":null,"slug_ville":"heugueville-sur-sienne","departement_id":0,"code_postal":"50200","population":458,"superficie_km2":"596.07","latitude_centre":"49.0357","longitude_centre":"-1.5159","distance_km":11.13},{"id":23017,"code_insee":"50084","nom_standard":"Bricqueville-la-Blouette","nom_a":null,"nom_de":null,"slug_ville":"bricqueville-la-blouette","departement_id":0,"code_postal":"50200","population":530,"superficie_km2":"627.12","latitude_centre":"49.0382","longitude_centre":"-1.4755","distance_km":11.17}]}