{"ville":{"id":25812,"code_insee":"57494","nom_standard":"Munster","nom_a":null,"nom_de":null,"slug_ville":"munster","departement_id":0,"code_postal":"57670","population":237,"superficie_km2":"660.82","latitude_centre":"48.9086","longitude_centre":"6.8963","dep_code":"57","dep_nom":"Moselle","dep_slug":"moselle","reg_code":"44","reg_nom":"Grand Est","reg_slug":"grand-est"},"departement":{"code":"57","nom":"Moselle","slug":"moselle"},"region":{"code":"44","nom":"Grand Est","slug":"grand-est"},"villes_proches":[{"id":25708,"code_insee":"57347","nom_standard":"Insviller","nom_a":null,"nom_de":null,"slug_ville":"insviller","departement_id":0,"code_postal":"57670","population":168,"superficie_km2":"949.31","latitude_centre":"48.8904","longitude_centre":"6.9157","distance_km":2.47},{"id":25629,"code_insee":"57248","nom_standard":"Givrycourt","nom_a":null,"nom_de":null,"slug_ville":"givrycourt","departement_id":0,"code_postal":"57670","population":95,"superficie_km2":"277.26","latitude_centre":"48.9286","longitude_centre":"6.9161","distance_km":2.65},{"id":25466,"code_insee":"57011","nom_standard":"Albestroff","nom_a":null,"nom_de":null,"slug_ville":"albestroff","departement_id":0,"code_postal":"57670","population":606,"superficie_km2":"1905.23","latitude_centre":"48.93","longitude_centre":"6.8723","distance_km":2.96},{"id":25757,"code_insee":"57410","nom_standard":"Lhor","nom_a":null,"nom_de":null,"slug_ville":"lhor","departement_id":0,"code_postal":"57670","population":138,"superficie_km2":"536.41","latitude_centre":"48.8851","longitude_centre":"6.8715","distance_km":3.18},{"id":0,"code_insee":"57675","nom_standard":"Torcheville","nom_a":null,"nom_de":null,"slug_ville":"torcheville","departement_id":0,"code_postal":"57670","population":119,"superficie_km2":"617.27","latitude_centre":"48.904","longitude_centre":"6.8495","distance_km":3.46},{"id":0,"code_insee":"57711","nom_standard":"Vibersviller","nom_a":null,"nom_de":null,"slug_ville":"vibersviller","departement_id":0,"code_postal":"57670","population":381,"superficie_km2":"1284.38","latitude_centre":"48.9057","longitude_centre":"6.9501","distance_km":3.95},{"id":25654,"code_insee":"57278","nom_standard":"Guinzeling","nom_a":null,"nom_de":null,"slug_ville":"guinzeling","departement_id":0,"code_postal":"57670","population":61,"superficie_km2":"482.54","latitude_centre":"48.8812","longitude_centre":"6.8434","distance_km":4.92},{"id":0,"code_insee":"57725","nom_standard":"Vittersbourg","nom_a":null,"nom_de":null,"slug_ville":"vittersbourg","departement_id":0,"code_postal":"57670","population":334,"superficie_km2":"714.09","latitude_centre":"48.9485","longitude_centre":"6.934","distance_km":5.22},{"id":25760,"code_insee":"57417","nom_standard":"Lostroff","nom_a":null,"nom_de":null,"slug_ville":"lostroff","departement_id":0,"code_postal":"57670","population":71,"superficie_km2":"498.52","latitude_centre":"48.8638","longitude_centre":"6.8688","distance_km":5.37},{"id":25707,"code_insee":"57346","nom_standard":"Insming","nom_a":null,"nom_de":null,"slug_ville":"insming","departement_id":0,"code_postal":"57670","population":605,"superficie_km2":"721.74","latitude_centre":"48.9562","longitude_centre":"6.8831","distance_km":5.38},{"id":25797,"code_insee":"57470","nom_standard":"Molring","nom_a":null,"nom_de":null,"slug_ville":"molring","departement_id":0,"code_postal":"57670","population":12,"superficie_km2":"327.78","latitude_centre":"48.8906","longitude_centre":"6.8225","distance_km":5.75},{"id":25699,"code_insee":"57335","nom_standard":"Honskirch","nom_a":null,"nom_de":null,"slug_ville":"honskirch","departement_id":0,"code_postal":"57670","population":213,"superficie_km2":"655.89","latitude_centre":"48.9387","longitude_centre":"6.9628","distance_km":5.9},{"id":0,"code_insee":"57573","nom_standard":"Réning","nom_a":null,"nom_de":null,"slug_ville":"rening","departement_id":0,"code_postal":"57670","population":127,"superficie_km2":"404.75","latitude_centre":"48.9489","longitude_centre":"6.8436","distance_km":5.91},{"id":0,"code_insee":"67009","nom_standard":"Altwiller","nom_a":null,"nom_de":null,"slug_ville":"altwiller","departement_id":0,"code_postal":"67260","population":373,"superficie_km2":"1642.16","latitude_centre":"48.9173","longitude_centre":"6.9766","distance_km":5.95},{"id":25761,"code_insee":"57418","nom_standard":"Loudrefing","nom_a":null,"nom_de":null,"slug_ville":"loudrefing","departement_id":0,"code_postal":"57670","population":290,"superficie_km2":"2301.92","latitude_centre":"48.8545","longitude_centre":"6.9006","distance_km":6.02},{"id":0,"code_insee":"57496","nom_standard":"Nébing","nom_a":null,"nom_de":null,"slug_ville":"nebing","departement_id":0,"code_postal":"57670","population":328,"superficie_km2":"737.40","latitude_centre":"48.9095","longitude_centre":"6.8136","distance_km":6.04},{"id":25796,"code_insee":"57469","nom_standard":"Mittersheim","nom_a":null,"nom_de":null,"slug_ville":"mittersheim","departement_id":0,"code_postal":"57930","population":583,"superficie_km2":"1809.93","latitude_centre":"48.8574","longitude_centre":"6.9422","distance_km":6.61},{"id":25676,"code_insee":"57308","nom_standard":"Hazembourg","nom_a":null,"nom_de":null,"slug_ville":"hazembourg","departement_id":0,"code_postal":"57430","population":152,"superficie_km2":"168.80","latitude_centre":"48.9633","longitude_centre":"6.9452","distance_km":7.05},{"id":0,"code_insee":"57497","nom_standard":"Nelling","nom_a":null,"nom_de":null,"slug_ville":"nelling","departement_id":0,"code_postal":"57670","population":266,"superficie_km2":"740.21","latitude_centre":"48.9695","longitude_centre":"6.8601","distance_km":7.27},{"id":25715,"code_insee":"57357","nom_standard":"Kappelkinger","nom_a":null,"nom_de":null,"slug_ville":"kappelkinger","departement_id":0,"code_postal":"57430","population":425,"superficie_km2":"854.35","latitude_centre":"48.9768","longitude_centre":"6.9088","distance_km":7.64}]}