{"ville":{"id":7832,"code_insee":"74197","nom_standard":"Nangy","nom_a":null,"nom_de":null,"slug_ville":"nangy","departement_id":675,"code_postal":"74380","population":1645,"superficie_km2":"4.00","latitude_centre":"46.1500015","longitude_centre":"6.3060002","dep_code":"74","dep_nom":"Haute-Savoie","dep_slug":"haute-savoie","reg_code":"01","reg_nom":"Auvergne-Rhône-Alpes","reg_slug":"auvergne-rhone-alpes"},"departement":{"code":"74","nom":"Haute-Savoie","slug":"haute-savoie"},"region":{"code":"01","nom":"Auvergne-Rhône-Alpes","slug":"auvergne-rhone-alpes"},"villes_proches":[{"id":7749,"code_insee":"74040","nom_standard":"Bonne","nom_a":null,"nom_de":null,"slug_ville":"bonne","departement_id":675,"code_postal":"74380","population":3269,"superficie_km2":"9.00","latitude_centre":"46.1720009","longitude_centre":"6.3189998","distance_km":2.64},{"id":7740,"code_insee":"74021","nom_standard":"Arthaz-Pont-Notre-Dame","nom_a":null,"nom_de":null,"slug_ville":"arthaz-pont-notre-dame","departement_id":675,"code_postal":"74380","population":1657,"superficie_km2":"6.00","latitude_centre":"46.1609993","longitude_centre":"6.2690001","distance_km":3.1},{"id":7770,"code_insee":"74087","nom_standard":"Contamine-sur-Arve","nom_a":null,"nom_de":null,"slug_ville":"contamine-sur-arve","departement_id":675,"code_postal":"74130","population":2315,"superficie_km2":"7.00","latitude_centre":"46.1339989","longitude_centre":"6.3390002","distance_km":3.1},{"id":7867,"code_insee":"74262","nom_standard":"Scientrier","nom_a":null,"nom_de":null,"slug_ville":"scientrier","departement_id":675,"code_postal":"74930","population":1182,"superficie_km2":"7.00","latitude_centre":"46.1199989","longitude_centre":"6.3179998","distance_km":3.46},{"id":7791,"code_insee":"74128","nom_standard":"Fillinges","nom_a":null,"nom_de":null,"slug_ville":"fillinges","departement_id":675,"code_postal":"74250","population":3537,"superficie_km2":"12.00","latitude_centre":"46.1660004","longitude_centre":"6.3499999","distance_km":3.83},{"id":7848,"code_insee":"74220","nom_standard":"Reignier-Ésery","nom_a":null,"nom_de":null,"slug_ville":"reignier-esery","departement_id":675,"code_postal":"74930","population":8170,"superficie_km2":"25.00","latitude_centre":"46.1349983","longitude_centre":"6.2610002","distance_km":3.85},{"id":7813,"code_insee":"74162","nom_standard":"Marcellaz","nom_a":null,"nom_de":null,"slug_ville":"marcellaz","departement_id":675,"code_postal":"74250","population":1058,"superficie_km2":"4.00","latitude_centre":"46.1450005","longitude_centre":"6.3579998","distance_km":4.04},{"id":7886,"code_insee":"74298","nom_standard":"Vétraz-Monthoux","nom_a":null,"nom_de":null,"slug_ville":"vetraz-monthoux","departement_id":675,"code_postal":"74100","population":9874,"superficie_km2":"7.00","latitude_centre":"46.1809998","longitude_centre":"6.2630000","distance_km":4.78},{"id":7773,"code_insee":"74094","nom_standard":"Cranves-Sales","nom_a":null,"nom_de":null,"slug_ville":"cranves-sales","departement_id":675,"code_postal":"74380","population":7182,"superficie_km2":"14.00","latitude_centre":"46.1969986","longitude_centre":"6.3039999","distance_km":5.23},{"id":7806,"code_insee":"74153","nom_standard":"Lucinges","nom_a":null,"nom_de":null,"slug_ville":"lucinges","departement_id":675,"code_postal":"74380","population":1600,"superficie_km2":"8.00","latitude_centre":"46.1940002","longitude_centre":"6.3299999","distance_km":5.23},{"id":7839,"code_insee":"74209","nom_standard":"Peillonnex","nom_a":null,"nom_de":null,"slug_ville":"peillonnex","departement_id":675,"code_postal":"74250","population":1363,"superficie_km2":"6.00","latitude_centre":"46.1320000","longitude_centre":"6.3820000","distance_km":6.19},{"id":7737,"code_insee":"74018","nom_standard":"Arenthon","nom_a":null,"nom_de":null,"slug_ville":"arenthon","departement_id":675,"code_postal":"74800","population":1915,"superficie_km2":"11.00","latitude_centre":"46.0979996","longitude_centre":"6.3390002","distance_km":6.32},{"id":7841,"code_insee":"74211","nom_standard":"Pers-Jussy","nom_a":null,"nom_de":null,"slug_ville":"pers-jussy","departement_id":675,"code_postal":"74930","population":3170,"superficie_km2":"19.00","latitude_centre":"46.1020012","longitude_centre":"6.2579999","distance_km":6.49},{"id":7732,"code_insee":"74012","nom_standard":"Annemasse","nom_a":null,"nom_de":null,"slug_ville":"annemasse","departement_id":675,"code_postal":"74100","population":37918,"superficie_km2":"5.00","latitude_centre":"46.1910019","longitude_centre":"6.2420001","distance_km":6.71},{"id":7772,"code_insee":"74090","nom_standard":"Cornier","nom_a":null,"nom_de":null,"slug_ville":"cornier","departement_id":675,"code_postal":"74800","population":1428,"superficie_km2":"7.00","latitude_centre":"46.0900002","longitude_centre":"6.2919998","distance_km":6.76},{"id":7890,"code_insee":"74305","nom_standard":"Ville-la-Grand","nom_a":null,"nom_de":null,"slug_ville":"ville-la-grand","departement_id":675,"code_postal":"74100","population":9169,"superficie_km2":"4.00","latitude_centre":"46.2039986","longitude_centre":"6.2610002","distance_km":6.93},{"id":7828,"code_insee":"74185","nom_standard":"Monnetier-Mornex","nom_a":null,"nom_de":null,"slug_ville":"monnetier-mornex","departement_id":675,"code_postal":"74560","population":2332,"superficie_km2":"11.00","latitude_centre":"46.1529999","longitude_centre":"6.2119999","distance_km":7.25},{"id":7784,"code_insee":"74118","nom_standard":"Étrembières","nom_a":null,"nom_de":null,"slug_ville":"etrembieres","departement_id":675,"code_postal":"74100","population":2619,"superficie_km2":"5.00","latitude_centre":"46.1699982","longitude_centre":"6.2080002","distance_km":7.87},{"id":7893,"code_insee":"74311","nom_standard":"Viuz-en-Sallaz","nom_a":null,"nom_de":null,"slug_ville":"viuz-en-sallaz","departement_id":675,"code_postal":"74250","population":4600,"superficie_km2":"21.00","latitude_centre":"46.1640015","longitude_centre":"6.4070001","distance_km":7.93},{"id":7730,"code_insee":"74008","nom_standard":"Ambilly","nom_a":null,"nom_de":null,"slug_ville":"ambilly","departement_id":675,"code_postal":"74100","population":6166,"superficie_km2":"1.00","latitude_centre":"46.1959992","longitude_centre":"6.2240000","distance_km":8.13}]}