{"ville":{"id":8414,"code_insee":"78442","nom_standard":"Neauphle-le-Château","nom_a":null,"nom_de":null,"slug_ville":"neauphle-le-chateau","departement_id":679,"code_postal":"78640","population":3340,"superficie_km2":"2.00","latitude_centre":"48.8129997","longitude_centre":"1.9050000","dep_code":"78","dep_nom":"Yvelines","dep_slug":"yvelines","reg_code":"10","reg_nom":"Île-de-France","reg_slug":"ile-de-france"},"departement":{"code":"78","nom":"Yvelines","slug":"yvelines"},"region":{"code":"10","nom":"Île-de-France","slug":"ile-de-france"},"villes_proches":[{"id":8457,"code_insee":"78683","nom_standard":"Villiers-Saint-Frédéric","nom_a":null,"nom_de":null,"slug_ville":"villiers-saint-frederic","departement_id":679,"code_postal":"78640","population":3068,"superficie_km2":"5.00","latitude_centre":"48.8199997","longitude_centre":"1.8820000","distance_km":1.86},{"id":8433,"code_insee":"78550","nom_standard":"Saint-Germain-de-la-Grange","nom_a":null,"nom_de":null,"slug_ville":"saint-germain-de-la-grange","departement_id":679,"code_postal":"78640","population":1841,"superficie_km2":"5.00","latitude_centre":"48.8330002","longitude_centre":"1.9020000","distance_km":2.23},{"id":8381,"code_insee":"78321","nom_standard":"Jouars-Pontchartrain","nom_a":null,"nom_de":null,"slug_ville":"jouars-pontchartrain","departement_id":679,"code_postal":"78760","population":5814,"superficie_km2":"10.00","latitude_centre":"48.7900009","longitude_centre":"1.9080000","distance_km":2.57},{"id":8422,"code_insee":"78490","nom_standard":"Plaisir","nom_a":null,"nom_de":null,"slug_ville":"plaisir","departement_id":679,"code_postal":"78370","population":31375,"superficie_km2":"18.00","latitude_centre":"48.8129997","longitude_centre":"1.9470000","distance_km":3.08},{"id":8443,"code_insee":"78615","nom_standard":"Thiverval-Grignon","nom_a":null,"nom_de":null,"slug_ville":"thiverval-grignon","departement_id":679,"code_postal":"78850","population":1192,"superficie_km2":"11.00","latitude_centre":"48.8440018","longitude_centre":"1.9340000","distance_km":4.05},{"id":8401,"code_insee":"78383","nom_standard":"Maurepas","nom_a":null,"nom_de":null,"slug_ville":"maurepas","departement_id":679,"code_postal":"78310","population":18611,"superficie_km2":"8.00","latitude_centre":"48.7700005","longitude_centre":"1.9240000","distance_km":4.98},{"id":8329,"code_insee":"78062","nom_standard":"Beynes","nom_a":null,"nom_de":null,"slug_ville":"beynes","departement_id":679,"code_postal":"78650","population":7617,"superficie_km2":"19.00","latitude_centre":"48.8540001","longitude_centre":"1.8700000","distance_km":5.23},{"id":8360,"code_insee":"78208","nom_standard":"Élancourt","nom_a":null,"nom_de":null,"slug_ville":"elancourt","departement_id":679,"code_postal":"78990","population":26082,"superficie_km2":"9.00","latitude_centre":"48.7779999","longitude_centre":"1.9600000","distance_km":5.6},{"id":8352,"code_insee":"78165","nom_standard":"Les Clayes-sous-Bois","nom_a":null,"nom_de":null,"slug_ville":"les-clayes-sous-bois","departement_id":679,"code_postal":"78340","population":17237,"superficie_km2":"6.00","latitude_centre":"48.8190002","longitude_centre":"1.9840000","distance_km":5.82},{"id":8403,"code_insee":"78389","nom_standard":"Méré","nom_a":null,"nom_de":null,"slug_ville":"mere","departement_id":679,"code_postal":"78490","population":1667,"superficie_km2":"11.00","latitude_centre":"48.7960014","longitude_centre":"1.8200001","distance_km":6.51},{"id":8349,"code_insee":"78152","nom_standard":"Chavenay","nom_a":null,"nom_de":null,"slug_ville":"chavenay","departement_id":679,"code_postal":"78450","population":1746,"superficie_km2":"6.00","latitude_centre":"48.8479996","longitude_centre":"1.9830000","distance_km":6.91},{"id":8353,"code_insee":"78168","nom_standard":"Coignières","nom_a":null,"nom_de":null,"slug_ville":"coignieres","departement_id":679,"code_postal":"78310","population":4377,"superficie_km2":"8.00","latitude_centre":"48.7500000","longitude_centre":"1.9140000","distance_km":7.04},{"id":8452,"code_insee":"78644","nom_standard":"La Verrière","nom_a":null,"nom_de":null,"slug_ville":"la-verriere","departement_id":679,"code_postal":"78320","population":6183,"superficie_km2":"2.00","latitude_centre":"48.7550011","longitude_centre":"1.9510000","distance_km":7.28},{"id":8438,"code_insee":"78576","nom_standard":"Saint-Rémy-l'Honoré","nom_a":null,"nom_de":null,"slug_ville":"saint-remy-l-honore","departement_id":679,"code_postal":"78690","population":1668,"superficie_km2":"10.00","latitude_centre":"48.7490006","longitude_centre":"1.8760000","distance_km":7.43},{"id":8446,"code_insee":"78621","nom_standard":"Trappes","nom_a":null,"nom_de":null,"slug_ville":"trappes","departement_id":679,"code_postal":"78190","population":33717,"superficie_km2":"14.00","latitude_centre":"48.7750015","longitude_centre":"1.9930000","distance_km":7.71},{"id":8356,"code_insee":"78189","nom_standard":"Crespières","nom_a":null,"nom_de":null,"slug_ville":"crespieres","departement_id":679,"code_postal":"78121","population":1702,"superficie_km2":"15.00","latitude_centre":"48.8820000","longitude_centre":"1.9210000","distance_km":7.76},{"id":8456,"code_insee":"78674","nom_standard":"Villepreux","nom_a":null,"nom_de":null,"slug_ville":"villepreux","departement_id":679,"code_postal":"78450","population":11150,"superficie_km2":"10.00","latitude_centre":"48.8310013","longitude_centre":"2.0130000","distance_km":8.16},{"id":8330,"code_insee":"78073","nom_standard":"Bois-d'Arcy","nom_a":null,"nom_de":null,"slug_ville":"bois-d-arcy","departement_id":679,"code_postal":"78390","population":15435,"superficie_km2":"6.00","latitude_centre":"48.8040009","longitude_centre":"2.0190001","distance_km":8.41},{"id":8410,"code_insee":"78420","nom_standard":"Montfort-l'Amaury","nom_a":null,"nom_de":null,"slug_ville":"montfort-l-amaury","departement_id":679,"code_postal":"78490","population":2870,"superficie_km2":"6.00","latitude_centre":"48.7709999","longitude_centre":"1.8090000","distance_km":8.44},{"id":8369,"code_insee":"78262","nom_standard":"Galluis","nom_a":null,"nom_de":null,"slug_ville":"galluis","departement_id":679,"code_postal":"78490","population":1263,"superficie_km2":"5.00","latitude_centre":"48.7980003","longitude_centre":"1.7910000","distance_km":8.51}]}