{"ville":{"id":8840,"code_insee":"83088","nom_standard":"Néoules","nom_a":null,"nom_de":null,"slug_ville":"neoules","departement_id":684,"code_postal":"83136","population":2925,"superficie_km2":"25.00","latitude_centre":"43.2939987","longitude_centre":"6.0260000","dep_code":"83","dep_nom":"Var","dep_slug":"var","reg_code":"18","reg_nom":"Provence-Alpes-Côte d'Azur","reg_slug":"provence-alpes-cote-d-azur"},"departement":{"code":"83","nom":"Var","slug":"var"},"region":{"code":"18","nom":"Provence-Alpes-Côte d'Azur","slug":"provence-alpes-cote-d-azur"},"villes_proches":[{"id":8855,"code_insee":"83106","nom_standard":"Rocbaron","nom_a":null,"nom_de":null,"slug_ville":"rocbaron","departement_id":684,"code_postal":"83136","population":5422,"superficie_km2":"20.00","latitude_centre":"43.3069992","longitude_centre":"6.0840001","distance_km":4.91},{"id":8822,"code_insee":"83064","nom_standard":"Garéoult","nom_a":null,"nom_de":null,"slug_ville":"gareoult","departement_id":684,"code_postal":"83136","population":5322,"superficie_km2":"16.00","latitude_centre":"43.3400002","longitude_centre":"6.0409999","distance_km":5.26},{"id":8832,"code_insee":"83077","nom_standard":"Méounes-lès-Montrieux","nom_a":null,"nom_de":null,"slug_ville":"meounes-les-montrieux","departement_id":684,"code_postal":"83136","population":2243,"superficie_km2":"41.00","latitude_centre":"43.2739983","longitude_centre":"5.9670000","distance_km":5.27},{"id":8857,"code_insee":"83108","nom_standard":"La Roquebrussanne","nom_a":null,"nom_de":null,"slug_ville":"la-roquebrussanne","departement_id":684,"code_postal":"83136","population":2192,"superficie_km2":"37.00","latitude_centre":"43.3370018","longitude_centre":"5.9840002","distance_km":5.87},{"id":8786,"code_insee":"83017","nom_standard":"Belgentier","nom_a":null,"nom_de":null,"slug_ville":"belgentier","departement_id":684,"code_postal":"83210","population":2399,"superficie_km2":"13.00","latitude_centre":"43.2400017","longitude_centre":"5.9970002","distance_km":6.45},{"id":8809,"code_insee":"83049","nom_standard":"Cuers","nom_a":null,"nom_de":null,"slug_ville":"cuers","departement_id":684,"code_postal":"83390","population":12550,"superficie_km2":"51.00","latitude_centre":"43.2410011","longitude_centre":"6.0689998","distance_km":6.84},{"id":8818,"code_insee":"83059","nom_standard":"Forcalqueiret","nom_a":null,"nom_de":null,"slug_ville":"forcalqueiret","departement_id":684,"code_postal":"83136","population":3269,"superficie_km2":"11.00","latitude_centre":"43.3370018","longitude_centre":"6.0910001","distance_km":7.11},{"id":8859,"code_insee":"83111","nom_standard":"Sainte-Anastasie-sur-Issole","nom_a":null,"nom_de":null,"slug_ville":"sainte-anastasie-sur-issole","departement_id":684,"code_postal":"83136","population":2117,"superficie_km2":"11.00","latitude_centre":"43.3330002","longitude_centre":"6.1250000","distance_km":9.11},{"id":8876,"code_insee":"83131","nom_standard":"Solliès-Toucas","nom_a":null,"nom_de":null,"slug_ville":"sollies-toucas","departement_id":684,"code_postal":"83210","population":5912,"superficie_km2":"30.00","latitude_centre":"43.2130013","longitude_centre":"5.9870000","distance_km":9.54},{"id":8850,"code_insee":"83100","nom_standard":"Puget-Ville","nom_a":null,"nom_de":null,"slug_ville":"puget-ville","departement_id":684,"code_postal":"83390","population":4488,"superficie_km2":"37.00","latitude_centre":"43.2760010","longitude_centre":"6.1490002","distance_km":10.16},{"id":8803,"code_insee":"83037","nom_standard":"La Celle","nom_a":null,"nom_de":null,"slug_ville":"la-celle","departement_id":684,"code_postal":"83170","population":1592,"superficie_km2":"22.00","latitude_centre":"43.3839989","longitude_centre":"5.9990001","distance_km":10.24},{"id":8796,"code_insee":"83030","nom_standard":"Camps-la-Source","nom_a":null,"nom_de":null,"slug_ville":"camps-la-source","departement_id":684,"code_postal":"83170","population":1901,"superficie_km2":"23.00","latitude_centre":"43.3720017","longitude_centre":"6.1209998","distance_km":11.59},{"id":8875,"code_insee":"83130","nom_standard":"Solliès-Pont","nom_a":null,"nom_de":null,"slug_ville":"sollies-pont","departement_id":684,"code_postal":"83210","population":12080,"superficie_km2":"18.00","latitude_centre":"43.1910019","longitude_centre":"6.0630002","distance_km":11.84},{"id":8790,"code_insee":"83023","nom_standard":"Brignoles","nom_a":null,"nom_de":null,"slug_ville":"brignoles","departement_id":684,"code_postal":"83170","population":17664,"superficie_km2":"71.00","latitude_centre":"43.3989983","longitude_centre":"6.0770001","distance_km":12.38},{"id":8877,"code_insee":"83132","nom_standard":"Solliès-Ville","nom_a":null,"nom_de":null,"slug_ville":"sollies-ville","departement_id":684,"code_postal":"83210","population":2529,"superficie_km2":"14.00","latitude_centre":"43.1780014","longitude_centre":"6.0170002","distance_km":12.92},{"id":8787,"code_insee":"83018","nom_standard":"Besse-sur-Issole","nom_a":null,"nom_de":null,"slug_ville":"besse-sur-issole","departement_id":684,"code_postal":"83890","population":3095,"superficie_km2":"37.00","latitude_centre":"43.3400002","longitude_centre":"6.1780000","distance_km":13.32},{"id":8873,"code_insee":"83127","nom_standard":"Signes","nom_a":null,"nom_de":null,"slug_ville":"signes","departement_id":684,"code_postal":"83870","population":3059,"superficie_km2":"133.00","latitude_centre":"43.2779999","longitude_centre":"5.8569999","distance_km":13.79},{"id":8799,"code_insee":"83033","nom_standard":"Carnoules","nom_a":null,"nom_de":null,"slug_ville":"carnoules","departement_id":684,"code_postal":"83660","population":3852,"superficie_km2":"26.00","latitude_centre":"43.2949982","longitude_centre":"6.1970000","distance_km":13.84},{"id":8853,"code_insee":"83103","nom_standard":"Le Revest-les-Eaux","nom_a":null,"nom_de":null,"slug_ville":"le-revest-les-eaux","departement_id":684,"code_postal":"83200","population":4002,"superficie_km2":"24.00","latitude_centre":"43.1819992","longitude_centre":"5.9460001","distance_km":14.04},{"id":8842,"code_insee":"83091","nom_standard":"Pierrefeu-du-Var","nom_a":null,"nom_de":null,"slug_ville":"pierrefeu-du-var","departement_id":684,"code_postal":"83390","population":6083,"superficie_km2":"59.00","latitude_centre":"43.2340012","longitude_centre":"6.1799998","distance_km":14.14}]}