{"ville":{"id":29567,"code_insee":"67228","nom_standard":"Neugartheim-Ittlenheim","nom_a":null,"nom_de":null,"slug_ville":"neugartheim-ittlenheim","departement_id":0,"code_postal":"67370","population":784,"superficie_km2":"419.73","latitude_centre":"48.6572","longitude_centre":"7.5408","dep_code":"67","dep_nom":"Bas-Rhin","dep_slug":"bas-rhin","reg_code":"44","reg_nom":"Grand Est","reg_slug":"grand-est"},"departement":{"code":"67","nom":"Bas-Rhin","slug":"bas-rhin"},"region":{"code":"44","nom":"Grand Est","slug":"grand-est"},"villes_proches":[{"id":0,"code_insee":"67253","nom_standard":"Kuttolsheim","nom_a":null,"nom_de":null,"slug_ville":"kuttolsheim","departement_id":0,"code_postal":"67520","population":651,"superficie_km2":"474.01","latitude_centre":"48.6469","longitude_centre":"7.5155","distance_km":2.18},{"id":0,"code_insee":"67452","nom_standard":"Schnersheim","nom_a":null,"nom_de":null,"slug_ville":"schnersheim","departement_id":0,"code_postal":"67370","population":1853,"superficie_km2":"1108.84","latitude_centre":"48.6577","longitude_centre":"7.5707","distance_km":2.2},{"id":0,"code_insee":"67542","nom_standard":"Wintzenheim-Kochersberg","nom_a":null,"nom_de":null,"slug_ville":"wintzenheim-kochersberg","departement_id":0,"code_postal":"67370","population":532,"superficie_km2":"198.10","latitude_centre":"48.6576","longitude_centre":"7.5055","distance_km":2.59},{"id":0,"code_insee":"67532","nom_standard":"Willgottheim","nom_a":null,"nom_de":null,"slug_ville":"willgottheim","departement_id":0,"code_postal":"67370","population":1057,"superficie_km2":"922.10","latitude_centre":"48.6747","longitude_centre":"7.5142","distance_km":2.76},{"id":29520,"code_insee":"67138","nom_standard":"Fessenheim-le-Bas","nom_a":null,"nom_de":null,"slug_ville":"fessenheim-le-bas","departement_id":0,"code_postal":"67117","population":570,"superficie_km2":"507.08","latitude_centre":"48.6326","longitude_centre":"7.5471","distance_km":2.77},{"id":29501,"code_insee":"67102","nom_standard":"Dossenheim-Kochersberg","nom_a":null,"nom_de":null,"slug_ville":"dossenheim-kochersberg","departement_id":0,"code_postal":"67117","population":322,"superficie_km2":"182.13","latitude_centre":"48.6413","longitude_centre":"7.5778","distance_km":3.24},{"id":29504,"code_insee":"67109","nom_standard":"Durningen","nom_a":null,"nom_de":null,"slug_ville":"durningen","departement_id":0,"code_postal":"67270","population":687,"superficie_km2":"414.96","latitude_centre":"48.6841","longitude_centre":"7.5636","distance_km":3.43},{"id":0,"code_insee":"67335","nom_standard":"Nordheim","nom_a":null,"nom_de":null,"slug_ville":"nordheim","departement_id":0,"code_postal":"67520","population":945,"superficie_km2":"641.19","latitude_centre":"48.6403","longitude_centre":"7.5012","distance_km":3.46},{"id":0,"code_insee":"67406","nom_standard":"Rohr","nom_a":null,"nom_de":null,"slug_ville":"rohr","departement_id":0,"code_postal":"67270","population":377,"superficie_km2":"344.76","latitude_centre":"48.694","longitude_centre":"7.5369","distance_km":4.1},{"id":0,"code_insee":"67556","nom_standard":"Zeinheim","nom_a":null,"nom_de":null,"slug_ville":"zeinheim","departement_id":0,"code_postal":"67310","population":234,"superficie_km2":"249.08","latitude_centre":"48.6766","longitude_centre":"7.4895","distance_km":4.34},{"id":0,"code_insee":"67382","nom_standard":"Quatzenheim","nom_a":null,"nom_de":null,"slug_ville":"quatzenheim","departement_id":0,"code_postal":"67117","population":782,"superficie_km2":"316.65","latitude_centre":"48.6268","longitude_centre":"7.5785","distance_km":4.37},{"id":0,"code_insee":"67258","nom_standard":"Landersheim","nom_a":null,"nom_de":null,"slug_ville":"landersheim","departement_id":0,"code_postal":"67700","population":192,"superficie_km2":"211.75","latitude_centre":"48.6911","longitude_centre":"7.5034","distance_km":4.66},{"id":0,"code_insee":"67236","nom_standard":"Kienheim","nom_a":null,"nom_de":null,"slug_ville":"kienheim","departement_id":0,"code_postal":"67270","population":537,"superficie_km2":"324.48","latitude_centre":"48.6878","longitude_centre":"7.5854","distance_km":4.72},{"id":0,"code_insee":"67548","nom_standard":"Wiwersheim","nom_a":null,"nom_de":null,"slug_ville":"wiwersheim","departement_id":0,"code_postal":"67370","population":922,"superficie_km2":"336.38","latitude_centre":"48.6375","longitude_centre":"7.5985","distance_km":4.77},{"id":0,"code_insee":"67282","nom_standard":"Marlenheim","nom_a":null,"nom_de":null,"slug_ville":"marlenheim","departement_id":0,"code_postal":"67520","population":4185,"superficie_km2":"1445.14","latitude_centre":"48.6209","longitude_centre":"7.5016","distance_km":4.96},{"id":0,"code_insee":"67383","nom_standard":"Rangen","nom_a":null,"nom_de":null,"slug_ville":"rangen","departement_id":0,"code_postal":"67310","population":217,"superficie_km2":"165.25","latitude_centre":"48.6727","longitude_centre":"7.476","distance_km":5.06},{"id":0,"code_insee":"67150","nom_standard":"Furdenheim","nom_a":null,"nom_de":null,"slug_ville":"furdenheim","departement_id":0,"code_postal":"67117","population":1620,"superficie_km2":"588.47","latitude_centre":"48.6101","longitude_centre":"7.5617","distance_km":5.46},{"id":29536,"code_insee":"67163","nom_standard":"Gougenheim","nom_a":null,"nom_de":null,"slug_ville":"gougenheim","departement_id":0,"code_postal":"67270","population":531,"superficie_km2":"674.83","latitude_centre":"48.7053","longitude_centre":"7.5749","distance_km":5.91},{"id":29503,"code_insee":"67107","nom_standard":"Duntzenheim","nom_a":null,"nom_de":null,"slug_ville":"duntzenheim","departement_id":0,"code_postal":"67270","population":660,"superficie_km2":"630.65","latitude_centre":"48.7118","longitude_centre":"7.5451","distance_km":6.08},{"id":0,"code_insee":"67423","nom_standard":"Saessolsheim","nom_a":null,"nom_de":null,"slug_ville":"saessolsheim","departement_id":0,"code_postal":"67270","population":604,"superficie_km2":"664.45","latitude_centre":"48.7103","longitude_centre":"7.5121","distance_km":6.27}]}