{"ville":{"id":17621,"code_insee":"27429","nom_standard":"Neuilly","nom_a":null,"nom_de":null,"slug_ville":"neuilly","departement_id":0,"code_postal":"27730","population":168,"superficie_km2":"468.52","latitude_centre":"48.9313","longitude_centre":"1.4153","dep_code":"27","dep_nom":"Eure","dep_slug":"eure","reg_code":"28","reg_nom":"Normandie","reg_slug":"normandie"},"departement":{"code":"27","nom":"Eure","slug":"eure"},"region":{"code":"28","nom":"Normandie","slug":"normandie"},"villes_proches":[{"id":17487,"code_insee":"27220","nom_standard":"Épieds","nom_a":null,"nom_de":null,"slug_ville":"epieds","departement_id":0,"code_postal":"27730","population":358,"superficie_km2":"483.04","latitude_centre":"48.9346","longitude_centre":"1.3967","distance_km":1.41},{"id":0,"code_insee":"27119","nom_standard":"Bueil","nom_a":null,"nom_de":null,"slug_ville":"bueil","departement_id":0,"code_postal":"27730","population":1642,"superficie_km2":"489.31","latitude_centre":"48.934","longitude_centre":"1.4459","distance_km":2.26},{"id":0,"code_insee":"27278","nom_standard":"Garennes-sur-Eure","nom_a":null,"nom_de":null,"slug_ville":"garennes-sur-eure","departement_id":0,"code_postal":"27780","population":1996,"superficie_km2":"1053.97","latitude_centre":"48.9093","longitude_centre":"1.4317","distance_km":2.72},{"id":0,"code_insee":"27183","nom_standard":"La Couture-Boussey","nom_a":null,"nom_de":null,"slug_ville":"la-couture-boussey","departement_id":0,"code_postal":"27750","population":2295,"superficie_km2":"1095.59","latitude_centre":"48.9032","longitude_centre":"1.397","distance_km":3.4},{"id":17599,"code_insee":"27400","nom_standard":"Merey","nom_a":null,"nom_de":null,"slug_ville":"merey","departement_id":0,"code_postal":"27640","population":347,"superficie_km2":"865.98","latitude_centre":"48.9588","longitude_centre":"1.3895","distance_km":3.59},{"id":17401,"code_insee":"27078","nom_standard":"La Boissière","nom_a":null,"nom_de":null,"slug_ville":"la-boissiere","departement_id":0,"code_postal":"27220","population":259,"superficie_km2":"343.83","latitude_centre":"48.9513","longitude_centre":"1.3686","distance_km":4.07},{"id":0,"code_insee":"27114","nom_standard":"Breuilpont","nom_a":null,"nom_de":null,"slug_ville":"breuilpont","departement_id":0,"code_postal":"27640","population":1201,"superficie_km2":"1229.60","latitude_centre":"48.9657","longitude_centre":"1.4398","distance_km":4.22},{"id":0,"code_insee":"27621","nom_standard":"Serez","nom_a":null,"nom_de":null,"slug_ville":"serez","departement_id":0,"code_postal":"27220","population":166,"superficie_km2":"631.04","latitude_centre":"48.9365","longitude_centre":"1.3575","distance_km":4.26},{"id":0,"code_insee":"28187","nom_standard":"Guainville","nom_a":null,"nom_de":null,"slug_ville":"guainville","departement_id":0,"code_postal":"28260","population":696,"superficie_km2":"1437.54","latitude_centre":"48.9186","longitude_centre":"1.4811","distance_km":5.01},{"id":17417,"code_insee":"27111","nom_standard":"Bretagnolles","nom_a":null,"nom_de":null,"slug_ville":"bretagnolles","departement_id":0,"code_postal":"27220","population":203,"superficie_km2":"378.65","latitude_centre":"48.9467","longitude_centre":"1.3427","distance_km":5.57},{"id":0,"code_insee":"27355","nom_standard":"Ivry-la-Bataille","nom_a":null,"nom_de":null,"slug_ville":"ivry-la-bataille","departement_id":0,"code_postal":"27540","population":2609,"superficie_km2":"777.85","latitude_centre":"48.8847","longitude_centre":"1.4467","distance_km":5.67},{"id":0,"code_insee":"27696","nom_standard":"Villiers-en-Désœuvre","nom_a":null,"nom_de":null,"slug_ville":"villiers-en-desoeuvre","departement_id":0,"code_postal":"27640","population":853,"superficie_km2":"1466.48","latitude_centre":"48.96","longitude_centre":"1.4807","distance_km":5.74},{"id":17517,"code_insee":"27273","nom_standard":"Gadencourt","nom_a":null,"nom_de":null,"slug_ville":"gadencourt","departement_id":0,"code_postal":"27120","population":364,"superficie_km2":"389.53","latitude_centre":"48.9855","longitude_centre":"1.4019","distance_km":6.11},{"id":17614,"code_insee":"27419","nom_standard":"Mouettes","nom_a":null,"nom_de":null,"slug_ville":"mouettes","departement_id":0,"code_postal":"27220","population":744,"superficie_km2":"833.35","latitude_centre":"48.8866","longitude_centre":"1.365","distance_km":6.18},{"id":17548,"code_insee":"27326","nom_standard":"Hécourt","nom_a":null,"nom_de":null,"slug_ville":"hecourt","departement_id":0,"code_postal":"27120","population":325,"superficie_km2":"773.41","latitude_centre":"48.9877","longitude_centre":"1.4256","distance_km":6.32},{"id":0,"code_insee":"27465","nom_standard":"Le Plessis-Hébert","nom_a":null,"nom_de":null,"slug_ville":"le-plessis-hebert","departement_id":0,"code_postal":"27120","population":404,"superficie_km2":"1177.83","latitude_centre":"48.9817","longitude_centre":"1.3659","distance_km":6.66},{"id":0,"code_insee":"27230","nom_standard":"Ézy-sur-Eure","nom_a":null,"nom_de":null,"slug_ville":"ezy-sur-eure","departement_id":0,"code_postal":"27530","population":3644,"superficie_km2":"892.90","latitude_centre":"48.8708","longitude_centre":"1.4138","distance_km":6.73},{"id":17492,"code_insee":"27231","nom_standard":"Fains","nom_a":null,"nom_de":null,"slug_ville":"fains","departement_id":0,"code_postal":"27120","population":409,"superficie_km2":"375.73","latitude_centre":"48.997","longitude_centre":"1.3862","distance_km":7.61},{"id":17353,"code_insee":"27004","nom_standard":"Aigleville","nom_a":null,"nom_de":null,"slug_ville":"aigleville","departement_id":0,"code_postal":"27120","population":414,"superficie_km2":"326.93","latitude_centre":"49.0053","longitude_centre":"1.424","distance_km":8.25},{"id":0,"code_insee":"28371","nom_standard":"Saussay","nom_a":null,"nom_de":null,"slug_ville":"saussay","departement_id":0,"code_postal":"28260","population":1080,"superficie_km2":"470.04","latitude_centre":"48.8503","longitude_centre":"1.4102","distance_km":9.01}]}