{"ville":{"id":3441,"code_insee":"36140","nom_standard":"Neuvy-Pailloux","nom_a":null,"nom_de":null,"slug_ville":"neuvy-pailloux","departement_id":637,"code_postal":"36100","population":1163,"superficie_km2":"42.00","latitude_centre":"46.9039993","longitude_centre":"1.8590000","dep_code":"36","dep_nom":"Indre","dep_slug":"indre","reg_code":"04","reg_nom":"Centre-Val de Loire","reg_slug":"centre-val-de-loire"},"departement":{"code":"36","nom":"Indre","slug":"indre"},"region":{"code":"04","nom":"Centre-Val de Loire","slug":"centre-val-de-loire"},"villes_proches":[{"id":3440,"code_insee":"36128","nom_standard":"Montierchaume","nom_a":null,"nom_de":null,"slug_ville":"montierchaume","departement_id":637,"code_postal":"36130","population":1651,"superficie_km2":"38.00","latitude_centre":"46.8660011","longitude_centre":"1.7780000","distance_km":7.47},{"id":3434,"code_insee":"36088","nom_standard":"Issoudun","nom_a":null,"nom_de":null,"slug_ville":"issoudun","departement_id":637,"code_postal":"36100","population":10992,"superficie_km2":"37.00","latitude_centre":"46.9490013","longitude_centre":"2.0000000","distance_km":11.82},{"id":3433,"code_insee":"36071","nom_standard":"Étrechet","nom_a":null,"nom_de":null,"slug_ville":"etrechet","departement_id":637,"code_postal":"36120","population":1009,"superficie_km2":"18.00","latitude_centre":"46.7929993","longitude_centre":"1.7780000","distance_km":13.79},{"id":3430,"code_insee":"36063","nom_standard":"Déols","nom_a":null,"nom_de":null,"slug_ville":"deols","departement_id":637,"code_postal":"36130","population":7625,"superficie_km2":"32.00","latitude_centre":"46.8400002","longitude_centre":"1.7020000","distance_km":13.9},{"id":3457,"code_insee":"36247","nom_standard":"Vineuil","nom_a":null,"nom_de":null,"slug_ville":"vineuil","departement_id":637,"code_postal":"36110","population":1239,"superficie_km2":"45.00","latitude_centre":"46.9080010","longitude_centre":"1.6540000","distance_km":15.58},{"id":3449,"code_insee":"36199","nom_standard":"Sainte-Lizaigne","nom_a":null,"nom_de":null,"slug_ville":"sainte-lizaigne","departement_id":637,"code_postal":"36260","population":1116,"superficie_km2":"27.00","latitude_centre":"47.0110016","longitude_centre":"1.9950000","distance_km":15.75},{"id":3427,"code_insee":"36044","nom_standard":"Châteauroux","nom_a":null,"nom_de":null,"slug_ville":"chateauroux","departement_id":637,"code_postal":"36000","population":42968,"superficie_km2":"25.00","latitude_centre":"46.8030014","longitude_centre":"1.6940000","distance_km":16.84},{"id":3454,"code_insee":"36230","nom_standard":"Vatan","nom_a":null,"nom_de":null,"slug_ville":"vatan","departement_id":637,"code_postal":"36150","population":1926,"superficie_km2":"30.00","latitude_centre":"47.0540009","longitude_centre":"1.8250000","distance_km":16.88},{"id":3420,"code_insee":"36005","nom_standard":"Ardentes","nom_a":null,"nom_de":null,"slug_ville":"ardentes","departement_id":637,"code_postal":"36120","population":3778,"superficie_km2":"63.00","latitude_centre":"46.7360001","longitude_centre":"1.8240000","distance_km":18.87},{"id":3435,"code_insee":"36093","nom_standard":"Levroux","nom_a":null,"nom_de":null,"slug_ville":"levroux","departement_id":637,"code_postal":"36110","population":2842,"superficie_km2":"56.00","latitude_centre":"46.9729996","longitude_centre":"1.6300000","distance_km":19},{"id":3445,"code_insee":"36159","nom_standard":"Le Poinçonnet","nom_a":null,"nom_de":null,"slug_ville":"le-poinconnet","departement_id":637,"code_postal":"36330","population":5840,"superficie_km2":"46.00","latitude_centre":"46.7570000","longitude_centre":"1.7300000","distance_km":19.07},{"id":3451,"code_insee":"36202","nom_standard":"Saint-Maur","nom_a":null,"nom_de":null,"slug_ville":"saint-maur","departement_id":637,"code_postal":"36250","population":3641,"superficie_km2":"71.00","latitude_centre":"46.7890015","longitude_centre":"1.6230000","distance_km":22.04},{"id":3447,"code_insee":"36171","nom_standard":"Reuilly","nom_a":null,"nom_de":null,"slug_ville":"reuilly","departement_id":637,"code_postal":"36260","population":1995,"superficie_km2":"26.00","latitude_centre":"47.0800018","longitude_centre":"2.0109999","distance_km":22.71},{"id":3443,"code_insee":"36142","nom_standard":"Niherne","nom_a":null,"nom_de":null,"slug_ville":"niherne","departement_id":637,"code_postal":"36250","population":1493,"superficie_km2":"44.00","latitude_centre":"46.8019981","longitude_centre":"1.5580000","distance_km":25.54},{"id":3422,"code_insee":"36009","nom_standard":"Arthon","nom_a":null,"nom_de":null,"slug_ville":"arthon","departement_id":637,"code_postal":"36330","population":1219,"superficie_km2":"48.00","latitude_centre":"46.6930008","longitude_centre":"1.7110000","distance_km":26.03},{"id":1351,"code_insee":"18103","nom_standard":"Graçay","nom_a":null,"nom_de":null,"slug_ville":"gracay","departement_id":618,"code_postal":"18310","population":1307,"superficie_km2":"32.00","latitude_centre":"47.1409988","longitude_centre":"1.8570000","distance_km":26.35},{"id":3456,"code_insee":"36241","nom_standard":"Villedieu-sur-Indre","nom_a":null,"nom_de":null,"slug_ville":"villedieu-sur-indre","departement_id":637,"code_postal":"36320","population":2647,"superficie_km2":"58.00","latitude_centre":"46.8450012","longitude_centre":"1.5160000","distance_km":26.89},{"id":1360,"code_insee":"18140","nom_standard":"Massay","nom_a":null,"nom_de":null,"slug_ville":"massay","departement_id":618,"code_postal":"18120","population":1348,"superficie_km2":"48.00","latitude_centre":"47.1549988","longitude_centre":"1.9859999","distance_km":29.52},{"id":3436,"code_insee":"36101","nom_standard":"Luant","nom_a":null,"nom_de":null,"slug_ville":"luant","departement_id":637,"code_postal":"36350","population":1565,"superficie_km2":"31.00","latitude_centre":"46.7280006","longitude_centre":"1.5620000","distance_km":29.9},{"id":1358,"code_insee":"18133","nom_standard":"Lunery","nom_a":null,"nom_de":null,"slug_ville":"lunery","departement_id":618,"code_postal":"18400","population":1558,"superficie_km2":"33.00","latitude_centre":"46.9379997","longitude_centre":"2.2579999","distance_km":30.54}]}