{"ville":{"id":14567,"code_insee":"17260","nom_standard":"Neuvicq","nom_a":null,"nom_de":null,"slug_ville":"neuvicq","departement_id":0,"code_postal":"17270","population":378,"superficie_km2":"2291.38","latitude_centre":"45.2642","longitude_centre":"-0.1702","dep_code":"17","dep_nom":"Charente-Maritime","dep_slug":"charente-maritime","reg_code":"75","reg_nom":"Nouvelle-Aquitaine","reg_slug":"nouvelle-aquitaine"},"departement":{"code":"17","nom":"Charente-Maritime","slug":"charente-maritime"},"region":{"code":"75","nom":"Nouvelle-Aquitaine","slug":"nouvelle-aquitaine"},"villes_proches":[{"id":0,"code_insee":"17378","nom_standard":"Saint-Palais-de-Négrignac","nom_a":null,"nom_de":null,"slug_ville":"saint-palais-de-negrignac","departement_id":0,"code_postal":"17210","population":410,"superficie_km2":"1884.58","latitude_centre":"45.2718","longitude_centre":"-0.2039","distance_km":2.77},{"id":14431,"code_insee":"17054","nom_standard":"Boresse-et-Martron","nom_a":null,"nom_de":null,"slug_ville":"boresse-et-martron","departement_id":0,"code_postal":"17270","population":200,"superficie_km2":"1124.79","latitude_centre":"45.2715","longitude_centre":"-0.1283","distance_km":3.38},{"id":0,"code_insee":"17104","nom_standard":"Chevanceaux","nom_a":null,"nom_de":null,"slug_ville":"chevanceaux","departement_id":0,"code_postal":"17210","population":1065,"superficie_km2":"2218.05","latitude_centre":"45.3012","longitude_centre":"-0.2032","distance_km":4.86},{"id":0,"code_insee":"17365","nom_standard":"Saint-Martin-d'Ary","nom_a":null,"nom_de":null,"slug_ville":"saint-martin-d-ary","departement_id":0,"code_postal":"17270","population":470,"superficie_km2":"866.83","latitude_centre":"45.2179","longitude_centre":"-0.2006","distance_km":5.67},{"id":14213,"code_insee":"16161","nom_standard":"Guizengeard","nom_a":null,"nom_de":null,"slug_ville":"guizengeard","departement_id":0,"code_postal":"16480","population":166,"superficie_km2":"1483.14","latitude_centre":"45.3106","longitude_centre":"-0.1237","distance_km":6.31},{"id":0,"code_insee":"17241","nom_standard":"Montguyon","nom_a":null,"nom_de":null,"slug_ville":"montguyon","departement_id":0,"code_postal":"17270","population":1705,"superficie_km2":"1824.52","latitude_centre":"45.2071","longitude_centre":"-0.1679","distance_km":6.35},{"id":14348,"code_insee":"16365","nom_standard":"Sauvignac","nom_a":null,"nom_de":null,"slug_ville":"sauvignac","departement_id":0,"code_postal":"16480","population":95,"superficie_km2":"1170.70","latitude_centre":"45.2662","longitude_centre":"-0.0828","distance_km":6.84},{"id":0,"code_insee":"17287","nom_standard":"Pouillac","nom_a":null,"nom_de":null,"slug_ville":"pouillac","departement_id":0,"code_postal":"17210","population":294,"superficie_km2":"463.03","latitude_centre":"45.2722","longitude_centre":"-0.2587","distance_km":6.98},{"id":14136,"code_insee":"16048","nom_standard":"Boisbreteau","nom_a":null,"nom_de":null,"slug_ville":"boisbreteau","departement_id":0,"code_postal":"16480","population":136,"superficie_km2":"1524.87","latitude_centre":"45.3266","longitude_centre":"-0.1562","distance_km":7.02},{"id":0,"code_insee":"17269","nom_standard":"Orignolles","nom_a":null,"nom_de":null,"slug_ville":"orignolles","departement_id":0,"code_postal":"17210","population":698,"superficie_km2":"1385.80","latitude_centre":"45.2212","longitude_centre":"-0.236","distance_km":7.03},{"id":14503,"code_insee":"17167","nom_standard":"Le Fouilloux","nom_a":null,"nom_de":null,"slug_ville":"le-fouilloux","departement_id":0,"code_postal":"17270","population":755,"superficie_km2":"2970.15","latitude_centre":"45.2078","longitude_centre":"-0.1263","distance_km":7.15},{"id":14140,"code_insee":"16053","nom_standard":"Bors (Canton de Charente-Sud)","nom_a":null,"nom_de":null,"slug_ville":"bors-canton-de-charente-sud","departement_id":0,"code_postal":"16360","population":119,"superficie_km2":"1230.19","latitude_centre":"45.3265","longitude_centre":"-0.2004","distance_km":7.32},{"id":14342,"code_insee":"16357","nom_standard":"Saint-Vallier","nom_a":null,"nom_de":null,"slug_ville":"saint-vallier","departement_id":0,"code_postal":"16480","population":139,"superficie_km2":"1825.36","latitude_centre":"45.2833","longitude_centre":"-0.0731","distance_km":7.89},{"id":0,"code_insee":"17319","nom_standard":"Sainte-Colombe","nom_a":null,"nom_de":null,"slug_ville":"sainte-colombe","departement_id":0,"code_postal":"17210","population":113,"superficie_km2":"440.40","latitude_centre":"45.2828","longitude_centre":"-0.2725","distance_km":8.27},{"id":0,"code_insee":"17243","nom_standard":"Montlieu-la-Garde","nom_a":null,"nom_de":null,"slug_ville":"montlieu-la-garde","departement_id":0,"code_postal":"17210","population":1310,"superficie_km2":"3191.04","latitude_centre":"45.2286","longitude_centre":"-0.2748","distance_km":9.1},{"id":14160,"code_insee":"16079","nom_standard":"Chantillac","nom_a":null,"nom_de":null,"slug_ville":"chantillac","departement_id":0,"code_postal":"16360","population":370,"superficie_km2":"1796.74","latitude_centre":"45.3235","longitude_centre":"-0.2526","distance_km":9.22},{"id":14275,"code_insee":"16251","nom_standard":"Oriolles","nom_a":null,"nom_de":null,"slug_ville":"oriolles","departement_id":0,"code_postal":"16480","population":242,"superficie_km2":"1833.30","latitude_centre":"45.355","longitude_centre":"-0.1434","distance_km":10.31},{"id":14464,"code_insee":"17110","nom_standard":"Clérac","nom_a":null,"nom_de":null,"slug_ville":"clerac","departement_id":0,"code_postal":"17270","population":1074,"superficie_km2":"4355.16","latitude_centre":"45.1734","longitude_centre":"-0.2376","distance_km":11.39},{"id":0,"code_insee":"17386","nom_standard":"Saint-Pierre-du-Palais","nom_a":null,"nom_de":null,"slug_ville":"saint-pierre-du-palais","departement_id":0,"code_postal":"17270","population":337,"superficie_km2":"1300.28","latitude_centre":"45.1573","longitude_centre":"-0.1497","distance_km":11.99},{"id":14360,"code_insee":"16384","nom_standard":"Touvérac","nom_a":null,"nom_de":null,"slug_ville":"touverac","departement_id":0,"code_postal":"16360","population":583,"superficie_km2":"1829.01","latitude_centre":"45.3748","longitude_centre":"-0.2001","distance_km":12.52}]}