{"ville":{"id":33187,"code_insee":"80591","nom_standard":"Neuville-au-Bois","nom_a":null,"nom_de":null,"slug_ville":"neuville-au-bois","departement_id":0,"code_postal":"80140","population":144,"superficie_km2":"294.71","latitude_centre":"49.9681","longitude_centre":"1.7853","dep_code":"80","dep_nom":"Somme","dep_slug":"somme","reg_code":"32","reg_nom":"Hauts-de-France","reg_slug":"hauts-de-france"},"departement":{"code":"80","nom":"Somme","slug":"somme"},"region":{"code":"32","nom":"Hauts-de-France","slug":"hauts-de-france"},"villes_proches":[{"id":32973,"code_insee":"80330","nom_standard":"Forceville-en-Vimeu","nom_a":null,"nom_de":null,"slug_ville":"forceville-en-vimeu","departement_id":0,"code_postal":"80140","population":226,"superficie_km2":"298.25","latitude_centre":"49.962","longitude_centre":"1.7999","distance_km":1.25},{"id":0,"code_insee":"80606","nom_standard":"Oisemont","nom_a":null,"nom_de":null,"slug_ville":"oisemont","departement_id":0,"code_postal":"80140","population":1127,"superficie_km2":"808.98","latitude_centre":"49.955","longitude_centre":"1.7614","distance_km":2.25},{"id":0,"code_insee":"80783","nom_standard":"Vaux-Marquenneville","nom_a":null,"nom_de":null,"slug_ville":"vaux-marquenneville","departement_id":0,"code_postal":"80140","population":79,"superficie_km2":"399.28","latitude_centre":"49.9893","longitude_centre":"1.7837","distance_km":2.36},{"id":32995,"code_insee":"80354","nom_standard":"Fresnes-Tilloloy","nom_a":null,"nom_de":null,"slug_ville":"fresnes-tilloloy","departement_id":0,"code_postal":"80140","population":211,"superficie_km2":"353.15","latitude_centre":"49.9821","longitude_centre":"1.7597","distance_km":2.4},{"id":32864,"code_insee":"80196","nom_standard":"Citerne","nom_a":null,"nom_de":null,"slug_ville":"citerne","departement_id":0,"code_postal":"80490","population":240,"superficie_km2":"644.86","latitude_centre":"49.9788","longitude_centre":"1.8153","distance_km":2.45},{"id":0,"code_insee":"80828","nom_standard":"Woirel","nom_a":null,"nom_de":null,"slug_ville":"woirel","departement_id":0,"code_postal":"80140","population":46,"superficie_km2":"186.62","latitude_centre":"49.9576","longitude_centre":"1.8196","distance_km":2.72},{"id":32967,"code_insee":"80324","nom_standard":"Fontaine-le-Sec","nom_a":null,"nom_de":null,"slug_ville":"fontaine-le-sec","departement_id":0,"code_postal":"80140","population":143,"superficie_km2":"747.24","latitude_centre":"49.9435","longitude_centre":"1.804","distance_km":3.05},{"id":32853,"code_insee":"80183","nom_standard":"Cerisy-Buleux","nom_a":null,"nom_de":null,"slug_ville":"cerisy-buleux","departement_id":0,"code_postal":"80140","population":278,"superficie_km2":"560.65","latitude_centre":"49.9733","longitude_centre":"1.7367","distance_km":3.52},{"id":32911,"code_insee":"80251","nom_standard":"Doudelainville","nom_a":null,"nom_de":null,"slug_ville":"doudelainville","departement_id":0,"code_postal":"80140","population":363,"superficie_km2":"500.34","latitude_centre":"49.9999","longitude_centre":"1.766","distance_km":3.8},{"id":32842,"code_insee":"80169","nom_standard":"Cannessières","nom_a":null,"nom_de":null,"slug_ville":"cannessieres","departement_id":0,"code_postal":"80140","population":59,"superficie_km2":"376.36","latitude_centre":"49.9362","longitude_centre":"1.764","distance_km":3.86},{"id":33009,"code_insee":"80372","nom_standard":"Frucourt","nom_a":null,"nom_de":null,"slug_ville":"frucourt","departement_id":0,"code_postal":"80490","population":121,"superficie_km2":"519.86","latitude_centre":"49.9988","longitude_centre":"1.8125","distance_km":3.93},{"id":0,"code_insee":"80825","nom_standard":"Wiry-au-Mont","nom_a":null,"nom_de":null,"slug_ville":"wiry-au-mont","departement_id":0,"code_postal":"80270","population":103,"superficie_km2":"480.88","latitude_centre":"49.9547","longitude_centre":"1.8444","distance_km":4.48},{"id":33139,"code_insee":"80529","nom_standard":"Mérélessart","nom_a":null,"nom_de":null,"slug_ville":"merelessart","departement_id":0,"code_postal":"80490","population":183,"superficie_km2":"375.08","latitude_centre":"49.9717","longitude_centre":"1.8482","distance_km":4.52},{"id":0,"code_insee":"80710","nom_standard":"Saint-Maxent","nom_a":null,"nom_de":null,"slug_ville":"saint-maxent","departement_id":0,"code_postal":"80140","population":390,"superficie_km2":"638.88","latitude_centre":"49.9967","longitude_centre":"1.7318","distance_km":4.97},{"id":32727,"code_insee":"80040","nom_standard":"Aumâtre","nom_a":null,"nom_de":null,"slug_ville":"aumatre","departement_id":0,"code_postal":"80140","population":170,"superficie_km2":"556.98","latitude_centre":"49.9227","longitude_centre":"1.7738","distance_km":5.11},{"id":33001,"code_insee":"80361","nom_standard":"Frettecuisse","nom_a":null,"nom_de":null,"slug_ville":"frettecuisse","departement_id":0,"code_postal":"80140","population":69,"superficie_km2":"528.77","latitude_centre":"49.9241","longitude_centre":"1.8105","distance_km":5.21},{"id":33175,"code_insee":"80575","nom_standard":"Mouflières","nom_a":null,"nom_de":null,"slug_ville":"mouflieres","departement_id":0,"code_postal":"80140","population":75,"superficie_km2":"277.12","latitude_centre":"49.9263","longitude_centre":"1.7418","distance_km":5.59},{"id":33101,"code_insee":"80482","nom_standard":"Limeux","nom_a":null,"nom_de":null,"slug_ville":"limeux","departement_id":0,"code_postal":"80490","population":142,"superficie_km2":"862.03","latitude_centre":"50.0171","longitude_centre":"1.8086","distance_km":5.7},{"id":32997,"code_insee":"80356","nom_standard":"Fresnoy-Andainville","nom_a":null,"nom_de":null,"slug_ville":"fresnoy-andainville","departement_id":0,"code_postal":"80140","population":96,"superficie_km2":"398.65","latitude_centre":"49.9097","longitude_centre":"1.7912","distance_km":6.51},{"id":33070,"code_insee":"80446","nom_standard":"Huppy","nom_a":null,"nom_de":null,"slug_ville":"huppy","departement_id":0,"code_postal":"80140","population":749,"superficie_km2":"1080.13","latitude_centre":"50.0257","longitude_centre":"1.7636","distance_km":6.59}]}