{"ville":{"id":1410,"code_insee":"19148","nom_standard":"Neuvic","nom_a":null,"nom_de":null,"slug_ville":"neuvic","departement_id":619,"code_postal":"19160","population":1627,"superficie_km2":"75.00","latitude_centre":"45.3709984","longitude_centre":"2.2590001","dep_code":"19","dep_nom":"Corrèze","dep_slug":"correze","reg_code":"15","reg_nom":"Nouvelle-Aquitaine","reg_slug":"nouvelle-aquitaine"},"departement":{"code":"19","nom":"Corrèze","slug":"correze"},"region":{"code":"15","nom":"Nouvelle-Aquitaine","slug":"nouvelle-aquitaine"},"villes_proches":[{"id":1080,"code_insee":"15037","nom_standard":"Champagnac","nom_a":null,"nom_de":null,"slug_ville":"champagnac","departement_id":615,"code_postal":"15350","population":1026,"superficie_km2":"28.00","latitude_centre":"45.3629990","longitude_centre":"2.4030001","distance_km":11.28},{"id":1105,"code_insee":"15265","nom_standard":"Ydes","nom_a":null,"nom_de":null,"slug_ville":"ydes","departement_id":615,"code_postal":"15210","population":1624,"superficie_km2":"18.00","latitude_centre":"45.3429985","longitude_centre":"2.4500000","distance_km":15.25},{"id":1085,"code_insee":"15120","nom_standard":"Mauriac","nom_a":null,"nom_de":null,"slug_ville":"mauriac","departement_id":615,"code_postal":"15200","population":3519,"superficie_km2":"28.00","latitude_centre":"45.2179985","longitude_centre":"2.3169999","distance_km":17.61},{"id":1398,"code_insee":"19073","nom_standard":"Égletons","nom_a":null,"nom_de":null,"slug_ville":"egletons","departement_id":619,"code_postal":"19300","population":4293,"superficie_km2":"17.00","latitude_centre":"45.4220009","longitude_centre":"2.0360000","distance_km":18.31},{"id":1388,"code_insee":"19028","nom_standard":"Bort-les-Orgues","nom_a":null,"nom_de":null,"slug_ville":"bort-les-orgues","departement_id":619,"code_postal":"19110","population":2541,"superficie_km2":"15.00","latitude_centre":"45.3930016","longitude_centre":"2.4920001","distance_km":18.36},{"id":1413,"code_insee":"19176","nom_standard":"Rosiers-d'Égletons","nom_a":null,"nom_de":null,"slug_ville":"rosiers-d-egletons","departement_id":619,"code_postal":"19300","population":1091,"superficie_km2":"38.00","latitude_centre":"45.3880005","longitude_centre":"2.0109999","distance_km":19.46},{"id":1427,"code_insee":"19275","nom_standard":"Ussel","nom_a":null,"nom_de":null,"slug_ville":"ussel","departement_id":619,"code_postal":"19200","population":9159,"superficie_km2":"51.00","latitude_centre":"45.5499992","longitude_centre":"2.3039999","distance_km":20.21},{"id":1407,"code_insee":"19136","nom_standard":"Meymac","nom_a":null,"nom_de":null,"slug_ville":"meymac","departement_id":619,"code_postal":"19250","population":2279,"superficie_km2":"87.00","latitude_centre":"45.5540009","longitude_centre":"2.1400001","distance_km":22.37},{"id":1083,"code_insee":"15092","nom_standard":"Lanobre","nom_a":null,"nom_de":null,"slug_ville":"lanobre","departement_id":615,"code_postal":"15270","population":1368,"superficie_km2":"44.00","latitude_centre":"45.4339981","longitude_centre":"2.5500000","distance_km":23.77},{"id":1091,"code_insee":"15153","nom_standard":"Pleaux","nom_a":null,"nom_de":null,"slug_ville":"pleaux","departement_id":615,"code_postal":"15700","population":1459,"superficie_km2":"93.00","latitude_centre":"45.1300011","longitude_centre":"2.2490001","distance_km":26.81},{"id":1081,"code_insee":"15038","nom_standard":"Champs-sur-Tarentaine-Marchal","nom_a":null,"nom_de":null,"slug_ville":"champs-sur-tarentaine-marchal","departement_id":615,"code_postal":"15270","population":1022,"superficie_km2":"61.00","latitude_centre":"45.4039993","longitude_centre":"2.6040001","distance_km":27.19},{"id":1421,"code_insee":"19237","nom_standard":"Saint-Privat","nom_a":null,"nom_de":null,"slug_ville":"saint-privat","departement_id":619,"code_postal":"19220","population":1041,"superficie_km2":"32.00","latitude_centre":"45.1370010","longitude_centre":"2.0769999","distance_km":29.66},{"id":1394,"code_insee":"19062","nom_standard":"Corrèze","nom_a":null,"nom_de":null,"slug_ville":"correze","departement_id":619,"code_postal":"19800","population":1162,"superficie_km2":"35.00","latitude_centre":"45.3660011","longitude_centre":"1.8710001","distance_km":30.32},{"id":1094,"code_insee":"15162","nom_standard":"Riom-ès-Montagnes","nom_a":null,"nom_de":null,"slug_ville":"riom-es-montagnes","departement_id":615,"code_postal":"15400","population":2428,"superficie_km2":"47.00","latitude_centre":"45.2900009","longitude_centre":"2.6570001","distance_km":32.39},{"id":6567,"code_insee":"63225","nom_standard":"Messeix","nom_a":null,"nom_de":null,"slug_ville":"messeix","departement_id":664,"code_postal":"63750","population":1020,"superficie_km2":"40.00","latitude_centre":"45.6119995","longitude_centre":"2.5339999","distance_km":34.32},{"id":1096,"code_insee":"15175","nom_standard":"Saint-Cernin","nom_a":null,"nom_de":null,"slug_ville":"saint-cernin","departement_id":615,"code_postal":"15310","population":1055,"superficie_km2":"47.00","latitude_centre":"45.0530014","longitude_centre":"2.4260001","distance_km":37.7},{"id":1384,"code_insee":"19010","nom_standard":"Argentat-sur-Dordogne","nom_a":null,"nom_de":null,"slug_ville":"argentat-sur-dordogne","departement_id":619,"code_postal":"19320","population":2869,"superficie_km2":"22.00","latitude_centre":"45.1010017","longitude_centre":"1.9340000","distance_km":39.36},{"id":1402,"code_insee":"19101","nom_standard":"Laguenne-sur-Avalouze","nom_a":null,"nom_de":null,"slug_ville":"laguenne-sur-avalouze","departement_id":619,"code_postal":"19150","population":1553,"superficie_km2":"7.00","latitude_centre":"45.2400017","longitude_centre":"1.7869999","distance_km":39.68},{"id":1409,"code_insee":"19146","nom_standard":"Naves","nom_a":null,"nom_de":null,"slug_ville":"naves","departement_id":619,"code_postal":"19460","population":2337,"superficie_km2":"36.00","latitude_centre":"45.3149986","longitude_centre":"1.7510000","distance_km":40.19},{"id":1425,"code_insee":"19272","nom_standard":"Tulle","nom_a":null,"nom_de":null,"slug_ville":"tulle","departement_id":619,"code_postal":"19000","population":13992,"superficie_km2":"25.00","latitude_centre":"45.2729988","longitude_centre":"1.7630000","distance_km":40.28}]}