{"ville":{"id":33520,"code_insee":"81197","nom_standard":"Noailles","nom_a":null,"nom_de":null,"slug_ville":"noailles","departement_id":0,"code_postal":"81170","population":205,"superficie_km2":"1158.49","latitude_centre":"44.0115","longitude_centre":"1.9874","dep_code":"81","dep_nom":"Tarn","dep_slug":"tarn","reg_code":"76","reg_nom":"Occitanie","reg_slug":"occitanie"},"departement":{"code":"81","nom":"Tarn","slug":"tarn"},"region":{"code":"76","nom":"Occitanie","slug":"occitanie"},"villes_proches":[{"id":33423,"code_insee":"81067","nom_standard":"Cestayrols","nom_a":null,"nom_de":null,"slug_ville":"cestayrols","departement_id":0,"code_postal":"81150","population":455,"superficie_km2":"1709.74","latitude_centre":"43.9854","longitude_centre":"1.9886","distance_km":2.9},{"id":33433,"code_insee":"81080","nom_standard":"Donnazac","nom_a":null,"nom_de":null,"slug_ville":"donnazac","departement_id":0,"code_postal":"81170","population":56,"superficie_km2":"476.07","latitude_centre":"44.013","longitude_centre":"1.946","distance_km":3.31},{"id":0,"code_insee":"81290","nom_standard":"Souel","nom_a":null,"nom_de":null,"slug_ville":"souel","departement_id":0,"code_postal":"81170","population":175,"superficie_km2":"969.43","latitude_centre":"44.0361","longitude_centre":"1.9633","distance_km":3.35},{"id":0,"code_insee":"81319","nom_standard":"Villeneuve-sur-Vère","nom_a":null,"nom_de":null,"slug_ville":"villeneuve-sur-vere","departement_id":0,"code_postal":"81130","population":528,"superficie_km2":"1599.43","latitude_centre":"44.0068","longitude_centre":"2.0307","distance_km":3.5},{"id":33494,"code_insee":"81166","nom_standard":"Milhavet","nom_a":null,"nom_de":null,"slug_ville":"milhavet","departement_id":0,"code_postal":"81130","population":102,"superficie_km2":"444.19","latitude_centre":"44.0335","longitude_centre":"2.0279","distance_km":4.06},{"id":33479,"code_insee":"81146","nom_standard":"Livers-Cazelles","nom_a":null,"nom_de":null,"slug_ville":"livers-cazelles","departement_id":0,"code_postal":"81170","population":239,"superficie_km2":"1322.32","latitude_centre":"44.0487","longitude_centre":"2.0011","distance_km":4.28},{"id":33446,"code_insee":"81095","nom_standard":"Frausseilles","nom_a":null,"nom_de":null,"slug_ville":"frausseilles","departement_id":0,"code_postal":"81170","population":75,"superficie_km2":"586.49","latitude_centre":"44.0298","longitude_centre":"1.9258","distance_km":5.33},{"id":33439,"code_insee":"81087","nom_standard":"Fayssac","nom_a":null,"nom_de":null,"slug_ville":"fayssac","departement_id":0,"code_postal":"81150","population":354,"superficie_km2":"767.93","latitude_centre":"43.961","longitude_centre":"1.9819","distance_km":5.63},{"id":33420,"code_insee":"81061","nom_standard":"Castanet","nom_a":null,"nom_de":null,"slug_ville":"castanet","departement_id":0,"code_postal":"81150","population":210,"superficie_km2":"713.27","latitude_centre":"43.9745","longitude_centre":"2.0379","distance_km":5.77},{"id":33384,"code_insee":"81009","nom_standard":"Amarens","nom_a":null,"nom_de":null,"slug_ville":"amarens","departement_id":0,"code_postal":"81170","population":61,"superficie_km2":"481.98","latitude_centre":"44.0423","longitude_centre":"1.9244","distance_km":6.09},{"id":0,"code_insee":"81322","nom_standard":"Virac","nom_a":null,"nom_de":null,"slug_ville":"virac","departement_id":0,"code_postal":"81640","population":252,"superficie_km2":"1154.85","latitude_centre":"44.0432","longitude_centre":"2.0499","distance_km":6.12},{"id":33425,"code_insee":"81069","nom_standard":"Cordes-sur-Ciel","nom_a":null,"nom_de":null,"slug_ville":"cordes-sur-ciel","departement_id":0,"code_postal":"81170","population":879,"superficie_km2":"843.30","latitude_centre":"44.0688","longitude_centre":"1.9622","distance_km":6.68},{"id":0,"code_insee":"81051","nom_standard":"Cahuzac-sur-Vère","nom_a":null,"nom_de":null,"slug_ville":"cahuzac-sur-vere","departement_id":0,"code_postal":"81140","population":1239,"superficie_km2":"3064.43","latitude_centre":"43.9916","longitude_centre":"1.9059","distance_km":6.88},{"id":33484,"code_insee":"81152","nom_standard":"Mailhoc","nom_a":null,"nom_de":null,"slug_ville":"mailhoc","departement_id":0,"code_postal":"81130","population":304,"superficie_km2":"1291.52","latitude_centre":"44.0024","longitude_centre":"2.0763","distance_km":7.18},{"id":33401,"code_insee":"81029","nom_standard":"Bernac","nom_a":null,"nom_de":null,"slug_ville":"bernac","departement_id":0,"code_postal":"81150","population":186,"superficie_km2":"558.51","latitude_centre":"43.9532","longitude_centre":"2.0311","distance_km":7.37},{"id":0,"code_insee":"81283","nom_standard":"Senouillac","nom_a":null,"nom_de":null,"slug_ville":"senouillac","departement_id":0,"code_postal":"81600","population":1123,"superficie_km2":"1513.68","latitude_centre":"43.9484","longitude_centre":"1.9549","distance_km":7.48},{"id":0,"code_insee":"81262","nom_standard":"Saint-Marcel-Campes","nom_a":null,"nom_de":null,"slug_ville":"saint-marcel-campes","departement_id":0,"code_postal":"81170","population":239,"superficie_km2":"2257.54","latitude_centre":"44.0856","longitude_centre":"2.0006","distance_km":8.31},{"id":0,"code_insee":"81275","nom_standard":"Salles","nom_a":null,"nom_de":null,"slug_ville":"salles","departement_id":0,"code_postal":"81640","population":191,"superficie_km2":"821.27","latitude_centre":"44.0755","longitude_centre":"2.0415","distance_km":8.33},{"id":33410,"code_insee":"81045","nom_standard":"Les Cabannes","nom_a":null,"nom_de":null,"slug_ville":"les-cabannes","departement_id":0,"code_postal":"81170","population":379,"superficie_km2":"627.87","latitude_centre":"44.077","longitude_centre":"1.9279","distance_km":8.7},{"id":33457,"code_insee":"81112","nom_standard":"Labastide-de-Lévis","nom_a":null,"nom_de":null,"slug_ville":"labastide-de-levis","departement_id":0,"code_postal":"81150","population":971,"superficie_km2":"1419.61","latitude_centre":"43.9308","longitude_centre":"1.9988","distance_km":9.02}]}