{"ville":{"id":8235,"code_insee":"77337","nom_standard":"Noisiel","nom_a":null,"nom_de":null,"slug_ville":"noisiel","departement_id":678,"code_postal":"77186","population":15461,"superficie_km2":"4.00","latitude_centre":"48.8460007","longitude_centre":"2.6199999","dep_code":"77","dep_nom":"Seine-et-Marne","dep_slug":"seine-et-marne","reg_code":"10","reg_nom":"Île-de-France","reg_slug":"ile-de-france"},"departement":{"code":"77","nom":"Seine-et-Marne","slug":"seine-et-marne"},"region":{"code":"10","nom":"Île-de-France","slug":"ile-de-france"},"villes_proches":[{"id":8116,"code_insee":"77083","nom_standard":"Champs-sur-Marne","nom_a":null,"nom_de":null,"slug_ville":"champs-sur-marne","departement_id":678,"code_postal":"77420","population":25695,"superficie_km2":"8.00","latitude_centre":"48.8479996","longitude_centre":"2.5960000","distance_km":1.77},{"id":8196,"code_insee":"77258","nom_standard":"Lognes","nom_a":null,"nom_de":null,"slug_ville":"lognes","departement_id":678,"code_postal":"77185","population":14650,"superficie_km2":"4.00","latitude_centre":"48.8330002","longitude_centre":"2.6340001","distance_km":1.77},{"id":8291,"code_insee":"77468","nom_standard":"Torcy","nom_a":null,"nom_de":null,"slug_ville":"torcy","departement_id":678,"code_postal":"77200","population":22444,"superficie_km2":"6.00","latitude_centre":"48.8530006","longitude_centre":"2.6510000","distance_km":2.4},{"id":8296,"code_insee":"77479","nom_standard":"Vaires-sur-Marne","nom_a":null,"nom_de":null,"slug_ville":"vaires-sur-marne","departement_id":678,"code_postal":"77360","population":13518,"superficie_km2":"6.00","latitude_centre":"48.8699989","longitude_centre":"2.6359999","distance_km":2.91},{"id":8158,"code_insee":"77169","nom_standard":"Émerainville","nom_a":null,"nom_de":null,"slug_ville":"emerainville","departement_id":678,"code_postal":"77184","population":7601,"superficie_km2":"5.00","latitude_centre":"48.8199997","longitude_centre":"2.6090000","distance_km":3},{"id":9676,"code_insee":"93033","nom_standard":"Gournay-sur-Marne","nom_a":null,"nom_de":null,"slug_ville":"gournay-sur-marne","departement_id":694,"code_postal":"93460","population":6882,"superficie_km2":"2.00","latitude_centre":"48.8610001","longitude_centre":"2.5750000","distance_km":3.69},{"id":8149,"code_insee":"77146","nom_standard":"Croissy-Beaubourg","nom_a":null,"nom_de":null,"slug_ville":"croissy-beaubourg","departement_id":678,"code_postal":"77183","population":1990,"superficie_km2":"11.00","latitude_centre":"48.8170013","longitude_centre":"2.6559999","distance_km":4.16},{"id":9684,"code_insee":"93051","nom_standard":"Noisy-le-Grand","nom_a":null,"nom_de":null,"slug_ville":"noisy-le-grand","departement_id":694,"code_postal":"93160","population":70374,"superficie_km2":"13.00","latitude_centre":"48.8359985","longitude_centre":"2.5639999","distance_km":4.25},{"id":8128,"code_insee":"77108","nom_standard":"Chelles","nom_a":null,"nom_de":null,"slug_ville":"chelles","departement_id":678,"code_postal":"77500","population":54309,"superficie_km2":"16.00","latitude_centre":"48.8839989","longitude_centre":"2.5969999","distance_km":4.55},{"id":8275,"code_insee":"77438","nom_standard":"Saint-Thibault-des-Vignes","nom_a":null,"nom_de":null,"slug_ville":"saint-thibault-des-vignes","departement_id":678,"code_postal":"77400","population":6266,"superficie_km2":"5.00","latitude_centre":"48.8639984","longitude_centre":"2.6760001","distance_km":4.56},{"id":8135,"code_insee":"77121","nom_standard":"Collégien","nom_a":null,"nom_de":null,"slug_ville":"collegien","departement_id":678,"code_postal":"77090","population":3334,"superficie_km2":"3.00","latitude_centre":"48.8269997","longitude_centre":"2.6770000","distance_km":4.68},{"id":8104,"code_insee":"77055","nom_standard":"Brou-sur-Chantereine","nom_a":null,"nom_de":null,"slug_ville":"brou-sur-chantereine","departement_id":678,"code_postal":"77177","population":4992,"superficie_km2":"4.00","latitude_centre":"48.8899994","longitude_centre":"2.6400001","distance_km":5.11},{"id":9732,"code_insee":"94059","nom_standard":"Le Plessis-Trévise","nom_a":null,"nom_de":null,"slug_ville":"le-plessis-trevise","departement_id":695,"code_postal":"94420","population":20218,"superficie_km2":"4.00","latitude_centre":"48.8059998","longitude_centre":"2.5760000","distance_km":5.49},{"id":8174,"code_insee":"77209","nom_standard":"Gouvernes","nom_a":null,"nom_de":null,"slug_ville":"gouvernes","departement_id":678,"code_postal":"77400","population":1178,"superficie_km2":"3.00","latitude_centre":"48.8580017","longitude_centre":"2.6949999","distance_km":5.65},{"id":9746,"code_insee":"94079","nom_standard":"Villiers-sur-Marne","nom_a":null,"nom_de":null,"slug_ville":"villiers-sur-marne","departement_id":695,"code_postal":"94350","population":30669,"superficie_km2":"4.00","latitude_centre":"48.8260002","longitude_centre":"2.5450001","distance_km":5.92},{"id":8245,"code_insee":"77372","nom_standard":"Pomponne","nom_a":null,"nom_de":null,"slug_ville":"pomponne","departement_id":678,"code_postal":"77400","population":4158,"superficie_km2":"7.00","latitude_centre":"48.8870010","longitude_centre":"2.6750000","distance_km":6.08},{"id":9683,"code_insee":"93050","nom_standard":"Neuilly-sur-Marne","nom_a":null,"nom_de":null,"slug_ville":"neuilly-sur-marne","departement_id":694,"code_postal":"93330","population":37531,"superficie_km2":"7.00","latitude_centre":"48.8619995","longitude_centre":"2.5400000","distance_km":6.12},{"id":8246,"code_insee":"77373","nom_standard":"Pontault-Combault","nom_a":null,"nom_de":null,"slug_ville":"pontault-combault","departement_id":678,"code_postal":"77340","population":38258,"superficie_km2":"14.00","latitude_centre":"48.7869988","longitude_centre":"2.6140001","distance_km":6.58},{"id":8181,"code_insee":"77221","nom_standard":"Guermantes","nom_a":null,"nom_de":null,"slug_ville":"guermantes","departement_id":678,"code_postal":"77600","population":1148,"superficie_km2":"1.00","latitude_centre":"48.8510017","longitude_centre":"2.7119999","distance_km":6.75},{"id":9675,"code_insee":"93032","nom_standard":"Gagny","nom_a":null,"nom_de":null,"slug_ville":"gagny","departement_id":694,"code_postal":"93220","population":40189,"superficie_km2":"7.00","latitude_centre":"48.8820000","longitude_centre":"2.5450001","distance_km":6.79}]}