{"ville":{"id":34514,"code_insee":"88328","nom_standard":"Nompatelize","nom_a":null,"nom_de":null,"slug_ville":"nompatelize","departement_id":0,"code_postal":"88470","population":547,"superficie_km2":"695.01","latitude_centre":"48.3274","longitude_centre":"6.8608","dep_code":"88","dep_nom":"Vosges","dep_slug":"vosges","reg_code":"44","reg_nom":"Grand Est","reg_slug":"grand-est"},"departement":{"code":"88","nom":"Vosges","slug":"vosges"},"region":{"code":"44","nom":"Grand Est","slug":"grand-est"},"villes_proches":[{"id":0,"code_insee":"88428","nom_standard":"Saint-Michel-sur-Meurthe","nom_a":null,"nom_de":null,"slug_ville":"saint-michel-sur-meurthe","departement_id":0,"code_postal":"88470","population":1785,"superficie_km2":"1547.43","latitude_centre":"48.3132","longitude_centre":"6.8768","distance_km":1.97},{"id":0,"code_insee":"88519","nom_standard":"La Voivre","nom_a":null,"nom_de":null,"slug_ville":"la-voivre","departement_id":0,"code_postal":"88470","population":648,"superficie_km2":"584.36","latitude_centre":"48.3436","longitude_centre":"6.9006","distance_km":3.45},{"id":0,"code_insee":"88438","nom_standard":"La Salle","nom_a":null,"nom_de":null,"slug_ville":"la-salle","departement_id":0,"code_postal":"88470","population":401,"superficie_km2":"461.26","latitude_centre":"48.3241","longitude_centre":"6.8099","distance_km":3.78},{"id":0,"code_insee":"88435","nom_standard":"Saint-Remy","nom_a":null,"nom_de":null,"slug_ville":"saint-remy","departement_id":0,"code_postal":"88480","population":518,"superficie_km2":"1224.58","latitude_centre":"48.3441","longitude_centre":"6.8146","distance_km":3.89},{"id":34301,"code_insee":"88068","nom_standard":"La Bourgonce","nom_a":null,"nom_de":null,"slug_ville":"la-bourgonce","departement_id":0,"code_postal":"88470","population":842,"superficie_km2":"1664.05","latitude_centre":"48.3013","longitude_centre":"6.8129","distance_km":4.58},{"id":0,"code_insee":"88165","nom_standard":"Étival-Clairefontaine","nom_a":null,"nom_de":null,"slug_ville":"etival-clairefontaine","departement_id":0,"code_postal":"88480","population":2437,"superficie_km2":"2723.75","latitude_centre":"48.3666","longitude_centre":"6.8351","distance_km":4.75},{"id":34440,"code_insee":"88245","nom_standard":"Hurbache","nom_a":null,"nom_de":null,"slug_ville":"hurbache","departement_id":0,"code_postal":"88210","population":285,"superficie_km2":"995.98","latitude_centre":"48.3439","longitude_centre":"6.9295","distance_km":5.4},{"id":0,"code_insee":"88413","nom_standard":"Saint-Dié-des-Vosges","nom_a":null,"nom_de":null,"slug_ville":"saint-die-des-vosges","departement_id":0,"code_postal":"88100","population":19251,"superficie_km2":"4623.53","latitude_centre":"48.2973","longitude_centre":"6.9386","distance_km":6.66},{"id":34344,"code_insee":"88128","nom_standard":"Denipaire","nom_a":null,"nom_de":null,"slug_ville":"denipaire","departement_id":0,"code_postal":"88210","population":243,"superficie_km2":"697.87","latitude_centre":"48.3402","longitude_centre":"6.9594","distance_km":7.43},{"id":34505,"code_insee":"88315","nom_standard":"Mortagne","nom_a":null,"nom_de":null,"slug_ville":"mortagne","departement_id":0,"code_postal":"88600","population":196,"superficie_km2":"2218.58","latitude_centre":"48.2735","longitude_centre":"6.7961","distance_km":7.67},{"id":0,"code_insee":"88398","nom_standard":"Les Rouges-Eaux","nom_a":null,"nom_de":null,"slug_ville":"les-rouges-eaux","departement_id":0,"code_postal":"88600","population":80,"superficie_km2":"597.81","latitude_centre":"48.2637","longitude_centre":"6.8139","distance_km":7.89},{"id":0,"code_insee":"88319","nom_standard":"Moyenmoutier","nom_a":null,"nom_de":null,"slug_ville":"moyenmoutier","departement_id":0,"code_postal":"88420","population":3134,"superficie_km2":"3429.09","latitude_centre":"48.3893","longitude_centre":"6.9146","distance_km":7.95},{"id":0,"code_insee":"88372","nom_standard":"Raon-l'Étape","nom_a":null,"nom_de":null,"slug_ville":"raon-l-etape","departement_id":0,"code_postal":"88110","population":5886,"superficie_km2":"2371.62","latitude_centre":"48.4039","longitude_centre":"6.8679","distance_km":8.52},{"id":0,"code_insee":"88463","nom_standard":"Taintrux","nom_a":null,"nom_de":null,"slug_ville":"taintrux","departement_id":0,"code_postal":"88100","population":1439,"superficie_km2":"3170.74","latitude_centre":"48.2506","longitude_centre":"6.8801","distance_km":8.66},{"id":0,"code_insee":"88412","nom_standard":"Saint-Benoît-la-Chipotte","nom_a":null,"nom_de":null,"slug_ville":"saint-benoit-la-chipotte","departement_id":0,"code_postal":"88700","population":442,"superficie_km2":"2066.48","latitude_centre":"48.355","longitude_centre":"6.7489","distance_km":8.82},{"id":24842,"code_insee":"54519","nom_standard":"Thiaville-sur-Meurthe","nom_a":null,"nom_de":null,"slug_ville":"thiaville-sur-meurthe","departement_id":0,"code_postal":"54120","population":597,"superficie_km2":"452.93","latitude_centre":"48.4053","longitude_centre":"6.8034","distance_km":9.64},{"id":34298,"code_insee":"88064","nom_standard":"Bois-de-Champ","nom_a":null,"nom_de":null,"slug_ville":"bois-de-champ","departement_id":0,"code_postal":"88600","population":105,"superficie_km2":"1770.92","latitude_centre":"48.2416","longitude_centre":"6.7942","distance_km":10.74},{"id":0,"code_insee":"88445","nom_standard":"Saulcy-sur-Meurthe","nom_a":null,"nom_de":null,"slug_ville":"saulcy-sur-meurthe","departement_id":0,"code_postal":"88580","population":2319,"superficie_km2":"1645.62","latitude_centre":"48.2426","longitude_centre":"6.9462","distance_km":11.35},{"id":0,"code_insee":"54065","nom_standard":"Bertrichamps","nom_a":null,"nom_de":null,"slug_ville":"bertrichamps","departement_id":0,"code_postal":"54120","population":1081,"superficie_km2":"1989.76","latitude_centre":"48.434","longitude_centre":"6.805","distance_km":12.55},{"id":34439,"code_insee":"88244","nom_standard":"La Houssière","nom_a":null,"nom_de":null,"slug_ville":"la-houssiere","departement_id":0,"code_postal":"88430","population":507,"superficie_km2":"1972.72","latitude_centre":"48.2092","longitude_centre":"6.8642","distance_km":13.15}]}