{"ville":{"id":25824,"code_insee":"57513","nom_standard":"Nousseviller-lès-Bitche","nom_a":null,"nom_de":null,"slug_ville":"nousseviller-les-bitche","departement_id":0,"code_postal":"57720","population":150,"superficie_km2":"484.89","latitude_centre":"49.099","longitude_centre":"7.3723","dep_code":"57","dep_nom":"Moselle","dep_slug":"moselle","reg_code":"44","reg_nom":"Grand Est","reg_slug":"grand-est"},"departement":{"code":"57","nom":"Moselle","slug":"moselle"},"region":{"code":"44","nom":"Grand Est","slug":"grand-est"},"villes_proches":[{"id":0,"code_insee":"57732","nom_standard":"Volmunster","nom_a":null,"nom_de":null,"slug_ville":"volmunster","departement_id":0,"code_postal":"57720","population":777,"superficie_km2":"1487.18","latitude_centre":"49.1151","longitude_centre":"7.369","distance_km":1.81},{"id":25701,"code_insee":"57338","nom_standard":"Hottviller","nom_a":null,"nom_de":null,"slug_ville":"hottviller","departement_id":0,"code_postal":"57720","population":504,"superficie_km2":"828.31","latitude_centre":"49.0789","longitude_centre":"7.3562","distance_km":2.52},{"id":25741,"code_insee":"57393","nom_standard":"Lengelsheim","nom_a":null,"nom_de":null,"slug_ville":"lengelsheim","departement_id":0,"code_postal":"57720","population":186,"superficie_km2":"523.80","latitude_centre":"49.106","longitude_centre":"7.4076","distance_km":2.69},{"id":0,"code_insee":"57639","nom_standard":"Schorbach","nom_a":null,"nom_de":null,"slug_ville":"schorbach","departement_id":0,"code_postal":"57230","population":548,"superficie_km2":"1340.71","latitude_centre":"49.0795","longitude_centre":"7.4099","distance_km":3.49},{"id":25594,"code_insee":"57195","nom_standard":"Epping","nom_a":null,"nom_de":null,"slug_ville":"epping","departement_id":0,"code_postal":"57720","population":572,"superficie_km2":"1065.24","latitude_centre":"49.1046","longitude_centre":"7.3185","distance_km":3.97},{"id":0,"code_insee":"57526","nom_standard":"Ormersviller","nom_a":null,"nom_de":null,"slug_ville":"ormersviller","departement_id":0,"code_postal":"57720","population":385,"superficie_km2":"729.53","latitude_centre":"49.1333","longitude_centre":"7.3345","distance_km":4.7},{"id":25533,"code_insee":"57108","nom_standard":"Breidenbach","nom_a":null,"nom_de":null,"slug_ville":"breidenbach","departement_id":0,"code_postal":"57720","population":309,"superficie_km2":"1090.69","latitude_centre":"49.1325","longitude_centre":"7.4166","distance_km":4.93},{"id":25763,"code_insee":"57421","nom_standard":"Loutzviller","nom_a":null,"nom_de":null,"slug_ville":"loutzviller","departement_id":0,"code_postal":"57720","population":149,"superficie_km2":"325.05","latitude_centre":"49.1438","longitude_centre":"7.3851","distance_km":5.07},{"id":25664,"code_insee":"57294","nom_standard":"Hanviller","nom_a":null,"nom_de":null,"slug_ville":"hanviller","departement_id":0,"code_postal":"57230","population":186,"superficie_km2":"871.85","latitude_centre":"49.102","longitude_centre":"7.444","distance_km":5.23},{"id":0,"code_insee":"57651","nom_standard":"Siersthal","nom_a":null,"nom_de":null,"slug_ville":"siersthal","departement_id":0,"code_postal":"57410","population":646,"superficie_km2":"1058.40","latitude_centre":"49.0487","longitude_centre":"7.3561","distance_km":5.72},{"id":25509,"code_insee":"57074","nom_standard":"Bettviller","nom_a":null,"nom_de":null,"slug_ville":"bettviller","departement_id":0,"code_postal":"57410","population":815,"superficie_km2":"1836.24","latitude_centre":"49.0778","longitude_centre":"7.2935","distance_km":6.2},{"id":0,"code_insee":"57535","nom_standard":"Petit-Réderching","nom_a":null,"nom_de":null,"slug_ville":"petit-rederching","departement_id":0,"code_postal":"57410","population":1417,"superficie_km2":"1085.52","latitude_centre":"49.053","longitude_centre":"7.3161","distance_km":6.55},{"id":0,"code_insee":"57577","nom_standard":"Reyersviller","nom_a":null,"nom_de":null,"slug_ville":"reyersviller","departement_id":0,"code_postal":"57230","population":380,"superficie_km2":"835.74","latitude_centre":"49.0402","longitude_centre":"7.3973","distance_km":6.79},{"id":25530,"code_insee":"57103","nom_standard":"Bousseviller","nom_a":null,"nom_de":null,"slug_ville":"bousseviller","departement_id":0,"code_postal":"57230","population":114,"superficie_km2":"397.07","latitude_centre":"49.1217","longitude_centre":"7.461","distance_km":6.93},{"id":0,"code_insee":"57641","nom_standard":"Schweyen","nom_a":null,"nom_de":null,"slug_ville":"schweyen","departement_id":0,"code_postal":"57720","population":319,"superficie_km2":"1129.93","latitude_centre":"49.1616","longitude_centre":"7.4087","distance_km":7.45},{"id":25727,"code_insee":"57376","nom_standard":"Lambach","nom_a":null,"nom_de":null,"slug_ville":"lambach","departement_id":0,"code_postal":"57410","population":463,"superficie_km2":"563.03","latitude_centre":"49.0301","longitude_centre":"7.3641","distance_km":7.68},{"id":0,"code_insee":"57738","nom_standard":"Waldhouse","nom_a":null,"nom_de":null,"slug_ville":"waldhouse","departement_id":0,"code_postal":"57720","population":347,"superficie_km2":"658.79","latitude_centre":"49.1419","longitude_centre":"7.4592","distance_km":7.92},{"id":0,"code_insee":"57590","nom_standard":"Rolbing","nom_a":null,"nom_de":null,"slug_ville":"rolbing","departement_id":0,"code_postal":"57720","population":259,"superficie_km2":"599.67","latitude_centre":"49.1724","longitude_centre":"7.4194","distance_km":8.85},{"id":0,"code_insee":"57192","nom_standard":"Enchenberg","nom_a":null,"nom_de":null,"slug_ville":"enchenberg","departement_id":0,"code_postal":"57415","population":1206,"superficie_km2":"968.12","latitude_centre":"49.0172","longitude_centre":"7.3268","distance_km":9.68},{"id":0,"code_insee":"57390","nom_standard":"Lemberg","nom_a":null,"nom_de":null,"slug_ville":"lemberg","departement_id":0,"code_postal":"57620","population":1428,"superficie_km2":"1093.56","latitude_centre":"49.0076","longitude_centre":"7.3864","distance_km":10.22}]}