{"ville":{"id":10666,"code_insee":"02563","nom_standard":"Noyales","nom_a":null,"nom_de":null,"slug_ville":"noyales","departement_id":0,"code_postal":"02120","population":132,"superficie_km2":"722.72","latitude_centre":"49.9056","longitude_centre":"3.5367","dep_code":"02","dep_nom":"Aisne","dep_slug":"aisne","reg_code":"32","reg_nom":"Hauts-de-France","reg_slug":"hauts-de-france"},"departement":{"code":"02","nom":"Aisne","slug":"aisne"},"region":{"code":"32","nom":"Hauts-de-France","slug":"hauts-de-france"},"villes_proches":[{"id":10503,"code_insee":"02376","nom_standard":"Hauteville","nom_a":null,"nom_de":null,"slug_ville":"hauteville","departement_id":0,"code_postal":"02120","population":189,"superficie_km2":"705.71","latitude_centre":"49.888","longitude_centre":"3.525","distance_km":2.13},{"id":0,"code_insee":"02625","nom_standard":"Proix","nom_a":null,"nom_de":null,"slug_ville":"proix","departement_id":0,"code_postal":"02120","population":146,"superficie_km2":"349.43","latitude_centre":"49.902","longitude_centre":"3.5769","distance_km":2.91},{"id":10197,"code_insee":"02006","nom_standard":"Aisonville-et-Bernoville","nom_a":null,"nom_de":null,"slug_ville":"aisonville-et-bernoville","departement_id":0,"code_postal":"02110","population":259,"superficie_km2":"871.04","latitude_centre":"49.9313","longitude_centre":"3.5121","distance_km":3.36},{"id":0,"code_insee":"02757","nom_standard":"Vadencourt","nom_a":null,"nom_de":null,"slug_ville":"vadencourt","departement_id":0,"code_postal":"02120","population":505,"superficie_km2":"1240.24","latitude_centre":"49.9248","longitude_centre":"3.5774","distance_km":3.61},{"id":10620,"code_insee":"02511","nom_standard":"Montigny-en-Arrouaise","nom_a":null,"nom_de":null,"slug_ville":"montigny-en-arrouaise","departement_id":0,"code_postal":"02110","population":317,"superficie_km2":"985.36","latitude_centre":"49.914","longitude_centre":"3.4858","distance_km":3.76},{"id":10566,"code_insee":"02450","nom_standard":"Macquigny","nom_a":null,"nom_de":null,"slug_ville":"macquigny","departement_id":0,"code_postal":"02120","population":357,"superficie_km2":"2028.49","latitude_centre":"49.8714","longitude_centre":"3.569","distance_km":4.45},{"id":10252,"code_insee":"02070","nom_standard":"Bernot","nom_a":null,"nom_de":null,"slug_ville":"bernot","departement_id":0,"code_postal":"02120","population":431,"superficie_km2":"1673.66","latitude_centre":"49.8827","longitude_centre":"3.4827","distance_km":4.63},{"id":10489,"code_insee":"02358","nom_standard":"Grougis","nom_a":null,"nom_de":null,"slug_ville":"grougis","departement_id":0,"code_postal":"02110","population":304,"superficie_km2":"1139.18","latitude_centre":"49.9501","longitude_centre":"3.5281","distance_km":4.99},{"id":0,"code_insee":"02783","nom_standard":"Grand-Verly","nom_a":null,"nom_de":null,"slug_ville":"grand-verly","departement_id":0,"code_postal":"02120","population":124,"superficie_km2":"379.52","latitude_centre":"49.9446","longitude_centre":"3.5814","distance_km":5.39},{"id":10613,"code_insee":"02503","nom_standard":"Mont-d'Origny","nom_a":null,"nom_de":null,"slug_ville":"mont-d-origny","departement_id":0,"code_postal":"02390","population":839,"superficie_km2":"1346.51","latitude_centre":"49.8531","longitude_centre":"3.5261","distance_km":5.89},{"id":0,"code_insee":"02361","nom_standard":"Guise","nom_a":null,"nom_de":null,"slug_ville":"guise","departement_id":0,"code_postal":"02120","population":4490,"superficie_km2":"1622.13","latitude_centre":"49.8973","longitude_centre":"3.6229","distance_km":6.24},{"id":0,"code_insee":"02784","nom_standard":"Petit-Verly","nom_a":null,"nom_de":null,"slug_ville":"petit-verly","departement_id":0,"code_postal":"02630","population":155,"superficie_km2":"519.66","latitude_centre":"49.9609","longitude_centre":"3.5646","distance_km":6.47},{"id":10451,"code_insee":"02310","nom_standard":"Fieulaine","nom_a":null,"nom_de":null,"slug_ville":"fieulaine","departement_id":0,"code_postal":"02110","population":249,"superficie_km2":"779.49","latitude_centre":"49.8974","longitude_centre":"3.445","distance_km":6.63},{"id":10441,"code_insee":"02293","nom_standard":"Ã‰taves-et-Bocquiaux","nom_a":null,"nom_de":null,"slug_ville":"etaves-et-bocquiaux","departement_id":0,"code_postal":"02110","population":543,"superficie_km2":"1369.39","latitude_centre":"49.931","longitude_centre":"3.4519","distance_km":6.7},{"id":0,"code_insee":"02703","nom_standard":"Seboncourt","nom_a":null,"nom_de":null,"slug_ville":"seboncourt","departement_id":0,"code_postal":"02110","population":1087,"superficie_km2":"1183.85","latitude_centre":"49.9635","longitude_centre":"3.4949","distance_km":7.1},{"id":10543,"code_insee":"02422","nom_standard":"Lesquielles-Saint-Germain","nom_a":null,"nom_de":null,"slug_ville":"lesquielles-saint-germain","departement_id":0,"code_postal":"02120","population":754,"superficie_km2":"1648.33","latitude_centre":"49.9312","longitude_centre":"3.6277","distance_km":7.11},{"id":10658,"code_insee":"02552","nom_standard":"Neuvillette","nom_a":null,"nom_de":null,"slug_ville":"neuvillette","departement_id":0,"code_postal":"02390","population":170,"superficie_km2":"647.17","latitude_centre":"49.8553","longitude_centre":"3.4695","distance_km":7.38},{"id":0,"code_insee":"02575","nom_standard":"Origny-Sainte-Benoite","nom_a":null,"nom_de":null,"slug_ville":"origny-sainte-benoite","departement_id":0,"code_postal":"02390","population":1587,"superficie_km2":"2326.32","latitude_centre":"49.827","longitude_centre":"3.534","distance_km":8.74},{"id":0,"code_insee":"02753","nom_standard":"Tupigny","nom_a":null,"nom_de":null,"slug_ville":"tupigny","departement_id":0,"code_postal":"02120","population":341,"superficie_km2":"1297.66","latitude_centre":"49.9775","longitude_centre":"3.5983","distance_km":9.13},{"id":10590,"code_insee":"02476","nom_standard":"Mennevret","nom_a":null,"nom_de":null,"slug_ville":"mennevret","departement_id":0,"code_postal":"02630","population":637,"superficie_km2":"1190.23","latitude_centre":"49.9925","longitude_centre":"3.5568","distance_km":9.77}]}