{"ville":{"id":26167,"code_insee":"58197","nom_standard":"Nuars","nom_a":null,"nom_de":null,"slug_ville":"nuars","departement_id":0,"code_postal":"58190","population":172,"superficie_km2":"1581.95","latitude_centre":"47.3881","longitude_centre":"3.7144","dep_code":"58","dep_nom":"Nièvre","dep_slug":"nievre","reg_code":"27","reg_nom":"Bourgogne-Franche-Comté","reg_slug":"bourgogne-franche-comte"},"departement":{"code":"58","nom":"Nièvre","slug":"nievre"},"region":{"code":"27","nom":"Bourgogne-Franche-Comté","slug":"bourgogne-franche-comte"},"villes_proches":[{"id":0,"code_insee":"58230","nom_standard":"Saint-Aubin-des-Chaumes","nom_a":null,"nom_de":null,"slug_ville":"saint-aubin-des-chaumes","departement_id":0,"code_postal":"58190","population":70,"superficie_km2":"1079.64","latitude_centre":"47.3886","longitude_centre":"3.7451","distance_km":2.31},{"id":0,"code_insee":"89176","nom_standard":"Fontenay-près-Vézelay","nom_a":null,"nom_de":null,"slug_ville":"fontenay-pres-vezelay","departement_id":0,"code_postal":"89450","population":135,"superficie_km2":"1578.03","latitude_centre":"47.4171","longitude_centre":"3.7331","distance_km":3.52},{"id":0,"code_insee":"58288","nom_standard":"Teigny","nom_a":null,"nom_de":null,"slug_ville":"teigny","departement_id":0,"code_postal":"58190","population":115,"superficie_km2":"742.13","latitude_centre":"47.3913","longitude_centre":"3.6674","distance_km":3.56},{"id":0,"code_insee":"58271","nom_standard":"Saizy","nom_a":null,"nom_de":null,"slug_ville":"saizy","departement_id":0,"code_postal":"58190","population":189,"superficie_km2":"1343.31","latitude_centre":"47.3573","longitude_centre":"3.698","distance_km":3.64},{"id":26162,"code_insee":"58190","nom_standard":"Neuffontaines","nom_a":null,"nom_de":null,"slug_ville":"neuffontaines","departement_id":0,"code_postal":"58190","population":87,"superficie_km2":"1463.89","latitude_centre":"47.3536","longitude_centre":"3.7335","distance_km":4.1},{"id":0,"code_insee":"58308","nom_standard":"Vignol","nom_a":null,"nom_de":null,"slug_ville":"vignol","departement_id":0,"code_postal":"58190","population":59,"superficie_km2":"913.56","latitude_centre":"47.3553","longitude_centre":"3.6637","distance_km":5.28},{"id":26129,"code_insee":"58154","nom_standard":"La Maison-Dieu","nom_a":null,"nom_de":null,"slug_ville":"la-maison-dieu","departement_id":0,"code_postal":"58190","population":113,"superficie_km2":"1384.64","latitude_centre":"47.4255","longitude_centre":"3.6704","distance_km":5.32},{"id":26139,"code_insee":"58165","nom_standard":"Metz-le-Comte","nom_a":null,"nom_de":null,"slug_ville":"metz-le-comte","departement_id":0,"code_postal":"58190","population":177,"superficie_km2":"1440.48","latitude_centre":"47.3925","longitude_centre":"3.6405","distance_km":5.58},{"id":26021,"code_insee":"58023","nom_standard":"Bazoches","nom_a":null,"nom_de":null,"slug_ville":"bazoches","departement_id":0,"code_postal":"58190","population":160,"superficie_km2":"1476.29","latitude_centre":"47.3686","longitude_centre":"3.7938","distance_km":6.36},{"id":0,"code_insee":"89170","nom_standard":"Foissy-lès-Vézelay","nom_a":null,"nom_de":null,"slug_ville":"foissy-les-vezelay","departement_id":0,"code_postal":"89450","population":115,"superficie_km2":"568.86","latitude_centre":"47.4379","longitude_centre":"3.763","distance_km":6.64},{"id":26142,"code_insee":"58169","nom_standard":"Moissy-Moulinot","nom_a":null,"nom_de":null,"slug_ville":"moissy-moulinot","departement_id":0,"code_postal":"58190","population":14,"superficie_km2":"286.79","latitude_centre":"47.3275","longitude_centre":"3.7053","distance_km":6.77},{"id":0,"code_insee":"89446","nom_standard":"Vézelay","nom_a":null,"nom_de":null,"slug_ville":"vezelay","departement_id":0,"code_postal":"89450","population":476,"superficie_km2":"2202.17","latitude_centre":"47.4505","longitude_centre":"3.7145","distance_km":6.94},{"id":26099,"code_insee":"58116","nom_standard":"Flez-Cuzy","nom_a":null,"nom_de":null,"slug_ville":"flez-cuzy","departement_id":0,"code_postal":"58190","population":134,"superficie_km2":"596.28","latitude_centre":"47.3592","longitude_centre":"3.6315","distance_km":7.02},{"id":26143,"code_insee":"58170","nom_standard":"Monceaux-le-Comte","nom_a":null,"nom_de":null,"slug_ville":"monceaux-le-comte","departement_id":0,"code_postal":"58190","population":128,"superficie_km2":"334.54","latitude_centre":"47.331","longitude_centre":"3.6637","distance_km":7.41},{"id":0,"code_insee":"89297","nom_standard":"Pierre-Perthuis","nom_a":null,"nom_de":null,"slug_ville":"pierre-perthuis","departement_id":0,"code_postal":"89450","population":103,"superficie_km2":"746.63","latitude_centre":"47.4324","longitude_centre":"3.7897","distance_km":7.51},{"id":0,"code_insee":"58216","nom_standard":"Pouques-Lormes","nom_a":null,"nom_de":null,"slug_ville":"pouques-lormes","departement_id":0,"code_postal":"58140","population":134,"superficie_km2":"1414.11","latitude_centre":"47.3259","longitude_centre":"3.7742","distance_km":8.25},{"id":26007,"code_insee":"58008","nom_standard":"Anthien","nom_a":null,"nom_de":null,"slug_ville":"anthien","departement_id":0,"code_postal":"58800","population":173,"superficie_km2":"1970.18","latitude_centre":"47.3087","longitude_centre":"3.7265","distance_km":8.88},{"id":0,"code_insee":"89071","nom_standard":"Chamoux","nom_a":null,"nom_de":null,"slug_ville":"chamoux","departement_id":0,"code_postal":"89660","population":94,"superficie_km2":"699.88","latitude_centre":"47.4596","longitude_centre":"3.6584","distance_km":9.0},{"id":0,"code_insee":"58224","nom_standard":"Ruages","nom_a":null,"nom_de":null,"slug_ville":"ruages","departement_id":0,"code_postal":"58190","population":84,"superficie_km2":"1046.40","latitude_centre":"47.3097","longitude_centre":"3.6831","distance_km":9.03},{"id":0,"code_insee":"89364","nom_standard":"Saint-Père","nom_a":null,"nom_de":null,"slug_ville":"saint-pere","departement_id":0,"code_postal":"89450","population":289,"superficie_km2":"1572.30","latitude_centre":"47.465","longitude_centre":"3.7738","distance_km":9.65}]}