{"ville":{"id":34884,"code_insee":"89280","nom_standard":"Nuits","nom_a":null,"nom_de":null,"slug_ville":"nuits","departement_id":0,"code_postal":"89390","population":362,"superficie_km2":"1159.98","latitude_centre":"47.7224","longitude_centre":"4.1888","dep_code":"89","dep_nom":"Yonne","dep_slug":"yonne","reg_code":"27","reg_nom":"Bourgogne-Franche-Comté","reg_slug":"bourgogne-franche-comte"},"departement":{"code":"89","nom":"Yonne","slug":"yonne"},"region":{"code":"27","nom":"Bourgogne-Franche-Comté","slug":"bourgogne-franche-comte"},"villes_proches":[{"id":0,"code_insee":"89470","nom_standard":"Villiers-les-Hauts","nom_a":null,"nom_de":null,"slug_ville":"villiers-les-hauts","departement_id":0,"code_postal":"89160","population":124,"superficie_km2":"1914.35","latitude_centre":"47.724","longitude_centre":"4.1555","distance_km":2.5},{"id":34814,"code_insee":"89184","nom_standard":"Fulvy","nom_a":null,"nom_de":null,"slug_ville":"fulvy","departement_id":0,"code_postal":"89160","population":128,"superficie_km2":"383.63","latitude_centre":"47.7415","longitude_centre":"4.1633","distance_km":2.85},{"id":34772,"code_insee":"89132","nom_standard":"Cry","nom_a":null,"nom_de":null,"slug_ville":"cry","departement_id":0,"code_postal":"89390","population":157,"superficie_km2":"1123.55","latitude_centre":"47.7046","longitude_centre":"4.2261","distance_km":3.42},{"id":0,"code_insee":"89296","nom_standard":"Perrigny-sur-Armançon","nom_a":null,"nom_de":null,"slug_ville":"perrigny-sur-armancon","departement_id":0,"code_postal":"89390","population":123,"superficie_km2":"1404.46","latitude_centre":"47.689","longitude_centre":"4.2224","distance_km":4.48},{"id":0,"code_insee":"89321","nom_standard":"Ravières","nom_a":null,"nom_de":null,"slug_ville":"ravieres","departement_id":0,"code_postal":"89390","population":735,"superficie_km2":"2211.25","latitude_centre":"47.7384","longitude_centre":"4.2592","distance_km":5.56},{"id":34741,"code_insee":"89087","nom_standard":"Chassignelles","nom_a":null,"nom_de":null,"slug_ville":"chassignelles","departement_id":0,"code_postal":"89160","population":289,"superficie_km2":"1324.01","latitude_centre":"47.7735","longitude_centre":"4.1967","distance_km":5.71},{"id":34677,"code_insee":"89005","nom_standard":"Ancy-le-Franc","nom_a":null,"nom_de":null,"slug_ville":"ancy-le-franc","departement_id":0,"code_postal":"89160","population":834,"superficie_km2":"1972.77","latitude_centre":"47.7718","longitude_centre":"4.1635","distance_km":5.81},{"id":34795,"code_insee":"89161","nom_standard":"Étivey","nom_a":null,"nom_de":null,"slug_ville":"etivey","departement_id":0,"code_postal":"89310","population":181,"superficie_km2":"2791.37","latitude_centre":"47.6685","longitude_centre":"4.1413","distance_km":6.97},{"id":0,"code_insee":"89403","nom_standard":"Stigny","nom_a":null,"nom_de":null,"slug_ville":"stigny","departement_id":0,"code_postal":"89160","population":89,"superficie_km2":"1804.70","latitude_centre":"47.7804","longitude_centre":"4.2383","distance_km":7.44},{"id":34688,"code_insee":"89017","nom_standard":"Argenteuil-sur-Armançon","nom_a":null,"nom_de":null,"slug_ville":"argenteuil-sur-armancon","departement_id":0,"code_postal":"89160","population":219,"superficie_km2":"3063.62","latitude_centre":"47.7421","longitude_centre":"4.0928","distance_km":7.51},{"id":34676,"code_insee":"89004","nom_standard":"Aisy-sur-Armançon","nom_a":null,"nom_de":null,"slug_ville":"aisy-sur-armancon","departement_id":0,"code_postal":"89390","population":232,"superficie_km2":"1811.21","latitude_centre":"47.6551","longitude_centre":"4.2134","distance_km":7.71},{"id":0,"code_insee":"89290","nom_standard":"Pasilly","nom_a":null,"nom_de":null,"slug_ville":"pasilly","departement_id":0,"code_postal":"89310","population":54,"superficie_km2":"1006.71","latitude_centre":"47.7018","longitude_centre":"4.0836","distance_km":8.2},{"id":15192,"code_insee":"21026","nom_standard":"Asnières-en-Montagne","nom_a":null,"nom_de":null,"slug_ville":"asnieres-en-montagne","departement_id":0,"code_postal":"21500","population":160,"superficie_km2":"2848.88","latitude_centre":"47.7125","longitude_centre":"4.2974","distance_km":8.2},{"id":15639,"code_insee":"21530","nom_standard":"Rougemont","nom_a":null,"nom_de":null,"slug_ville":"rougemont","departement_id":0,"code_postal":"21500","population":143,"superficie_km2":"955.72","latitude_centre":"47.6632","longitude_centre":"4.2629","distance_km":8.61},{"id":34678,"code_insee":"89006","nom_standard":"Ancy-le-Libre","nom_a":null,"nom_de":null,"slug_ville":"ancy-le-libre","departement_id":0,"code_postal":"89160","population":137,"superficie_km2":"2191.35","latitude_centre":"47.8034","longitude_centre":"4.1492","distance_km":9.48},{"id":15272,"code_insee":"21114","nom_standard":"Buffon","nom_a":null,"nom_de":null,"slug_ville":"buffon","departement_id":0,"code_postal":"21500","population":152,"superficie_km2":"889.23","latitude_centre":"47.6583","longitude_centre":"4.2732","distance_km":9.52},{"id":0,"code_insee":"89284","nom_standard":"Pacy-sur-Armançon","nom_a":null,"nom_de":null,"slug_ville":"pacy-sur-armancon","departement_id":0,"code_postal":"89160","population":178,"superficie_km2":"1355.96","latitude_centre":"47.7699","longitude_centre":"4.0815","distance_km":9.61},{"id":34820,"code_insee":"89191","nom_standard":"Gland","nom_a":null,"nom_de":null,"slug_ville":"gland","departement_id":0,"code_postal":"89740","population":36,"superficie_km2":"1676.98","latitude_centre":"47.817","longitude_centre":"4.2211","distance_km":10.79},{"id":34710,"code_insee":"89042","nom_standard":"Bierry-les-Belles-Fontaines","nom_a":null,"nom_de":null,"slug_ville":"bierry-les-belles-fontaines","departement_id":0,"code_postal":"89420","population":163,"superficie_km2":"2706.56","latitude_centre":"47.6137","longitude_centre":"4.1786","distance_km":12.11},{"id":15627,"code_insee":"21518","nom_standard":"Quincy-le-Vicomte","nom_a":null,"nom_de":null,"slug_ville":"quincy-le-vicomte","departement_id":0,"code_postal":"21500","population":207,"superficie_km2":"1905.62","latitude_centre":"47.6174","longitude_centre":"4.2398","distance_km":12.28}]}