{"ville":{"id":20254,"code_insee":"36144","nom_standard":"Nuret-le-Ferron","nom_a":null,"nom_de":null,"slug_ville":"nuret-le-ferron","departement_id":0,"code_postal":"36800","population":294,"superficie_km2":"4912.48","latitude_centre":"46.6867","longitude_centre":"1.4244","dep_code":"36","dep_nom":"Indre","dep_slug":"indre","reg_code":"24","reg_nom":"Centre-Val de Loire","reg_slug":"centre-val-de-loire"},"departement":{"code":"36","nom":"Indre","slug":"indre"},"region":{"code":"24","nom":"Centre-Val de Loire","slug":"centre-val-de-loire"},"villes_proches":[{"id":0,"code_insee":"36192","nom_standard":"Saint-Gaultier","nom_a":null,"nom_de":null,"slug_ville":"saint-gaultier","departement_id":0,"code_postal":"36800","population":1701,"superficie_km2":"936.41","latitude_centre":"46.649","longitude_centre":"1.4304","distance_km":4.22},{"id":20176,"code_insee":"36051","nom_standard":"Chitray","nom_a":null,"nom_de":null,"slug_ville":"chitray","departement_id":0,"code_postal":"36800","population":172,"superficie_km2":"2003.99","latitude_centre":"46.6608","longitude_centre":"1.3577","distance_km":5.85},{"id":20170,"code_insee":"36042","nom_standard":"Chasseneuil","nom_a":null,"nom_de":null,"slug_ville":"chasseneuil","departement_id":0,"code_postal":"36800","population":714,"superficie_km2":"2991.45","latitude_centre":"46.6578","longitude_centre":"1.4906","distance_km":5.99},{"id":20233,"code_insee":"36118","nom_standard":"Méobecq","nom_a":null,"nom_de":null,"slug_ville":"meobecq","departement_id":0,"code_postal":"36500","population":361,"superficie_km2":"3790.62","latitude_centre":"46.7453","longitude_centre":"1.4106","distance_km":6.6},{"id":0,"code_insee":"36157","nom_standard":"La Pérouille","nom_a":null,"nom_de":null,"slug_ville":"la-perouille","departement_id":0,"code_postal":"36350","population":427,"superficie_km2":"2193.50","latitude_centre":"46.7128","longitude_centre":"1.5225","distance_km":8.02},{"id":0,"code_insee":"36172","nom_standard":"Rivarennes","nom_a":null,"nom_de":null,"slug_ville":"rivarennes","departement_id":0,"code_postal":"36800","population":482,"superficie_km2":"3769.61","latitude_centre":"46.6212","longitude_centre":"1.3781","distance_km":8.1},{"id":0,"code_insee":"36161","nom_standard":"Le Pont-Chrétien-Chabenet","nom_a":null,"nom_de":null,"slug_ville":"le-pont-chretien-chabenet","departement_id":0,"code_postal":"36800","population":917,"superficie_km2":"906.35","latitude_centre":"46.6297","longitude_centre":"1.4973","distance_km":8.43},{"id":20252,"code_insee":"36139","nom_standard":"Neuillay-les-Bois","nom_a":null,"nom_de":null,"slug_ville":"neuillay-les-bois","departement_id":0,"code_postal":"36500","population":660,"superficie_km2":"4786.19","latitude_centre":"46.7603","longitude_centre":"1.4807","distance_km":9.24},{"id":0,"code_insee":"36220","nom_standard":"Thenay","nom_a":null,"nom_de":null,"slug_ville":"thenay","departement_id":0,"code_postal":"36800","population":893,"superficie_km2":"3449.42","latitude_centre":"46.5974","longitude_centre":"1.4246","distance_km":9.93},{"id":20239,"code_insee":"36124","nom_standard":"Migné","nom_a":null,"nom_de":null,"slug_ville":"migne","departement_id":0,"code_postal":"36800","population":225,"superficie_km2":"6657.74","latitude_centre":"46.7147","longitude_centre":"1.3003","distance_km":9.96},{"id":0,"code_insee":"36200","nom_standard":"Saint-Marcel","nom_a":null,"nom_de":null,"slug_ville":"saint-marcel","departement_id":0,"code_postal":"36200","population":1514,"superficie_km2":"1785.91","latitude_centre":"46.6112","longitude_centre":"1.5195","distance_km":11.1},{"id":0,"code_insee":"36219","nom_standard":"Tendu","nom_a":null,"nom_de":null,"slug_ville":"tendu","departement_id":0,"code_postal":"36200","population":650,"superficie_km2":"4212.94","latitude_centre":"46.6527","longitude_centre":"1.5662","distance_km":11.46},{"id":0,"code_insee":"36101","nom_standard":"Luant","nom_a":null,"nom_de":null,"slug_ville":"luant","departement_id":0,"code_postal":"36350","population":1604,"superficie_km2":"3137.03","latitude_centre":"46.7246","longitude_centre":"1.5653","distance_km":11.54},{"id":0,"code_insee":"36232","nom_standard":"Vendœuvres","nom_a":null,"nom_de":null,"slug_ville":"vendoeuvres","departement_id":0,"code_postal":"36500","population":1086,"superficie_km2":"9894.82","latitude_centre":"46.7881","longitude_centre":"1.3649","distance_km":12.15},{"id":0,"code_insee":"36148","nom_standard":"Oulches","nom_a":null,"nom_de":null,"slug_ville":"oulches","departement_id":0,"code_postal":"36800","population":424,"superficie_km2":"4370.82","latitude_centre":"46.6036","longitude_centre":"1.3119","distance_km":12.61},{"id":0,"code_insee":"36006","nom_standard":"Argenton-sur-Creuse","nom_a":null,"nom_de":null,"slug_ville":"argenton-sur-creuse","departement_id":0,"code_postal":"36200","population":4786,"superficie_km2":"2935.48","latitude_centre":"46.5752","longitude_centre":"1.494","distance_km":13.49},{"id":20178,"code_insee":"36053","nom_standard":"Ciron","nom_a":null,"nom_de":null,"slug_ville":"ciron","departement_id":0,"code_postal":"36300","population":520,"superficie_km2":"6070.54","latitude_centre":"46.6252","longitude_centre":"1.2721","distance_km":13.49},{"id":20222,"code_insee":"36106","nom_standard":"Luzeret","nom_a":null,"nom_de":null,"slug_ville":"luzeret","departement_id":0,"code_postal":"36800","population":155,"superficie_km2":"2703.26","latitude_centre":"46.5487","longitude_centre":"1.3894","distance_km":15.58},{"id":20168,"code_insee":"36040","nom_standard":"La Chapelle-Orthemale","nom_a":null,"nom_de":null,"slug_ville":"la-chapelle-orthemale","departement_id":0,"code_postal":"36500","population":100,"superficie_km2":"1689.35","latitude_centre":"46.8328","longitude_centre":"1.4506","distance_km":16.37},{"id":0,"code_insee":"36241","nom_standard":"Villedieu-sur-Indre","nom_a":null,"nom_de":null,"slug_ville":"villedieu-sur-indre","departement_id":0,"code_postal":"36320","population":2583,"superficie_km2":"5848.08","latitude_centre":"46.834","longitude_centre":"1.5177","distance_km":17.85}]}