{"ville":{"id":18975,"code_insee":"31402","nom_standard":"Odars","nom_a":null,"nom_de":null,"slug_ville":"odars","departement_id":0,"code_postal":"31450","population":916,"superficie_km2":"667.98","latitude_centre":"43.5234","longitude_centre":"1.5919","dep_code":"31","dep_nom":"Haute-Garonne","dep_slug":"haute-garonne","reg_code":"76","reg_nom":"Occitanie","reg_slug":"occitanie"},"departement":{"code":"31","nom":"Haute-Garonne","slug":"haute-garonne"},"region":{"code":"76","nom":"Occitanie","slug":"occitanie"},"villes_proches":[{"id":0,"code_insee":"31036","nom_standard":"Auzielle","nom_a":null,"nom_de":null,"slug_ville":"auzielle","departement_id":0,"code_postal":"31650","population":1635,"superficie_km2":"463.59","latitude_centre":"43.5411","longitude_centre":"1.5691","distance_km":2.69},{"id":0,"code_insee":"31057","nom_standard":"Belberaud","nom_a":null,"nom_de":null,"slug_ville":"belberaud","departement_id":0,"code_postal":"31450","population":1597,"superficie_km2":"751.09","latitude_centre":"43.5045","longitude_centre":"1.5709","distance_km":2.7},{"id":0,"code_insee":"31439","nom_standard":"Préserville","nom_a":null,"nom_de":null,"slug_ville":"preserville","departement_id":0,"code_postal":"31570","population":786,"superficie_km2":"1219.23","latitude_centre":"43.5188","longitude_centre":"1.6265","distance_km":2.84},{"id":0,"code_insee":"31169","nom_standard":"Escalquens","nom_a":null,"nom_de":null,"slug_ville":"escalquens","departement_id":0,"code_postal":"31750","population":6924,"superficie_km2":"847.92","latitude_centre":"43.5201","longitude_centre":"1.5528","distance_km":3.17},{"id":0,"code_insee":"31480","nom_standard":"Sainte-Foy-d'Aigrefeuille","nom_a":null,"nom_de":null,"slug_ville":"sainte-foy-d-aigrefeuille","departement_id":0,"code_postal":"31570","population":2576,"superficie_km2":"987.36","latitude_centre":"43.5514","longitude_centre":"1.6037","distance_km":3.26},{"id":18826,"code_insee":"31192","nom_standard":"Fourquevaux","nom_a":null,"nom_de":null,"slug_ville":"fourquevaux","departement_id":0,"code_postal":"31450","population":851,"superficie_km2":"1022.77","latitude_centre":"43.5004","longitude_centre":"1.6231","distance_km":3.59},{"id":0,"code_insee":"31284","nom_standard":"Lauzerville","nom_a":null,"nom_de":null,"slug_ville":"lauzerville","departement_id":0,"code_postal":"31650","population":1582,"superficie_km2":"343.51","latitude_centre":"43.5578","longitude_centre":"1.5657","distance_km":4.37},{"id":0,"code_insee":"31384","nom_standard":"Montlaur","nom_a":null,"nom_de":null,"slug_ville":"montlaur","departement_id":0,"code_postal":"31450","population":1791,"superficie_km2":"973.30","latitude_centre":"43.4836","longitude_centre":"1.5799","distance_km":4.53},{"id":0,"code_insee":"31003","nom_standard":"Aigrefeuille","nom_a":null,"nom_de":null,"slug_ville":"aigrefeuille","departement_id":0,"code_postal":"31280","population":1369,"superficie_km2":"461.39","latitude_centre":"43.5684","longitude_centre":"1.5845","distance_km":5.04},{"id":0,"code_insee":"31512","nom_standard":"Saint-Pierre-de-Lages","nom_a":null,"nom_de":null,"slug_ville":"saint-pierre-de-lages","departement_id":0,"code_postal":"31570","population":886,"superficie_km2":"724.35","latitude_centre":"43.5657","longitude_centre":"1.627","distance_km":5.49},{"id":0,"code_insee":"31506","nom_standard":"Saint-Orens-de-Gameville","nom_a":null,"nom_de":null,"slug_ville":"saint-orens-de-gameville","departement_id":0,"code_postal":"31650","population":14646,"superficie_km2":"1310.52","latitude_centre":"43.555","longitude_centre":"1.5332","distance_km":5.89},{"id":0,"code_insee":"31254","nom_standard":"Labège","nom_a":null,"nom_de":null,"slug_ville":"labege","departement_id":0,"code_postal":"31670","population":4392,"superficie_km2":"772.72","latitude_centre":"43.5396","longitude_centre":"1.5207","distance_km":6.02},{"id":0,"code_insee":"31162","nom_standard":"Donneville","nom_a":null,"nom_de":null,"slug_ville":"donneville","departement_id":0,"code_postal":"31450","population":1139,"superficie_km2":"271.62","latitude_centre":"43.4728","longitude_centre":"1.5506","distance_km":6.54},{"id":0,"code_insee":"31161","nom_standard":"Deyme","nom_a":null,"nom_de":null,"slug_ville":"deyme","departement_id":0,"code_postal":"31450","population":1468,"superficie_km2":"706.20","latitude_centre":"43.4841","longitude_centre":"1.5311","distance_km":6.57},{"id":0,"code_insee":"31429","nom_standard":"Pompertuzat","nom_a":null,"nom_de":null,"slug_ville":"pompertuzat","departement_id":0,"code_postal":"31450","population":2155,"superficie_km2":"550.42","latitude_centre":"43.4958","longitude_centre":"1.5199","distance_km":6.57},{"id":0,"code_insee":"31409","nom_standard":"Péchabou","nom_a":null,"nom_de":null,"slug_ville":"pechabou","departement_id":0,"code_postal":"31320","population":2449,"superficie_km2":"352.59","latitude_centre":"43.5012","longitude_centre":"1.5124","distance_km":6.87},{"id":0,"code_insee":"31048","nom_standard":"Baziège","nom_a":null,"nom_de":null,"slug_ville":"baziege","departement_id":0,"code_postal":"31450","population":3583,"superficie_km2":"1996.28","latitude_centre":"43.4614","longitude_centre":"1.6294","distance_km":7.53},{"id":0,"code_insee":"31163","nom_standard":"Drémil-Lafage","nom_a":null,"nom_de":null,"slug_ville":"dremil-lafage","departement_id":0,"code_postal":"31280","population":2608,"superficie_km2":"1254.57","latitude_centre":"43.592","longitude_centre":"1.5996","distance_km":7.65},{"id":0,"code_insee":"31445","nom_standard":"Quint-Fonsegrives","nom_a":null,"nom_de":null,"slug_ville":"quint-fonsegrives","departement_id":0,"code_postal":"31130","population":6133,"superficie_km2":"748.21","latitude_centre":"43.5806","longitude_centre":"1.5372","distance_km":7.74},{"id":0,"code_insee":"31381","nom_standard":"Montgiscard","nom_a":null,"nom_de":null,"slug_ville":"montgiscard","departement_id":0,"code_postal":"31450","population":2587,"superficie_km2":"1321.91","latitude_centre":"43.4507","longitude_centre":"1.5687","distance_km":8.3}]}