{"ville":{"id":34519,"code_insee":"88334","nom_standard":"Oëlleville","nom_a":null,"nom_de":null,"slug_ville":"oelleville","departement_id":0,"code_postal":"88500","population":266,"superficie_km2":"1012.46","latitude_centre":"48.3363","longitude_centre":"6.0203","dep_code":"88","dep_nom":"Vosges","dep_slug":"vosges","reg_code":"44","reg_nom":"Grand Est","reg_slug":"grand-est"},"departement":{"code":"88","nom":"Vosges","slug":"vosges"},"region":{"code":"44","nom":"Grand Est","slug":"grand-est"},"villes_proches":[{"id":34323,"code_insee":"88100","nom_standard":"Chef-Haut","nom_a":null,"nom_de":null,"slug_ville":"chef-haut","departement_id":0,"code_postal":"88500","population":49,"superficie_km2":"318.40","latitude_centre":"48.354","longitude_centre":"6.0093","distance_km":2.13},{"id":0,"code_insee":"88476","nom_standard":"Totainville","nom_a":null,"nom_de":null,"slug_ville":"totainville","departement_id":0,"code_postal":"88500","population":111,"superficie_km2":"507.31","latitude_centre":"48.3262","longitude_centre":"5.9855","distance_km":2.81},{"id":34294,"code_insee":"88060","nom_standard":"Blémerey","nom_a":null,"nom_de":null,"slug_ville":"blemerey","departement_id":0,"code_postal":"88500","population":28,"superficie_km2":"250.12","latitude_centre":"48.3586","longitude_centre":"6.0425","distance_km":2.97},{"id":0,"code_insee":"88389","nom_standard":"Repel","nom_a":null,"nom_de":null,"slug_ville":"repel","departement_id":0,"code_postal":"88500","population":83,"superficie_km2":"350.28","latitude_centre":"48.345","longitude_centre":"5.9807","distance_km":3.08},{"id":34450,"code_insee":"88257","nom_standard":"Juvaincourt","nom_a":null,"nom_de":null,"slug_ville":"juvaincourt","departement_id":0,"code_postal":"88500","population":184,"superficie_km2":"892.58","latitude_centre":"48.3328","longitude_centre":"6.0631","distance_km":3.19},{"id":34393,"code_insee":"88186","nom_standard":"Frenelle-la-Petite","nom_a":null,"nom_de":null,"slug_ville":"frenelle-la-petite","departement_id":0,"code_postal":"88500","population":49,"superficie_km2":"349.91","latitude_centre":"48.3496","longitude_centre":"6.0631","distance_km":3.49},{"id":24444,"code_insee":"54003","nom_standard":"Aboncourt","nom_a":null,"nom_de":null,"slug_ville":"aboncourt","departement_id":0,"code_postal":"54115","population":91,"superficie_km2":"693.07","latitude_centre":"48.3605","longitude_centre":"5.9875","distance_km":3.62},{"id":24554,"code_insee":"54140","nom_standard":"Courcelles","nom_a":null,"nom_de":null,"slug_ville":"courcelles","departement_id":0,"code_postal":"54930","population":85,"superficie_km2":"432.27","latitude_centre":"48.3693","longitude_centre":"6.0296","distance_km":3.73},{"id":0,"code_insee":"88400","nom_standard":"Rouvres-en-Xaintois","nom_a":null,"nom_de":null,"slug_ville":"rouvres-en-xaintois","departement_id":0,"code_postal":"88500","population":259,"superficie_km2":"1109.97","latitude_centre":"48.2999","longitude_centre":"6.0182","distance_km":4.05},{"id":34353,"code_insee":"88139","nom_standard":"Dombasle-en-Xaintois","nom_a":null,"nom_de":null,"slug_ville":"dombasle-en-xaintois","departement_id":0,"code_postal":"88500","population":123,"superficie_km2":"473.65","latitude_centre":"48.3036","longitude_centre":"5.9952","distance_km":4.08},{"id":34273,"code_insee":"88039","nom_standard":"Baudricourt","nom_a":null,"nom_de":null,"slug_ville":"baudricourt","departement_id":0,"code_postal":"88500","population":327,"superficie_km2":"345.98","latitude_centre":"48.3087","longitude_centre":"6.0566","distance_km":4.08},{"id":24604,"code_insee":"54207","nom_standard":"Fraisnes-en-Saintois","nom_a":null,"nom_de":null,"slug_ville":"fraisnes-en-saintois","departement_id":0,"code_postal":"54930","population":85,"superficie_km2":"646.83","latitude_centre":"48.3735","longitude_centre":"6.0598","distance_km":5.06},{"id":24629,"code_insee":"54237","nom_standard":"Grimonviller","nom_a":null,"nom_de":null,"slug_ville":"grimonviller","departement_id":0,"code_postal":"54115","population":116,"superficie_km2":"484.34","latitude_centre":"48.3815","longitude_centre":"6.0087","distance_km":5.1},{"id":34292,"code_insee":"88058","nom_standard":"Biécourt","nom_a":null,"nom_de":null,"slug_ville":"biecourt","departement_id":0,"code_postal":"88170","population":89,"superficie_km2":"599.34","latitude_centre":"48.3243","longitude_centre":"5.9535","distance_km":5.12},{"id":34490,"code_insee":"88299","nom_standard":"Ménil-en-Xaintois","nom_a":null,"nom_de":null,"slug_ville":"menil-en-xaintois","departement_id":0,"code_postal":"88500","population":167,"superficie_km2":"423.76","latitude_centre":"48.2988","longitude_centre":"5.9726","distance_km":5.46},{"id":34367,"code_insee":"88155","nom_standard":"Domvallier","nom_a":null,"nom_de":null,"slug_ville":"domvallier","departement_id":0,"code_postal":"88500","population":93,"superficie_km2":"325.02","latitude_centre":"48.303","longitude_centre":"6.0803","distance_km":5.78},{"id":24498,"code_insee":"54068","nom_standard":"Beuvezin","nom_a":null,"nom_de":null,"slug_ville":"beuvezin","departement_id":0,"code_postal":"54115","population":90,"superficie_km2":"762.42","latitude_centre":"48.3794","longitude_centre":"5.9705","distance_km":6.04},{"id":24777,"code_insee":"54438","nom_standard":"Pulney","nom_a":null,"nom_de":null,"slug_ville":"pulney","departement_id":0,"code_postal":"54115","population":54,"superficie_km2":"443.18","latitude_centre":"48.3907","longitude_centre":"6.0332","distance_km":6.12},{"id":0,"code_insee":"88335","nom_standard":"Offroicourt","nom_a":null,"nom_de":null,"slug_ville":"offroicourt","departement_id":0,"code_postal":"88500","population":145,"superficie_km2":"928.98","latitude_centre":"48.2814","longitude_centre":"6.0296","distance_km":6.14},{"id":0,"code_insee":"88518","nom_standard":"Viviers-lès-Offroicourt","nom_a":null,"nom_de":null,"slug_ville":"viviers-les-offroicourt","departement_id":0,"code_postal":"88500","population":26,"superficie_km2":"455.95","latitude_centre":"48.2693","longitude_centre":"6.017","distance_km":7.45}]}