{"ville":{"id":3932,"code_insee":"40209","nom_standard":"Ondres","nom_a":null,"nom_de":null,"slug_ville":"ondres","departement_id":641,"code_postal":"40440","population":5855,"superficie_km2":"15.00","latitude_centre":"43.5660019","longitude_centre":"-1.4540000","dep_code":"40","dep_nom":"Landes","dep_slug":"landes","reg_code":"15","reg_nom":"Nouvelle-Aquitaine","reg_slug":"nouvelle-aquitaine"},"departement":{"code":"40","nom":"Landes","slug":"landes"},"region":{"code":"15","nom":"Nouvelle-Aquitaine","slug":"nouvelle-aquitaine"},"villes_proches":[{"id":3978,"code_insee":"40312","nom_standard":"Tarnos","nom_a":null,"nom_de":null,"slug_ville":"tarnos","departement_id":641,"code_postal":"40220","population":12920,"superficie_km2":"27.00","latitude_centre":"43.5369988","longitude_centre":"-1.4650000","distance_km":3.34},{"id":3914,"code_insee":"40133","nom_standard":"Labenne","nom_a":null,"nom_de":null,"slug_ville":"labenne","departement_id":641,"code_postal":"40530","population":7007,"superficie_km2":"25.00","latitude_centre":"43.5960007","longitude_centre":"-1.4299999","distance_km":3.86},{"id":6645,"code_insee":"64140","nom_standard":"Boucau","nom_a":null,"nom_de":null,"slug_ville":"boucau","departement_id":665,"code_postal":"64340","population":8809,"superficie_km2":"6.00","latitude_centre":"43.5250015","longitude_centre":"-1.4800000","distance_km":5.02},{"id":3956,"code_insee":"40273","nom_standard":"Saint-Martin-de-Seignanx","nom_a":null,"nom_de":null,"slug_ville":"saint-martin-de-seignanx","departement_id":641,"code_postal":"40390","population":6076,"superficie_km2":"46.00","latitude_centre":"43.5320015","longitude_centre":"-1.3880000","distance_km":6.53},{"id":3901,"code_insee":"40065","nom_standard":"Capbreton","nom_a":null,"nom_de":null,"slug_ville":"capbreton","departement_id":641,"code_postal":"40130","population":9185,"superficie_km2":"21.00","latitude_centre":"43.6320000","longitude_centre":"-1.4290000","distance_km":7.61},{"id":3947,"code_insee":"40248","nom_standard":"Saint-André-de-Seignanx","nom_a":null,"nom_de":null,"slug_ville":"saint-andre-de-seignanx","departement_id":641,"code_postal":"40390","population":1881,"superficie_km2":"20.00","latitude_centre":"43.5660019","longitude_centre":"-1.3580000","distance_km":7.73},{"id":6634,"code_insee":"64102","nom_standard":"Bayonne","nom_a":null,"nom_de":null,"slug_ville":"bayonne","departement_id":665,"code_postal":"64100","population":52749,"superficie_km2":"26.00","latitude_centre":"43.4920006","longitude_centre":"-1.4660000","distance_km":8.29},{"id":6617,"code_insee":"64024","nom_standard":"Anglet","nom_a":null,"nom_de":null,"slug_ville":"anglet","departement_id":665,"code_postal":"64600","population":41153,"superficie_km2":"28.00","latitude_centre":"43.4920006","longitude_centre":"-1.5160000","distance_km":9.63},{"id":6669,"code_insee":"64304","nom_standard":"Lahonce","nom_a":null,"nom_de":null,"slug_ville":"lahonce","departement_id":665,"code_postal":"64990","population":2681,"superficie_km2":"10.00","latitude_centre":"43.4840012","longitude_centre":"-1.3960000","distance_km":10.25},{"id":3897,"code_insee":"40036","nom_standard":"Bénesse-Maremne","nom_a":null,"nom_de":null,"slug_ville":"benesse-maremne","departement_id":641,"code_postal":"40230","population":3735,"superficie_km2":"19.00","latitude_centre":"43.6349983","longitude_centre":"-1.3650000","distance_km":10.5},{"id":6707,"code_insee":"64496","nom_standard":"Saint-Pierre-d'Irube","nom_a":null,"nom_de":null,"slug_ville":"saint-pierre-d-irube","departement_id":665,"code_postal":"64990","population":5822,"superficie_km2":"8.00","latitude_centre":"43.4630013","longitude_centre":"-1.4420000","distance_km":11.49},{"id":3968,"code_insee":"40292","nom_standard":"Saubrigues","nom_a":null,"nom_de":null,"slug_ville":"saubrigues","departement_id":641,"code_postal":"40230","population":1571,"superficie_km2":"21.00","latitude_centre":"43.6080017","longitude_centre":"-1.3220000","distance_km":11.61},{"id":3974,"code_insee":"40304","nom_standard":"Soorts-Hossegor","nom_a":null,"nom_de":null,"slug_ville":"soorts-hossegor","departement_id":641,"code_postal":"40150","population":3520,"superficie_km2":"14.00","latitude_centre":"43.6679993","longitude_centre":"-1.4119999","distance_km":11.83},{"id":6716,"code_insee":"64540","nom_standard":"Urcuit","nom_a":null,"nom_de":null,"slug_ville":"urcuit","departement_id":665,"code_postal":"64990","population":2914,"superficie_km2":"14.00","latitude_centre":"43.4850006","longitude_centre":"-1.3500000","distance_km":12.31},{"id":6688,"code_insee":"64407","nom_standard":"Mouguerre","nom_a":null,"nom_de":null,"slug_ville":"mouguerre","departement_id":665,"code_postal":"64990","population":5291,"superficie_km2":"22.00","latitude_centre":"43.4580002","longitude_centre":"-1.4050000","distance_km":12.64},{"id":3894,"code_insee":"40004","nom_standard":"Angresse","nom_a":null,"nom_de":null,"slug_ville":"angresse","departement_id":641,"code_postal":"40150","population":2207,"superficie_km2":"8.00","latitude_centre":"43.6590004","longitude_centre":"-1.3630000","distance_km":12.67},{"id":6636,"code_insee":"64122","nom_standard":"Biarritz","nom_a":null,"nom_de":null,"slug_ville":"biarritz","departement_id":665,"code_postal":"64200","population":25764,"superficie_km2":"12.00","latitude_centre":"43.4700012","longitude_centre":"-1.5530000","distance_km":13.33},{"id":6721,"code_insee":"64558","nom_standard":"Villefranque","nom_a":null,"nom_de":null,"slug_ville":"villefranque","departement_id":665,"code_postal":"64990","population":2893,"superficie_km2":"17.00","latitude_centre":"43.4420013","longitude_centre":"-1.4480000","distance_km":13.8},{"id":6633,"code_insee":"64100","nom_standard":"Bassussarry","nom_a":null,"nom_de":null,"slug_ville":"bassussarry","departement_id":665,"code_postal":"64200","population":3301,"superficie_km2":"7.00","latitude_centre":"43.4440002","longitude_centre":"-1.4960001","distance_km":13.98},{"id":3955,"code_insee":"40272","nom_standard":"Saint-Martin-de-Hinx","nom_a":null,"nom_de":null,"slug_ville":"saint-martin-de-hinx","departement_id":641,"code_postal":"40390","population":1717,"superficie_km2":"26.00","latitude_centre":"43.5810013","longitude_centre":"-1.2770000","distance_km":14.36}]}