{"ville":{"id":21064,"code_insee":"39393","nom_standard":"Onglières","nom_a":null,"nom_de":null,"slug_ville":"onglieres","departement_id":0,"code_postal":"39250","population":70,"superficie_km2":"897.12","latitude_centre":"46.8055","longitude_centre":"6.0037","dep_code":"39","dep_nom":"Jura","dep_slug":"jura","reg_code":"27","reg_nom":"Bourgogne-Franche-Comté","reg_slug":"bourgogne-franche-comte"},"departement":{"code":"39","nom":"Jura","slug":"jura"},"region":{"code":"27","nom":"Bourgogne-Franche-Comté","slug":"bourgogne-franche-comte"},"villes_proches":[{"id":0,"code_insee":"39428","nom_standard":"Plénisette","nom_a":null,"nom_de":null,"slug_ville":"plenisette","departement_id":0,"code_postal":"39250","population":20,"superficie_km2":"271.91","latitude_centre":"46.8036","longitude_centre":"6.016","distance_km":0.96},{"id":0,"code_insee":"39427","nom_standard":"Plénise","nom_a":null,"nom_de":null,"slug_ville":"plenise","departement_id":0,"code_postal":"39250","population":64,"superficie_km2":"533.87","latitude_centre":"46.814","longitude_centre":"6.0193","distance_km":1.52},{"id":21055,"code_insee":"39381","nom_standard":"Les Nans","nom_a":null,"nom_de":null,"slug_ville":"les-nans","departement_id":0,"code_postal":"39300","population":100,"superficie_km2":"843.58","latitude_centre":"46.7932","longitude_centre":"5.9778","distance_km":2.4},{"id":20928,"code_insee":"39214","nom_standard":"Esserval-Tartre","nom_a":null,"nom_de":null,"slug_ville":"esserval-tartre","departement_id":0,"code_postal":"39250","population":140,"superficie_km2":"1205.56","latitude_centre":"46.8296","longitude_centre":"6.0305","distance_km":3.37},{"id":21047,"code_insee":"39372","nom_standard":"Mournans-Charbonny","nom_a":null,"nom_de":null,"slug_ville":"mournans-charbonny","departement_id":0,"code_postal":"39250","population":79,"superficie_km2":"534.97","latitude_centre":"46.7732","longitude_centre":"5.9899","distance_km":3.74},{"id":21019,"code_insee":"39329","nom_standard":"Mièges","nom_a":null,"nom_de":null,"slug_ville":"mieges","departement_id":0,"code_postal":"39250","population":165,"superficie_km2":"776.62","latitude_centre":"46.7933","longitude_centre":"6.0523","distance_km":3.94},{"id":20919,"code_insee":"39203","nom_standard":"Doye","nom_a":null,"nom_de":null,"slug_ville":"doye","departement_id":0,"code_postal":"39250","population":110,"superficie_km2":"359.93","latitude_centre":"46.77","longitude_centre":"6.012","distance_km":4.0},{"id":20844,"code_insee":"39105","nom_standard":"Chapois","nom_a":null,"nom_de":null,"slug_ville":"chapois","departement_id":0,"code_postal":"39300","population":219,"superficie_km2":"1011.61","latitude_centre":"46.8312","longitude_centre":"5.9661","distance_km":4.04},{"id":20847,"code_insee":"39108","nom_standard":"Charency","nom_a":null,"nom_de":null,"slug_ville":"charency","departement_id":0,"code_postal":"39250","population":55,"superficie_km2":"285.15","latitude_centre":"46.7668","longitude_centre":"5.9904","distance_km":4.42},{"id":20981,"code_insee":"39281","nom_standard":"Le Latet","nom_a":null,"nom_de":null,"slug_ville":"le-latet","departement_id":0,"code_postal":"39300","population":91,"superficie_km2":"439.30","latitude_centre":"46.8035","longitude_centre":"5.9422","distance_km":4.69},{"id":20977,"code_insee":"39277","nom_standard":"Le Larderet","nom_a":null,"nom_de":null,"slug_ville":"le-larderet","departement_id":0,"code_postal":"39300","population":49,"superficie_km2":"611.37","latitude_centre":"46.8185","longitude_centre":"5.945","distance_km":4.7},{"id":21062,"code_insee":"39391","nom_standard":"Nozeroy","nom_a":null,"nom_de":null,"slug_ville":"nozeroy","departement_id":0,"code_postal":"39250","population":393,"superficie_km2":"374.25","latitude_centre":"46.7683","longitude_centre":"6.0371","distance_km":4.86},{"id":21050,"code_insee":"39376","nom_standard":"Moutoux","nom_a":null,"nom_de":null,"slug_ville":"moutoux","departement_id":0,"code_postal":"39300","population":76,"superficie_km2":"426.27","latitude_centre":"46.7894","longitude_centre":"5.9387","distance_km":5.26},{"id":0,"code_insee":"39522","nom_standard":"Supt","nom_a":null,"nom_de":null,"slug_ville":"supt","departement_id":0,"code_postal":"39300","population":110,"superficie_km2":"1407.70","latitude_centre":"46.855","longitude_centre":"5.9868","distance_km":5.65},{"id":0,"code_insee":"39481","nom_standard":"Saint-Germain-en-Montagne","nom_a":null,"nom_de":null,"slug_ville":"saint-germain-en-montagne","departement_id":0,"code_postal":"39300","population":390,"superficie_km2":"538.71","latitude_centre":"46.7797","longitude_centre":"5.9358","distance_km":5.91},{"id":20909,"code_insee":"39187","nom_standard":"Cuvier","nom_a":null,"nom_de":null,"slug_ville":"cuvier","departement_id":0,"code_postal":"39250","population":277,"superficie_km2":"1056.98","latitude_centre":"46.8407","longitude_centre":"6.0661","distance_km":6.15},{"id":20891,"code_insee":"39165","nom_standard":"Conte","nom_a":null,"nom_de":null,"slug_ville":"conte","departement_id":0,"code_postal":"39300","population":58,"superficie_km2":"334.36","latitude_centre":"46.7488","longitude_centre":"6.0093","distance_km":6.32},{"id":0,"code_insee":"39461","nom_standard":"Rix","nom_a":null,"nom_de":null,"slug_ville":"rix","departement_id":0,"code_postal":"39250","population":76,"superficie_km2":"538.70","latitude_centre":"46.7597","longitude_centre":"6.0536","distance_km":6.35},{"id":20990,"code_insee":"39292","nom_standard":"Lent","nom_a":null,"nom_de":null,"slug_ville":"lent","departement_id":0,"code_postal":"39300","population":128,"superficie_km2":"418.23","latitude_centre":"46.75","longitude_centre":"5.977","distance_km":6.5},{"id":20934,"code_insee":"39221","nom_standard":"La Favière","nom_a":null,"nom_de":null,"slug_ville":"la-faviere","departement_id":0,"code_postal":"39250","population":33,"superficie_km2":"275.26","latitude_centre":"46.7484","longitude_centre":"6.037","distance_km":6.84}]}