{"ville":{"id":20620,"code_insee":"38282","nom_standard":"Optevoz","nom_a":null,"nom_de":null,"slug_ville":"optevoz","departement_id":0,"code_postal":"38460","population":875,"superficie_km2":"1204.03","latitude_centre":"45.752","longitude_centre":"5.3406","dep_code":"38","dep_nom":"Isère","dep_slug":"isere","reg_code":"84","reg_nom":"Auvergne-Rhône-Alpes","reg_slug":"auvergne-rhone-alpes"},"departement":{"code":"38","nom":"Isère","slug":"isere"},"region":{"code":"84","nom":"Auvergne-Rhône-Alpes","slug":"auvergne-rhone-alpes"},"villes_proches":[{"id":0,"code_insee":"38488","nom_standard":"Siccieu-Saint-Julien-et-Carisieu","nom_a":null,"nom_de":null,"slug_ville":"siccieu-saint-julien-et-carisieu","departement_id":0,"code_postal":"38460","population":609,"superficie_km2":"1424.04","latitude_centre":"45.7286","longitude_centre":"5.3089","distance_km":3.58},{"id":0,"code_insee":"38135","nom_standard":"Courtenay","nom_a":null,"nom_de":null,"slug_ville":"courtenay","departement_id":0,"code_postal":"38510","population":1277,"superficie_km2":"3221.61","latitude_centre":"45.7396","longitude_centre":"5.3887","distance_km":3.98},{"id":20506,"code_insee":"38010","nom_standard":"Annoisin-Chatelans","nom_a":null,"nom_de":null,"slug_ville":"annoisin-chatelans","departement_id":0,"code_postal":"38460","population":719,"superficie_km2":"1337.25","latitude_centre":"45.7657","longitude_centre":"5.289","distance_km":4.28},{"id":0,"code_insee":"38365","nom_standard":"Saint-Baudille-de-la-Tour","nom_a":null,"nom_de":null,"slug_ville":"saint-baudille-de-la-tour","departement_id":0,"code_postal":"38118","population":849,"superficie_km2":"2189.18","latitude_centre":"45.7905","longitude_centre":"5.347","distance_km":4.31},{"id":0,"code_insee":"38494","nom_standard":"Soleymieu","nom_a":null,"nom_de":null,"slug_ville":"soleymieu","departement_id":0,"code_postal":"38460","population":895,"superficie_km2":"1333.61","latitude_centre":"45.7031","longitude_centre":"5.3622","distance_km":5.69},{"id":20532,"code_insee":"38083","nom_standard":"Charette","nom_a":null,"nom_de":null,"slug_ville":"charette","departement_id":0,"code_postal":"38390","population":445,"superficie_km2":"1136.51","latitude_centre":"45.8045","longitude_centre":"5.3593","distance_km":6.02},{"id":20559,"code_insee":"38146","nom_standard":"Dizimieu","nom_a":null,"nom_de":null,"slug_ville":"dizimieu","departement_id":0,"code_postal":"38460","population":835,"superficie_km2":"970.21","latitude_centre":"45.7112","longitude_centre":"5.2846","distance_km":6.28},{"id":0,"code_insee":"38138","nom_standard":"Crémieu","nom_a":null,"nom_de":null,"slug_ville":"cremieu","departement_id":0,"code_postal":"38460","population":3536,"superficie_km2":"622.56","latitude_centre":"45.7314","longitude_centre":"5.2635","distance_km":6.41},{"id":20581,"code_insee":"38210","nom_standard":"Leyrieu","nom_a":null,"nom_de":null,"slug_ville":"leyrieu","departement_id":0,"code_postal":"38460","population":919,"superficie_km2":"652.56","latitude_centre":"45.7556","longitude_centre":"5.2572","distance_km":6.48},{"id":0,"code_insee":"38535","nom_standard":"Vernas","nom_a":null,"nom_de":null,"slug_ville":"vernas","departement_id":0,"code_postal":"38460","population":268,"superficie_km2":"589.08","latitude_centre":"45.7769","longitude_centre":"5.2647","distance_km":6.51},{"id":0,"code_insee":"38190","nom_standard":"Hières-sur-Amby","nom_a":null,"nom_de":null,"slug_ville":"hieres-sur-amby","departement_id":0,"code_postal":"38118","population":1245,"superficie_km2":"868.65","latitude_centre":"45.8009","longitude_centre":"5.2914","distance_km":6.64},{"id":0,"code_insee":"38054","nom_standard":"Bouvesse-Quirieu","nom_a":null,"nom_de":null,"slug_ville":"bouvesse-quirieu","departement_id":0,"code_postal":"38390","population":1524,"superficie_km2":"1778.01","latitude_centre":"45.7794","longitude_centre":"5.4193","distance_km":6.82},{"id":0,"code_insee":"38515","nom_standard":"Trept","nom_a":null,"nom_de":null,"slug_ville":"trept","departement_id":0,"code_postal":"38460","population":2095,"superficie_km2":"1590.33","latitude_centre":"45.6864","longitude_centre":"5.3239","distance_km":7.41},{"id":0,"code_insee":"38247","nom_standard":"Montalieu-Vercieu","nom_a":null,"nom_de":null,"slug_ville":"montalieu-vercieu","departement_id":0,"code_postal":"38390","population":3510,"superficie_km2":"892.19","latitude_centre":"45.8143","longitude_centre":"5.4036","distance_km":8.48},{"id":0,"code_insee":"38467","nom_standard":"Salagnon","nom_a":null,"nom_de":null,"slug_ville":"salagnon","departement_id":0,"code_postal":"38890","population":1508,"superficie_km2":"828.99","latitude_centre":"45.6717","longitude_centre":"5.3523","distance_km":8.98},{"id":0,"code_insee":"38392","nom_standard":"Saint-Hilaire-de-Brens","nom_a":null,"nom_de":null,"slug_ville":"saint-hilaire-de-brens","departement_id":0,"code_postal":"38460","population":603,"superficie_km2":"755.94","latitude_centre":"45.677","longitude_centre":"5.2913","distance_km":9.18},{"id":20607,"code_insee":"38260","nom_standard":"Moras","nom_a":null,"nom_de":null,"slug_ville":"moras","departement_id":0,"code_postal":"38460","population":520,"superficie_km2":"826.10","latitude_centre":"45.6856","longitude_centre":"5.2626","distance_km":9.55},{"id":0,"code_insee":"01390","nom_standard":"Saint-Vulbas","nom_a":null,"nom_de":null,"slug_ville":"saint-vulbas","departement_id":0,"code_postal":"01150","population":1247,"superficie_km2":"2157.17","latitude_centre":"45.8234","longitude_centre":"5.267","distance_km":9.78},{"id":0,"code_insee":"38295","nom_standard":"Parmilieu","nom_a":null,"nom_de":null,"slug_ville":"parmilieu","departement_id":0,"code_postal":"38390","population":723,"superficie_km2":"1283.98","latitude_centre":"45.8437","longitude_centre":"5.3595","distance_km":10.3},{"id":0,"code_insee":"38026","nom_standard":"La Balme-les-Grottes","nom_a":null,"nom_de":null,"slug_ville":"la-balme-les-grottes","departement_id":0,"code_postal":"38390","population":1146,"superficie_km2":"1450.33","latitude_centre":"45.8435","longitude_centre":"5.3196","distance_km":10.3}]}