{"ville":{"id":34185,"code_insee":"87109","nom_standard":"Oradour-Saint-Genest","nom_a":null,"nom_de":null,"slug_ville":"oradour-saint-genest","departement_id":0,"code_postal":"87210","population":367,"superficie_km2":"3804.26","latitude_centre":"46.2445","longitude_centre":"1.0207","dep_code":"87","dep_nom":"Haute-Vienne","dep_slug":"haute-vienne","reg_code":"75","reg_nom":"Nouvelle-Aquitaine","reg_slug":"nouvelle-aquitaine"},"departement":{"code":"87","nom":"Haute-Vienne","slug":"haute-vienne"},"region":{"code":"75","nom":"Nouvelle-Aquitaine","slug":"nouvelle-aquitaine"},"villes_proches":[{"id":34123,"code_insee":"87008","nom_standard":"La Bazeuge","nom_a":null,"nom_de":null,"slug_ville":"la-bazeuge","departement_id":0,"code_postal":"87210","population":142,"superficie_km2":"1031.18","latitude_centre":"46.2575","longitude_centre":"1.0835","distance_km":5.04},{"id":0,"code_insee":"87059","nom_standard":"Le Dorat","nom_a":null,"nom_de":null,"slug_ville":"le-dorat","departement_id":0,"code_postal":"87210","population":1529,"superficie_km2":"2389.40","latitude_centre":"46.2089","longitude_centre":"1.072","distance_km":5.59},{"id":0,"code_insee":"87179","nom_standard":"Saint-Sornin-la-Marche","nom_a":null,"nom_de":null,"slug_ville":"saint-sornin-la-marche","departement_id":0,"code_postal":"87210","population":218,"superficie_km2":"2418.17","latitude_centre":"46.1931","longitude_centre":"0.9914","distance_km":6.14},{"id":34149,"code_insee":"87056","nom_standard":"Dinsac","nom_a":null,"nom_de":null,"slug_ville":"dinsac","departement_id":0,"code_postal":"87210","population":242,"superficie_km2":"1935.99","latitude_centre":"46.2411","longitude_centre":"1.1035","distance_km":6.38},{"id":34121,"code_insee":"87006","nom_standard":"Azat-le-Ris","nom_a":null,"nom_de":null,"slug_ville":"azat-le-ris","departement_id":0,"code_postal":"87360","population":241,"superficie_km2":"5648.33","latitude_centre":"46.3056","longitude_centre":"1.0547","distance_km":7.28},{"id":0,"code_insee":"87172","nom_standard":"Saint-Ouen-sur-Gartempe","nom_a":null,"nom_de":null,"slug_ville":"saint-ouen-sur-gartempe","departement_id":0,"code_postal":"87300","population":214,"superficie_km2":"2216.57","latitude_centre":"46.1729","longitude_centre":"1.0801","distance_km":9.18},{"id":0,"code_insee":"87028","nom_standard":"Val-d'Oire-et-Gartempe","nom_a":null,"nom_de":null,"slug_ville":"val-d-oire-et-gartempe","departement_id":0,"code_postal":"87320","population":1711,"superficie_km2":"12067.91","latitude_centre":"46.2293","longitude_centre":"0.8987","distance_km":9.53},{"id":34147,"code_insee":"87052","nom_standard":"La Croix-sur-Gartempe","nom_a":null,"nom_de":null,"slug_ville":"la-croix-sur-gartempe","departement_id":0,"code_postal":"87210","population":161,"superficie_km2":"1274.85","latitude_centre":"46.1596","longitude_centre":"1.0004","distance_km":9.57},{"id":0,"code_insee":"87195","nom_standard":"Tersannes","nom_a":null,"nom_de":null,"slug_ville":"tersannes","departement_id":0,"code_postal":"87360","population":126,"superficie_km2":"2471.23","latitude_centre":"46.2921","longitude_centre":"1.1273","distance_km":9.75},{"id":0,"code_insee":"87139","nom_standard":"Saint-Bonnet-de-Bellac","nom_a":null,"nom_de":null,"slug_ville":"saint-bonnet-de-bellac","departement_id":0,"code_postal":"87300","population":452,"superficie_km2":"3463.06","latitude_centre":"46.166","longitude_centre":"0.9412","distance_km":10.66},{"id":0,"code_insee":"86120","nom_standard":"Lathus-Saint-Rémy","nom_a":null,"nom_de":null,"slug_ville":"lathus-saint-remy","departement_id":0,"code_postal":"86390","population":1214,"superficie_km2":"9862.54","latitude_centre":"46.3223","longitude_centre":"0.9372","distance_km":10.77},{"id":0,"code_insee":"87089","nom_standard":"Magnac-Laval","nom_a":null,"nom_de":null,"slug_ville":"magnac-laval","departement_id":0,"code_postal":"87190","population":1690,"superficie_km2":"7248.37","latitude_centre":"46.2381","longitude_centre":"1.1702","distance_km":11.52},{"id":0,"code_insee":"87200","nom_standard":"Verneuil-Moustiers","nom_a":null,"nom_de":null,"slug_ville":"verneuil-moustiers","departement_id":0,"code_postal":"87360","population":118,"superficie_km2":"1968.30","latitude_centre":"46.3362","longitude_centre":"1.1121","distance_km":12.38},{"id":0,"code_insee":"87116","nom_standard":"Peyrat-de-Bellac","nom_a":null,"nom_de":null,"slug_ville":"peyrat-de-bellac","departement_id":0,"code_postal":"87300","population":1059,"superficie_km2":"3141.87","latitude_centre":"46.1289","longitude_centre":"1.0255","distance_km":12.86},{"id":34153,"code_insee":"87061","nom_standard":"Droux","nom_a":null,"nom_de":null,"slug_ville":"droux","departement_id":0,"code_postal":"87190","population":378,"superficie_km2":"2409.10","latitude_centre":"46.1667","longitude_centre":"1.1491","distance_km":13.13},{"id":33959,"code_insee":"86035","nom_standard":"Bourg-Archambault","nom_a":null,"nom_de":null,"slug_ville":"bourg-archambault","departement_id":0,"code_postal":"86390","population":170,"superficie_km2":"2440.47","latitude_centre":"46.3714","longitude_centre":"0.9973","distance_km":14.22},{"id":34129,"code_insee":"87017","nom_standard":"Blanzac","nom_a":null,"nom_de":null,"slug_ville":"blanzac","departement_id":0,"code_postal":"87300","population":468,"superficie_km2":"2355.87","latitude_centre":"46.1272","longitude_centre":"1.1076","distance_km":14.66},{"id":0,"code_insee":"87011","nom_standard":"Bellac","nom_a":null,"nom_de":null,"slug_ville":"bellac","departement_id":0,"code_postal":"87300","population":3537,"superficie_km2":"2449.95","latitude_centre":"46.1013","longitude_centre":"1.0325","distance_km":15.95},{"id":33961,"code_insee":"86037","nom_standard":"Brigueil-le-Chantre","nom_a":null,"nom_de":null,"slug_ville":"brigueil-le-chantre","departement_id":0,"code_postal":"86290","population":455,"superficie_km2":"5439.71","latitude_centre":"46.3849","longitude_centre":"1.0891","distance_km":16.47},{"id":34075,"code_insee":"86230","nom_standard":"Saint-Léomer","nom_a":null,"nom_de":null,"slug_ville":"saint-leomer","departement_id":0,"code_postal":"86290","population":172,"superficie_km2":"2910.37","latitude_centre":"46.4161","longitude_centre":"0.9979","distance_km":19.16}]}