{"ville":{"id":27295,"code_insee":"61317","nom_standard":"Orgères","nom_a":null,"nom_de":null,"slug_ville":"orgeres","departement_id":0,"code_postal":"61230","population":180,"superficie_km2":"1219.41","latitude_centre":"48.7484","longitude_centre":"0.3522","dep_code":"61","dep_nom":"Orne","dep_slug":"orne","reg_code":"28","reg_nom":"Normandie","reg_slug":"normandie"},"departement":{"code":"61","nom":"Orne","slug":"orne"},"region":{"code":"28","nom":"Normandie","slug":"normandie"},"villes_proches":[{"id":27170,"code_insee":"61108","nom_standard":"Cisai-Saint-Aubin","nom_a":null,"nom_de":null,"slug_ville":"cisai-saint-aubin","departement_id":0,"code_postal":"61230","population":184,"superficie_km2":"1459.44","latitude_centre":"48.7746","longitude_centre":"0.3572","distance_km":2.94},{"id":27154,"code_insee":"61088","nom_standard":"Champ-Haut","nom_a":null,"nom_de":null,"slug_ville":"champ-haut","departement_id":0,"code_postal":"61240","population":41,"superficie_km2":"512.93","latitude_centre":"48.7276","longitude_centre":"0.3232","distance_km":3.14},{"id":27193,"code_insee":"61150","nom_standard":"Échauffour","nom_a":null,"nom_de":null,"slug_ville":"echauffour","departement_id":0,"code_postal":"61370","population":717,"superficie_km2":"3321.28","latitude_centre":"48.7352","longitude_centre":"0.3949","distance_km":3.46},{"id":27236,"code_insee":"61225","nom_standard":"Lignères","nom_a":null,"nom_de":null,"slug_ville":"ligneres","departement_id":0,"code_postal":"61240","population":32,"superficie_km2":"540.13","latitude_centre":"48.7395","longitude_centre":"0.3031","distance_km":3.73},{"id":27177,"code_insee":"61122","nom_standard":"Coulmer","nom_a":null,"nom_de":null,"slug_ville":"coulmer","departement_id":0,"code_postal":"61230","population":81,"superficie_km2":"670.44","latitude_centre":"48.7664","longitude_centre":"0.3024","distance_km":4.16},{"id":27266,"code_insee":"61272","nom_standard":"Le Ménil-Vicomte","nom_a":null,"nom_de":null,"slug_ville":"le-menil-vicomte","departement_id":0,"code_postal":"61240","population":29,"superficie_km2":"383.47","latitude_centre":"48.7445","longitude_centre":"0.2958","distance_km":4.16},{"id":0,"code_insee":"61181","nom_standard":"Gacé","nom_a":null,"nom_de":null,"slug_ville":"gace","departement_id":0,"code_postal":"61230","population":1766,"superficie_km2":"649.12","latitude_centre":"48.7895","longitude_centre":"0.3118","distance_km":5.45},{"id":0,"code_insee":"61493","nom_standard":"La Trinité-des-Laitiers","nom_a":null,"nom_de":null,"slug_ville":"la-trinite-des-laitiers","departement_id":0,"code_postal":"61230","population":67,"superficie_km2":"1128.85","latitude_centre":"48.7959","longitude_centre":"0.3774","distance_km":5.6},{"id":27259,"code_insee":"61264","nom_standard":"Ménil-Froger","nom_a":null,"nom_de":null,"slug_ville":"menil-froger","departement_id":0,"code_postal":"61240","population":63,"superficie_km2":"523.76","latitude_centre":"48.7331","longitude_centre":"0.2673","distance_km":6.45},{"id":27185,"code_insee":"61138","nom_standard":"Croisilles","nom_a":null,"nom_de":null,"slug_ville":"croisilles","departement_id":0,"code_postal":"61230","population":184,"superficie_km2":"1140.69","latitude_centre":"48.7609","longitude_centre":"0.2663","distance_km":6.45},{"id":0,"code_insee":"61488","nom_standard":"Touquettes","nom_a":null,"nom_de":null,"slug_ville":"touquettes","departement_id":0,"code_postal":"61550","population":75,"superficie_km2":"979.98","latitude_centre":"48.7938","longitude_centre":"0.4186","distance_km":7.01},{"id":0,"code_insee":"61330","nom_standard":"Planches","nom_a":null,"nom_de":null,"slug_ville":"planches","departement_id":0,"code_postal":"61370","population":180,"superficie_km2":"1255.77","latitude_centre":"48.687","longitude_centre":"0.376","distance_km":7.05},{"id":0,"code_insee":"61347","nom_standard":"Résenlieu","nom_a":null,"nom_de":null,"slug_ville":"resenlieu","departement_id":0,"code_postal":"61230","population":171,"superficie_km2":"507.85","latitude_centre":"48.7907","longitude_centre":"0.276","distance_km":7.3},{"id":0,"code_insee":"61385","nom_standard":"Saint-Evroult-de-Montfort","nom_a":null,"nom_de":null,"slug_ville":"saint-evroult-de-montfort","departement_id":0,"code_postal":"61230","population":370,"superficie_km2":"2249.13","latitude_centre":"48.8139","longitude_centre":"0.3134","distance_km":7.82},{"id":0,"code_insee":"61386","nom_standard":"Saint-Evroult-Notre-Dame-du-Bois","nom_a":null,"nom_de":null,"slug_ville":"saint-evroult-notre-dame-du-bois","departement_id":0,"code_postal":"61550","population":440,"superficie_km2":"3446.98","latitude_centre":"48.7829","longitude_centre":"0.4457","distance_km":7.85},{"id":0,"code_insee":"61389","nom_standard":"Sainte-Gauburge-Sainte-Colombe","nom_a":null,"nom_de":null,"slug_ville":"sainte-gauburge-sainte-colombe","departement_id":0,"code_postal":"61370","population":1006,"superficie_km2":"2121.37","latitude_centre":"48.7082","longitude_centre":"0.4443","distance_km":8.1},{"id":0,"code_insee":"61461","nom_standard":"Le Sap-André","nom_a":null,"nom_de":null,"slug_ville":"le-sap-andre","departement_id":0,"code_postal":"61230","population":125,"superficie_km2":"949.93","latitude_centre":"48.8309","longitude_centre":"0.3893","distance_km":9.57},{"id":27135,"code_insee":"61064","nom_standard":"Brullemail","nom_a":null,"nom_de":null,"slug_ville":"brullemail","departement_id":0,"code_postal":"61390","population":90,"superficie_km2":"1045.20","latitude_centre":"48.6582","longitude_centre":"0.3238","distance_km":10.24},{"id":27203,"code_insee":"61166","nom_standard":"Ferrières-la-Verrerie","nom_a":null,"nom_de":null,"slug_ville":"ferrieres-la-verrerie","departement_id":0,"code_postal":"61390","population":161,"superficie_km2":"1462.58","latitude_centre":"48.6534","longitude_centre":"0.3819","distance_km":10.79},{"id":27166,"code_insee":"61103","nom_standard":"Chaumont","nom_a":null,"nom_de":null,"slug_ville":"chaumont","departement_id":0,"code_postal":"61230","population":165,"superficie_km2":"1954.84","latitude_centre":"48.8472","longitude_centre":"0.3341","distance_km":11.07}]}