{"ville":{"id":251,"code_insee":"02575","nom_standard":"Origny-Sainte-Benoite","nom_a":null,"nom_de":null,"slug_ville":"origny-sainte-benoite","departement_id":602,"code_postal":"02390","population":1638,"superficie_km2":"23.00","latitude_centre":"49.8269997","longitude_centre":"3.5290000","dep_code":"02","dep_nom":"Aisne","dep_slug":"aisne","reg_code":"09","reg_nom":"Hauts-de-France","reg_slug":"hauts-de-france"},"departement":{"code":"02","nom":"Aisne","slug":"aisne"},"region":{"code":"09","nom":"Hauts-de-France","slug":"hauts-de-france"},"villes_proches":[{"id":254,"code_insee":"02648","nom_standard":"Ribemont","nom_a":null,"nom_de":null,"slug_ville":"ribemont","departement_id":602,"code_postal":"02240","population":1904,"superficie_km2":"27.00","latitude_centre":"49.7879982","longitude_centre":"3.4700000","distance_km":6.06},{"id":229,"code_insee":"02361","nom_standard":"Guise","nom_a":null,"nom_de":null,"slug_ville":"guise","departement_id":602,"code_postal":"02120","population":4533,"superficie_km2":"16.00","latitude_centre":"49.8959999","longitude_centre":"3.6250000","distance_km":10.31},{"id":233,"code_insee":"02383","nom_standard":"Homblières","nom_a":null,"nom_de":null,"slug_ville":"homblieres","departement_id":602,"code_postal":"02720","population":1433,"superficie_km2":"15.00","latitude_centre":"49.8580017","longitude_centre":"3.3750000","distance_km":11.57},{"id":230,"code_insee":"02371","nom_standard":"Harly","nom_a":null,"nom_de":null,"slug_ville":"harly","departement_id":602,"code_postal":"02100","population":1557,"superficie_km2":"4.00","latitude_centre":"49.8409996","longitude_centre":"3.3350000","distance_km":14},{"id":259,"code_insee":"02703","nom_standard":"Seboncourt","nom_a":null,"nom_de":null,"slug_ville":"seboncourt","departement_id":602,"code_postal":"02110","population":1084,"superficie_km2":"12.00","latitude_centre":"49.9630013","longitude_centre":"3.4940000","distance_km":15.33},{"id":209,"code_insee":"02237","nom_standard":"Crécy-sur-Serre","nom_a":null,"nom_de":null,"slug_ville":"crecy-sur-serre","departement_id":602,"code_postal":"02270","population":1503,"superficie_km2":"18.00","latitude_centre":"49.6990013","longitude_centre":"3.6229999","distance_km":15.75},{"id":225,"code_insee":"02334","nom_standard":"Fresnoy-le-Grand","nom_a":null,"nom_de":null,"slug_ville":"fresnoy-le-grand","departement_id":602,"code_postal":"02230","population":2934,"superficie_km2":"15.00","latitude_centre":"49.9539986","longitude_centre":"3.4189999","distance_km":16.17},{"id":226,"code_insee":"02340","nom_standard":"Gauchy","nom_a":null,"nom_de":null,"slug_ville":"gauchy","departement_id":602,"code_postal":"02430","population":5204,"superficie_km2":"6.00","latitude_centre":"49.8240013","longitude_centre":"3.2860000","distance_km":17.43},{"id":258,"code_insee":"02691","nom_standard":"Saint-Quentin","nom_a":null,"nom_de":null,"slug_ville":"saint-quentin","departement_id":602,"code_postal":"02100","population":52958,"superficie_km2":"23.00","latitude_centre":"49.8470001","longitude_centre":"3.2780001","distance_km":18.14},{"id":227,"code_insee":"02359","nom_standard":"Grugies","nom_a":null,"nom_de":null,"slug_ville":"grugies","departement_id":602,"code_postal":"02680","population":1259,"superficie_km2":"5.00","latitude_centre":"49.8100014","longitude_centre":"3.2750001","distance_km":18.32},{"id":193,"code_insee":"02095","nom_standard":"Bohain-en-Vermandois","nom_a":null,"nom_de":null,"slug_ville":"bohain-en-vermandois","departement_id":602,"code_postal":"02110","population":5721,"superficie_km2":"32.00","latitude_centre":"49.9889984","longitude_centre":"3.4649999","distance_km":18.59},{"id":238,"code_insee":"02468","nom_standard":"Marle","nom_a":null,"nom_de":null,"slug_ville":"marle","departement_id":602,"code_postal":"02250","population":2221,"superficie_km2":"14.00","latitude_centre":"49.7449989","longitude_centre":"3.7650001","distance_km":19.24},{"id":214,"code_insee":"02287","nom_standard":"Essigny-le-Grand","nom_a":null,"nom_de":null,"slug_ville":"essigny-le-grand","departement_id":602,"code_postal":"02690","population":1054,"superficie_km2":"13.00","latitude_centre":"49.7739983","longitude_centre":"3.2720001","distance_km":19.36},{"id":219,"code_insee":"02304","nom_standard":"La Fère","nom_a":null,"nom_de":null,"slug_ville":"la-fere","departement_id":602,"code_postal":"02800","population":2850,"superficie_km2":"7.00","latitude_centre":"49.6660004","longitude_centre":"3.3690000","distance_km":21.28},{"id":218,"code_insee":"02298","nom_standard":"Étreux","nom_a":null,"nom_de":null,"slug_ville":"etreux","departement_id":602,"code_postal":"02510","population":1457,"superficie_km2":"10.00","latitude_centre":"50.0000000","longitude_centre":"3.6589999","distance_km":21.37},{"id":242,"code_insee":"02504","nom_standard":"Montescourt-Lizerolles","nom_a":null,"nom_de":null,"slug_ville":"montescourt-lizerolles","departement_id":602,"code_postal":"02440","population":1614,"superficie_km2":"6.00","latitude_centre":"49.7360001","longitude_centre":"3.2620001","distance_km":21.68},{"id":202,"code_insee":"02165","nom_standard":"Charmes","nom_a":null,"nom_de":null,"slug_ville":"charmes","departement_id":602,"code_postal":"02800","population":1624,"superficie_km2":"4.00","latitude_centre":"49.6510010","longitude_centre":"3.3850000","distance_km":22.14},{"id":188,"code_insee":"02057","nom_standard":"Beaurevoir","nom_a":null,"nom_de":null,"slug_ville":"beaurevoir","departement_id":602,"code_postal":"02110","population":1368,"superficie_km2":"22.00","latitude_centre":"49.9970017","longitude_centre":"3.3299999","distance_km":23.67},{"id":187,"code_insee":"02037","nom_standard":"Aulnois-sous-Laon","nom_a":null,"nom_de":null,"slug_ville":"aulnois-sous-laon","departement_id":602,"code_postal":"02000","population":1369,"superficie_km2":"10.00","latitude_centre":"49.6199989","longitude_centre":"3.6099999","distance_km":23.74},{"id":232,"code_insee":"02382","nom_standard":"Holnon","nom_a":null,"nom_de":null,"slug_ville":"holnon","departement_id":602,"code_postal":"02760","population":1356,"superficie_km2":"6.00","latitude_centre":"49.8610001","longitude_centre":"3.2010000","distance_km":23.82}]}