{"ville":{"id":18377,"code_insee":"2B194","nom_standard":"Ortale","nom_a":null,"nom_de":null,"slug_ville":"ortale","departement_id":0,"code_postal":"20234","population":25,"superficie_km2":"416.53","latitude_centre":"42.3105","longitude_centre":"9.4365","dep_code":"2B","dep_nom":"Haute-Corse","dep_slug":"haute-corse","reg_code":"94","reg_nom":"Corse","reg_slug":"corse"},"departement":{"code":"2B","nom":"Haute-Corse","slug":"haute-corse"},"region":{"code":"94","nom":"Corse","slug":"corse"},"villes_proches":[{"id":0,"code_insee":"2B334","nom_standard":"Valle-d'Alesani","nom_a":null,"nom_de":null,"slug_ville":"valle-d-alesani","departement_id":0,"code_postal":"20234","population":124,"superficie_km2":"961.99","latitude_centre":"42.3269","longitude_centre":"9.4318","distance_km":1.86},{"id":18367,"code_insee":"2B179","nom_standard":"Novale","nom_a":null,"nom_de":null,"slug_ville":"novale","departement_id":0,"code_postal":"20234","population":57,"superficie_km2":"493.32","latitude_centre":"42.3034","longitude_centre":"9.411","distance_km":2.24},{"id":0,"code_insee":"2B225","nom_standard":"Pietra-di-Verde","nom_a":null,"nom_de":null,"slug_ville":"pietra-di-verde","departement_id":0,"code_postal":"20230","population":102,"superficie_km2":"872.58","latitude_centre":"42.2898","longitude_centre":"9.4443","distance_km":2.39},{"id":0,"code_insee":"2B216","nom_standard":"Piazzali","nom_a":null,"nom_de":null,"slug_ville":"piazzali","departement_id":0,"code_postal":"20234","population":19,"superficie_km2":"82.86","latitude_centre":"42.3196","longitude_centre":"9.4046","distance_km":2.81},{"id":0,"code_insee":"2B293","nom_standard":"Sant'Andréa-di-Cotone","nom_a":null,"nom_de":null,"slug_ville":"sant-andrea-di-cotone","departement_id":0,"code_postal":"20221","population":193,"superficie_km2":"879.27","latitude_centre":"42.3187","longitude_centre":"9.4768","distance_km":3.44},{"id":18352,"code_insee":"2B161","nom_standard":"Moïta","nom_a":null,"nom_de":null,"slug_ville":"moita","departement_id":0,"code_postal":"20270","population":59,"superficie_km2":"570.07","latitude_centre":"42.2802","longitude_centre":"9.4136","distance_km":3.86},{"id":0,"code_insee":"2B208","nom_standard":"Perelli","nom_a":null,"nom_de":null,"slug_ville":"perelli","departement_id":0,"code_postal":"20234","population":109,"superficie_km2":"620.14","latitude_centre":"42.3145","longitude_centre":"9.3876","distance_km":4.05},{"id":18329,"code_insee":"2B111","nom_standard":"Felce","nom_a":null,"nom_de":null,"slug_ville":"felce","departement_id":0,"code_postal":"20234","population":54,"superficie_km2":"470.81","latitude_centre":"42.3467","longitude_centre":"9.4278","distance_km":4.09},{"id":0,"code_insee":"2B321","nom_standard":"Tarrano","nom_a":null,"nom_de":null,"slug_ville":"tarrano","departement_id":0,"code_postal":"20234","population":16,"superficie_km2":"388.78","latitude_centre":"42.3438","longitude_centre":"9.4006","distance_km":4.74},{"id":0,"code_insee":"2B317","nom_standard":"Santa-Reparata-di-Moriani","nom_a":null,"nom_de":null,"slug_ville":"santa-reparata-di-moriani","departement_id":0,"code_postal":"20230","population":52,"superficie_km2":"900.12","latitude_centre":"42.3515","longitude_centre":"9.4553","distance_km":4.81},{"id":18295,"code_insee":"2B053","nom_standard":"Campi","nom_a":null,"nom_de":null,"slug_ville":"campi","departement_id":0,"code_postal":"20270","population":19,"superficie_km2":"486.42","latitude_centre":"42.268","longitude_centre":"9.424","distance_km":4.84},{"id":18318,"code_insee":"2B088","nom_standard":"Chiatra","nom_a":null,"nom_de":null,"slug_ville":"chiatra","departement_id":0,"code_postal":"20230","population":231,"superficie_km2":"827.47","latitude_centre":"42.2854","longitude_centre":"9.4867","distance_km":4.98},{"id":18348,"code_insee":"2B155","nom_standard":"Matra","nom_a":null,"nom_de":null,"slug_ville":"matra","departement_id":0,"code_postal":"20270","population":54,"superficie_km2":"651.09","latitude_centre":"42.2823","longitude_centre":"9.3866","distance_km":5.16},{"id":0,"code_insee":"2B227","nom_standard":"Pietricaggio","nom_a":null,"nom_de":null,"slug_ville":"pietricaggio","departement_id":0,"code_postal":"20234","population":32,"superficie_km2":"532.08","latitude_centre":"42.3283","longitude_centre":"9.378","distance_km":5.2},{"id":0,"code_insee":"2B202","nom_standard":"Parata","nom_a":null,"nom_de":null,"slug_ville":"parata","departement_id":0,"code_postal":"20229","population":22,"superficie_km2":"279.49","latitude_centre":"42.3658","longitude_centre":"9.4174","distance_km":6.35},{"id":0,"code_insee":"2B338","nom_standard":"Valle-d'Orezza","nom_a":null,"nom_de":null,"slug_ville":"valle-d-orezza","departement_id":0,"code_postal":"20229","population":25,"superficie_km2":"403.54","latitude_centre":"42.3636","longitude_centre":"9.4058","distance_km":6.42},{"id":0,"code_insee":"2B234","nom_standard":"Piobetta","nom_a":null,"nom_de":null,"slug_ville":"piobetta","departement_id":0,"code_postal":"20234","population":20,"superficie_km2":"504.67","latitude_centre":"42.3409","longitude_centre":"9.3693","distance_km":6.48},{"id":18302,"code_insee":"2B067","nom_standard":"Carpineto","nom_a":null,"nom_de":null,"slug_ville":"carpineto","departement_id":0,"code_postal":"20229","population":38,"superficie_km2":"243.47","latitude_centre":"42.3561","longitude_centre":"9.3793","distance_km":6.91},{"id":0,"code_insee":"2B302","nom_standard":"San-Giovanni-di-Moriani","nom_a":null,"nom_de":null,"slug_ville":"san-giovanni-di-moriani","departement_id":0,"code_postal":"20230","population":102,"superficie_km2":"1009.19","latitude_centre":"42.3714","longitude_centre":"9.4607","distance_km":7.06},{"id":0,"code_insee":"2B328","nom_standard":"Tox","nom_a":null,"nom_de":null,"slug_ville":"tox","departement_id":0,"code_postal":"20270","population":96,"superficie_km2":"1457.18","latitude_centre":"42.2454","longitude_centre":"9.4436","distance_km":7.26}]}