{"ville":{"id":4359,"code_insee":"44114","nom_standard":"Orvault","nom_a":null,"nom_de":null,"slug_ville":"orvault","departement_id":645,"code_postal":"44700","population":27872,"superficie_km2":"28.00","latitude_centre":"47.2739983","longitude_centre":"-1.6230000","dep_code":"44","dep_nom":"Loire-Atlantique","dep_slug":"loire-atlantique","reg_code":"17","reg_nom":"Pays de la Loire","reg_slug":"pays-de-la-loire"},"departement":{"code":"44","nom":"Loire-Atlantique","slug":"loire-atlantique"},"region":{"code":"17","nom":"Pays de la Loire","slug":"pays-de-la-loire"},"villes_proches":[{"id":4429,"code_insee":"44194","nom_standard":"Sautron","nom_a":null,"nom_de":null,"slug_ville":"sautron","departement_id":645,"code_postal":"44880","population":8512,"superficie_km2":"18.00","latitude_centre":"47.2729988","longitude_centre":"-1.6799999","distance_km":4.3},{"id":4442,"code_insee":"44209","nom_standard":"Treillières","nom_a":null,"nom_de":null,"slug_ville":"treillieres","departement_id":645,"code_postal":"44119","population":10230,"superficie_km2":"29.00","latitude_centre":"47.3180008","longitude_centre":"-1.6260000","distance_km":4.9},{"id":4402,"code_insee":"44162","nom_standard":"Saint-Herblain","nom_a":null,"nom_de":null,"slug_ville":"saint-herblain","departement_id":645,"code_postal":"44800","population":49537,"superficie_km2":"30.00","latitude_centre":"47.2239990","longitude_centre":"-1.6339999","distance_km":5.62},{"id":4294,"code_insee":"44035","nom_standard":"La Chapelle-sur-Erdre","nom_a":null,"nom_de":null,"slug_ville":"la-chapelle-sur-erdre","departement_id":645,"code_postal":"44240","population":20331,"superficie_km2":"33.00","latitude_centre":"47.3040009","longitude_centre":"-1.5610000","distance_km":5.74},{"id":4355,"code_insee":"44109","nom_standard":"Nantes","nom_a":null,"nom_de":null,"slug_ville":"nantes","departement_id":645,"code_postal":"44200","population":323204,"superficie_km2":"66.00","latitude_centre":"47.2319984","longitude_centre":"-1.5480000","distance_km":7.34},{"id":4450,"code_insee":"44217","nom_standard":"Vigneux-de-Bretagne","nom_a":null,"nom_de":null,"slug_ville":"vigneux-de-bretagne","departement_id":645,"code_postal":"44360","population":6480,"superficie_km2":"53.00","latitude_centre":"47.3199997","longitude_centre":"-1.7200000","distance_km":8.93},{"id":4327,"code_insee":"44074","nom_standard":"Indre","nom_a":null,"nom_de":null,"slug_ville":"indre","departement_id":645,"code_postal":"44610","population":4130,"superficie_km2":"5.00","latitude_centre":"47.1980019","longitude_centre":"-1.6720001","distance_km":9.22},{"id":4304,"code_insee":"44047","nom_standard":"Couëron","nom_a":null,"nom_de":null,"slug_ville":"coueron","departement_id":645,"code_postal":"44220","population":23057,"superficie_km2":"49.00","latitude_centre":"47.2309990","longitude_centre":"-1.7290000","distance_km":9.32},{"id":4319,"code_insee":"44066","nom_standard":"Grandchamp-des-Fontaines","nom_a":null,"nom_de":null,"slug_ville":"grandchamp-des-fontaines","departement_id":645,"code_postal":"44119","population":6759,"superficie_km2":"34.00","latitude_centre":"47.3610001","longitude_centre":"-1.6180000","distance_km":9.68},{"id":4349,"code_insee":"44101","nom_standard":"La Montagne","nom_a":null,"nom_de":null,"slug_ville":"la-montagne","departement_id":645,"code_postal":"44620","population":6488,"superficie_km2":"4.00","latitude_centre":"47.1850014","longitude_centre":"-1.6849999","distance_km":10.95},{"id":4281,"code_insee":"44020","nom_standard":"Bouguenais","nom_a":null,"nom_de":null,"slug_ville":"bouguenais","departement_id":645,"code_postal":"44340","population":20410,"superficie_km2":"31.00","latitude_centre":"47.1710014","longitude_centre":"-1.6170000","distance_km":11.46},{"id":4406,"code_insee":"44166","nom_standard":"Saint-Jean-de-Boiseau","nom_a":null,"nom_de":null,"slug_ville":"saint-jean-de-boiseau","departement_id":645,"code_postal":"44640","population":5982,"superficie_km2":"12.00","latitude_centre":"47.1940002","longitude_centre":"-1.7200000","distance_km":11.52},{"id":4410,"code_insee":"44172","nom_standard":"Sainte-Luce-sur-Loire","nom_a":null,"nom_de":null,"slug_ville":"sainte-luce-sur-loire","departement_id":645,"code_postal":"44980","population":15527,"superficie_km2":"11.00","latitude_centre":"47.2540016","longitude_centre":"-1.4730001","distance_km":11.54},{"id":4287,"code_insee":"44026","nom_standard":"Carquefou","nom_a":null,"nom_de":null,"slug_ville":"carquefou","departement_id":645,"code_postal":"44470","population":20510,"superficie_km2":"43.00","latitude_centre":"47.3019981","longitude_centre":"-1.4730001","distance_km":11.73},{"id":4435,"code_insee":"44201","nom_standard":"Sucé-sur-Erdre","nom_a":null,"nom_de":null,"slug_ville":"suce-sur-erdre","departement_id":645,"code_postal":"44240","population":7366,"superficie_km2":"41.00","latitude_centre":"47.3540001","longitude_centre":"-1.5200000","distance_km":11.81},{"id":4399,"code_insee":"44158","nom_standard":"Saint-Étienne-de-Montluc","nom_a":null,"nom_de":null,"slug_ville":"saint-etienne-de-montluc","departement_id":645,"code_postal":"44360","population":7658,"superficie_km2":"57.00","latitude_centre":"47.2649994","longitude_centre":"-1.7840000","distance_km":12.19},{"id":4386,"code_insee":"44143","nom_standard":"Rezé","nom_a":null,"nom_de":null,"slug_ville":"reze","departement_id":645,"code_postal":"44400","population":42998,"superficie_km2":"16.00","latitude_centre":"47.1759987","longitude_centre":"-1.5500000","distance_km":12.21},{"id":4426,"code_insee":"44190","nom_standard":"Saint-Sébastien-sur-Loire","nom_a":null,"nom_de":null,"slug_ville":"saint-sebastien-sur-loire","departement_id":645,"code_postal":"44230","population":28283,"superficie_km2":"12.00","latitude_centre":"47.2029991","longitude_centre":"-1.4990000","distance_km":12.25},{"id":4357,"code_insee":"44111","nom_standard":"Notre-Dame-des-Landes","nom_a":null,"nom_de":null,"slug_ville":"notre-dame-des-landes","departement_id":645,"code_postal":"44130","population":2310,"superficie_km2":"38.00","latitude_centre":"47.3750000","longitude_centre":"-1.7160000","distance_km":13.24},{"id":4285,"code_insee":"44024","nom_standard":"Brains","nom_a":null,"nom_de":null,"slug_ville":"brains","departement_id":645,"code_postal":"44830","population":2811,"superficie_km2":"15.00","latitude_centre":"47.1699982","longitude_centre":"-1.7260000","distance_km":13.94}]}