{"ville":{"id":34887,"code_insee":"89283","nom_standard":"Ouanne","nom_a":null,"nom_de":null,"slug_ville":"ouanne","departement_id":0,"code_postal":"89560","population":578,"superficie_km2":"3873.78","latitude_centre":"47.6592","longitude_centre":"3.4163","dep_code":"89","dep_nom":"Yonne","dep_slug":"yonne","reg_code":"27","reg_nom":"Bourgogne-Franche-Comté","reg_slug":"bourgogne-franche-comte"},"departement":{"code":"89","nom":"Yonne","slug":"yonne"},"region":{"code":"27","nom":"Bourgogne-Franche-Comté","slug":"bourgogne-franche-comte"},"villes_proches":[{"id":34840,"code_insee":"89221","nom_standard":"Leugny","nom_a":null,"nom_de":null,"slug_ville":"leugny","departement_id":0,"code_postal":"89130","population":315,"superficie_km2":"1344.84","latitude_centre":"47.6854","longitude_centre":"3.3762","distance_km":4.18},{"id":34760,"code_insee":"89117","nom_standard":"Coulangeron","nom_a":null,"nom_de":null,"slug_ville":"coulangeron","departement_id":0,"code_postal":"89580","population":212,"superficie_km2":"855.79","latitude_centre":"47.6818","longitude_centre":"3.47","distance_km":4.74},{"id":34864,"code_insee":"89252","nom_standard":"Merry-Sec","nom_a":null,"nom_de":null,"slug_ville":"merry-sec","departement_id":0,"code_postal":"89560","population":172,"superficie_km2":"1420.23","latitude_centre":"47.6635","longitude_centre":"3.4834","distance_km":5.05},{"id":0,"code_insee":"89405","nom_standard":"Les Hauts de Forterre","nom_a":null,"nom_de":null,"slug_ville":"les-hauts-de-forterre","departement_id":0,"code_postal":"89560","population":462,"superficie_km2":"3311.98","latitude_centre":"47.6146","longitude_centre":"3.4304","distance_km":5.07},{"id":0,"code_insee":"89383","nom_standard":"Sementron","nom_a":null,"nom_de":null,"slug_ville":"sementron","departement_id":0,"code_postal":"89560","population":107,"superficie_km2":"1176.69","latitude_centre":"47.6232","longitude_centre":"3.3598","distance_km":5.83},{"id":34841,"code_insee":"89222","nom_standard":"Levis","nom_a":null,"nom_de":null,"slug_ville":"levis","departement_id":0,"code_postal":"89520","population":223,"superficie_km2":"1210.33","latitude_centre":"47.6577","longitude_centre":"3.3307","distance_km":6.41},{"id":0,"code_insee":"89139","nom_standard":"Diges","nom_a":null,"nom_de":null,"slug_ville":"diges","departement_id":0,"code_postal":"89240","population":1052,"superficie_km2":"3599.68","latitude_centre":"47.7193","longitude_centre":"3.3886","distance_km":7.0},{"id":34878,"code_insee":"89272","nom_standard":"Moulins-sur-Ouanne","nom_a":null,"nom_de":null,"slug_ville":"moulins-sur-ouanne","departement_id":0,"code_postal":"89130","population":272,"superficie_km2":"1014.53","latitude_centre":"47.703","longitude_centre":"3.3459","distance_km":7.18},{"id":34876,"code_insee":"89270","nom_standard":"Mouffy","nom_a":null,"nom_de":null,"slug_ville":"mouffy","departement_id":0,"code_postal":"89560","population":137,"superficie_km2":"492.16","latitude_centre":"47.6483","longitude_centre":"3.5134","distance_km":7.37},{"id":34835,"code_insee":"89215","nom_standard":"Lain","nom_a":null,"nom_de":null,"slug_ville":"lain","departement_id":0,"code_postal":"89560","population":172,"superficie_km2":"1033.27","latitude_centre":"47.6128","longitude_centre":"3.3432","distance_km":7.52},{"id":34789,"code_insee":"89154","nom_standard":"Escamps","nom_a":null,"nom_de":null,"slug_ville":"escamps","departement_id":0,"code_postal":"89240","population":836,"superficie_km2":"2227.47","latitude_centre":"47.7219","longitude_centre":"3.4736","distance_km":8.19},{"id":34837,"code_insee":"89217","nom_standard":"Lalande","nom_a":null,"nom_de":null,"slug_ville":"lalande","departement_id":0,"code_postal":"89130","population":123,"superficie_km2":"1026.82","latitude_centre":"47.6807","longitude_centre":"3.3088","distance_km":8.4},{"id":34867,"code_insee":"89256","nom_standard":"Migé","nom_a":null,"nom_de":null,"slug_ville":"mige","departement_id":0,"code_postal":"89580","population":384,"superficie_km2":"1478.19","latitude_centre":"47.6772","longitude_centre":"3.5325","distance_km":8.93},{"id":34766,"code_insee":"89125","nom_standard":"Courson-les-Carrières","nom_a":null,"nom_de":null,"slug_ville":"courson-les-carrieres","departement_id":0,"code_postal":"89560","population":900,"superficie_km2":"3459.63","latitude_centre":"47.5992","longitude_centre":"3.5002","distance_km":9.17},{"id":34809,"code_insee":"89179","nom_standard":"Fontenoy","nom_a":null,"nom_de":null,"slug_ville":"fontenoy","departement_id":0,"code_postal":"89520","population":305,"superficie_km2":"1589.44","latitude_centre":"47.6498","longitude_centre":"3.2941","distance_km":9.21},{"id":34823,"code_insee":"89199","nom_standard":"Gy-l'Évêque","nom_a":null,"nom_de":null,"slug_ville":"gy-l-eveque","departement_id":0,"code_postal":"89580","population":442,"superficie_km2":"1513.03","latitude_centre":"47.7108","longitude_centre":"3.5289","distance_km":10.2},{"id":0,"code_insee":"89102","nom_standard":"Chevannes","nom_a":null,"nom_de":null,"slug_ville":"chevannes","departement_id":0,"code_postal":"89240","population":2137,"superficie_km2":"2420.02","latitude_centre":"47.7487","longitude_centre":"3.4893","distance_km":11.35},{"id":0,"code_insee":"89400","nom_standard":"Sougères-en-Puisaye","nom_a":null,"nom_de":null,"slug_ville":"sougeres-en-puisaye","departement_id":0,"code_postal":"89520","population":289,"superficie_km2":"2682.05","latitude_centre":"47.567","longitude_centre":"3.3481","distance_km":11.46},{"id":34784,"code_insee":"89148","nom_standard":"Druyes-les-Belles-Fontaines","nom_a":null,"nom_de":null,"slug_ville":"druyes-les-belles-fontaines","departement_id":0,"code_postal":"89560","population":265,"superficie_km2":"3969.90","latitude_centre":"47.5538","longitude_centre":"3.4147","distance_km":11.72},{"id":0,"code_insee":"89311","nom_standard":"Pourrain","nom_a":null,"nom_de":null,"slug_ville":"pourrain","departement_id":0,"code_postal":"89240","population":1270,"superficie_km2":"2391.25","latitude_centre":"47.7689","longitude_centre":"3.4162","distance_km":12.2}]}