{"ville":{"id":16942,"code_insee":"25440","nom_standard":"Ouhans","nom_a":null,"nom_de":null,"slug_ville":"ouhans","departement_id":0,"code_postal":"25520","population":398,"superficie_km2":"1587.05","latitude_centre":"47.0027","longitude_centre":"6.3134","dep_code":"25","dep_nom":"Doubs","dep_slug":"doubs","reg_code":"27","reg_nom":"Bourgogne-Franche-Comté","reg_slug":"bourgogne-franche-comte"},"departement":{"code":"25","nom":"Doubs","slug":"doubs"},"region":{"code":"27","nom":"Bourgogne-Franche-Comté","slug":"bourgogne-franche-comte"},"villes_proches":[{"id":0,"code_insee":"25517","nom_standard":"Saint-Gorgon-Main","nom_a":null,"nom_de":null,"slug_ville":"saint-gorgon-main","departement_id":0,"code_postal":"25520","population":250,"superficie_km2":"796.42","latitude_centre":"47.0181","longitude_centre":"6.3383","distance_km":2.55},{"id":0,"code_insee":"25487","nom_standard":"Renédale","nom_a":null,"nom_de":null,"slug_ville":"renedale","departement_id":0,"code_postal":"25520","population":41,"superficie_km2":"281.22","latitude_centre":"47.0174","longitude_centre":"6.2756","distance_km":3.3},{"id":16700,"code_insee":"25099","nom_standard":"Bugny","nom_a":null,"nom_de":null,"slug_ville":"bugny","departement_id":0,"code_postal":"25520","population":257,"superficie_km2":"477.92","latitude_centre":"46.9972","longitude_centre":"6.3617","distance_km":3.71},{"id":16924,"code_insee":"25415","nom_standard":"Mouthier-Haute-Pierre","nom_a":null,"nom_de":null,"slug_ville":"mouthier-haute-pierre","departement_id":0,"code_postal":"25920","population":363,"superficie_km2":"1222.73","latitude_centre":"47.0378","longitude_centre":"6.2812","distance_km":4.6},{"id":16650,"code_insee":"25029","nom_standard":"Aubonne","nom_a":null,"nom_de":null,"slug_ville":"aubonne","departement_id":0,"code_postal":"25520","population":266,"superficie_km2":"1526.54","latitude_centre":"47.0417","longitude_centre":"6.3446","distance_km":4.94},{"id":16670,"code_insee":"25060","nom_standard":"Val-d'Usiers","nom_a":null,"nom_de":null,"slug_ville":"val-d-usiers","departement_id":0,"code_postal":"25520","population":2132,"superficie_km2":"5118.59","latitude_centre":"46.966","longitude_centre":"6.27","distance_km":5.24},{"id":0,"code_insee":"25634","nom_standard":"Vuillecin","nom_a":null,"nom_de":null,"slug_ville":"vuillecin","departement_id":0,"code_postal":"25300","population":687,"superficie_km2":"1424.31","latitude_centre":"46.9524","longitude_centre":"6.3329","distance_km":5.79},{"id":16647,"code_insee":"25024","nom_standard":"Arçon","nom_a":null,"nom_de":null,"slug_ville":"arcon","departement_id":0,"code_postal":"25300","population":961,"superficie_km2":"2150.19","latitude_centre":"46.9702","longitude_centre":"6.3843","distance_km":6.48},{"id":16874,"code_insee":"25339","nom_standard":"Lods","nom_a":null,"nom_de":null,"slug_ville":"lods","departement_id":0,"code_postal":"25930","population":253,"superficie_km2":"633.28","latitude_centre":"47.0499","longitude_centre":"6.2591","distance_km":6.67},{"id":16795,"code_insee":"25229","nom_standard":"Évillers","nom_a":null,"nom_de":null,"slug_ville":"evillers","departement_id":0,"code_postal":"25520","population":387,"superficie_km2":"1300.68","latitude_centre":"46.9884","longitude_centre":"6.223","distance_km":7.04},{"id":16881,"code_insee":"25346","nom_standard":"Longeville","nom_a":null,"nom_de":null,"slug_ville":"longeville","departement_id":0,"code_postal":"25330","population":174,"superficie_km2":"936.73","latitude_centre":"47.033","longitude_centre":"6.2309","distance_km":7.1},{"id":16730,"code_insee":"25139","nom_standard":"La Chaux","nom_a":null,"nom_de":null,"slug_ville":"la-chaux","departement_id":0,"code_postal":"25650","population":614,"superficie_km2":"1699.40","latitude_centre":"47.0202","longitude_centre":"6.4093","distance_km":7.53},{"id":16888,"code_insee":"25357","nom_standard":"Maisons-du-Bois-Lièvremont","nom_a":null,"nom_de":null,"slug_ville":"maisons-du-bois-lievremont","departement_id":0,"code_postal":"25650","population":835,"superficie_km2":"1583.87","latitude_centre":"46.9796","longitude_centre":"6.4131","distance_km":7.99},{"id":16773,"code_insee":"25201","nom_standard":"Dommartin","nom_a":null,"nom_de":null,"slug_ville":"dommartin","departement_id":0,"code_postal":"25300","population":864,"superficie_km2":"645.97","latitude_centre":"46.9302","longitude_centre":"6.3112","distance_km":8.06},{"id":0,"code_insee":"25424","nom_standard":"Les Premiers Sapins","nom_a":null,"nom_de":null,"slug_ville":"les-premiers-sapins","departement_id":0,"code_postal":"25580","population":1587,"superficie_km2":"5244.04","latitude_centre":"47.0774","longitude_centre":"6.3426","distance_km":8.6},{"id":0,"code_insee":"25204","nom_standard":"Doubs","nom_a":null,"nom_de":null,"slug_ville":"doubs","departement_id":0,"code_postal":"25300","population":3335,"superficie_km2":"894.56","latitude_centre":"46.9321","longitude_centre":"6.3651","distance_km":8.78},{"id":16648,"code_insee":"25025","nom_standard":"Arc-sous-Cicon","nom_a":null,"nom_de":null,"slug_ville":"arc-sous-cicon","departement_id":0,"code_postal":"25520","population":768,"superficie_km2":"2858.81","latitude_centre":"47.0524","longitude_centre":"6.4038","distance_km":8.8},{"id":16868,"code_insee":"25331","nom_standard":"Lavans-Vuillafans","nom_a":null,"nom_de":null,"slug_ville":"lavans-vuillafans","departement_id":0,"code_postal":"25580","population":232,"superficie_km2":"1004.88","latitude_centre":"47.0774","longitude_centre":"6.2536","distance_km":9.46},{"id":16780,"code_insee":"25211","nom_standard":"Échevannes","nom_a":null,"nom_de":null,"slug_ville":"echevannes","departement_id":0,"code_postal":"25580","population":88,"superficie_km2":"533.32","latitude_centre":"47.0704","longitude_centre":"6.2325","distance_km":9.71},{"id":0,"code_insee":"25309","nom_standard":"Houtaud","nom_a":null,"nom_de":null,"slug_ville":"houtaud","departement_id":0,"code_postal":"25300","population":1216,"superficie_km2":"784.32","latitude_centre":"46.915","longitude_centre":"6.3021","distance_km":9.79}]}