{"ville":{"id":19939,"code_insee":"34190","nom_standard":"Oupia","nom_a":null,"nom_de":null,"slug_ville":"oupia","departement_id":0,"code_postal":"34210","population":274,"superficie_km2":"898.64","latitude_centre":"43.2897","longitude_centre":"2.7791","dep_code":"34","dep_nom":"Hérault","dep_slug":"herault","reg_code":"76","reg_nom":"Occitanie","reg_slug":"occitanie"},"departement":{"code":"34","nom":"Hérault","slug":"herault"},"region":{"code":"76","nom":"Occitanie","slug":"occitanie"},"villes_proches":[{"id":19860,"code_insee":"34026","nom_standard":"Beaufort","nom_a":null,"nom_de":null,"slug_ville":"beaufort","departement_id":0,"code_postal":"34210","population":214,"superficie_km2":"607.42","latitude_centre":"43.3032","longitude_centre":"2.7705","distance_km":1.65},{"id":13120,"code_insee":"11296","nom_standard":"Pouzols-Minervois","nom_a":null,"nom_de":null,"slug_ville":"pouzols-minervois","departement_id":0,"code_postal":"11120","population":599,"superficie_km2":"1017.32","latitude_centre":"43.2858","longitude_centre":"2.8158","distance_km":3.0},{"id":0,"code_insee":"34189","nom_standard":"Olonzac","nom_a":null,"nom_de":null,"slug_ville":"olonzac","departement_id":0,"code_postal":"34210","population":1693,"superficie_km2":"1923.70","latitude_centre":"43.2816","longitude_centre":"2.7431","distance_km":3.05},{"id":19848,"code_insee":"34006","nom_standard":"Aigne","nom_a":null,"nom_de":null,"slug_ville":"aigne","departement_id":0,"code_postal":"34210","population":301,"superficie_km2":"1111.90","latitude_centre":"43.3241","longitude_centre":"2.7922","distance_km":3.97},{"id":13054,"code_insee":"11212","nom_standard":"Mailhac","nom_a":null,"nom_de":null,"slug_ville":"mailhac","departement_id":0,"code_postal":"11120","population":595,"superficie_km2":"1056.59","latitude_centre":"43.3067","longitude_centre":"2.8283","distance_km":4.41},{"id":13143,"code_insee":"11324","nom_standard":"Roubia","nom_a":null,"nom_de":null,"slug_ville":"roubia","departement_id":0,"code_postal":"11200","population":520,"superficie_km2":"756.78","latitude_centre":"43.2507","longitude_centre":"2.7977","distance_km":4.59},{"id":13104,"code_insee":"11273","nom_standard":"Paraza","nom_a":null,"nom_de":null,"slug_ville":"paraza","departement_id":0,"code_postal":"11200","population":700,"superficie_km2":"954.89","latitude_centre":"43.2561","longitude_centre":"2.8133","distance_km":4.65},{"id":19858,"code_insee":"34020","nom_standard":"Azillanet","nom_a":null,"nom_de":null,"slug_ville":"azillanet","departement_id":0,"code_postal":"34210","population":357,"superficie_km2":"1435.85","latitude_centre":"43.3263","longitude_centre":"2.7475","distance_km":4.81},{"id":12892,"code_insee":"11013","nom_standard":"Argens-Minervois","nom_a":null,"nom_de":null,"slug_ville":"argens-minervois","departement_id":0,"code_postal":"11200","population":395,"superficie_km2":"460.98","latitude_centre":"43.2458","longitude_centre":"2.7692","distance_km":4.95},{"id":13022,"code_insee":"11172","nom_standard":"Homps","nom_a":null,"nom_de":null,"slug_ville":"homps","departement_id":0,"code_postal":"11200","population":609,"superficie_km2":"308.92","latitude_centre":"43.2685","longitude_centre":"2.7247","distance_km":5.0},{"id":13179,"code_insee":"11366","nom_standard":"Sainte-Valière","nom_a":null,"nom_de":null,"slug_ville":"sainte-valiere","departement_id":0,"code_postal":"11120","population":534,"superficie_km2":"655.29","latitude_centre":"43.2772","longitude_centre":"2.8446","distance_km":5.48},{"id":13203,"code_insee":"11393","nom_standard":"Tourouzelle","nom_a":null,"nom_de":null,"slug_ville":"tourouzelle","departement_id":0,"code_postal":"11200","population":494,"superficie_km2":"1436.77","latitude_centre":"43.2451","longitude_centre":"2.7241","distance_km":6.67},{"id":13213,"code_insee":"11405","nom_standard":"Ventenac-en-Minervois","nom_a":null,"nom_de":null,"slug_ville":"ventenac-en-minervois","departement_id":0,"code_postal":"11120","population":644,"superficie_km2":"613.90","latitude_centre":"43.2512","longitude_centre":"2.8544","distance_km":7.45},{"id":19849,"code_insee":"34007","nom_standard":"Aigues-Vives","nom_a":null,"nom_de":null,"slug_ville":"aigues-vives","departement_id":0,"code_postal":"34210","population":476,"superficie_km2":"1272.76","latitude_centre":"43.3503","longitude_centre":"2.8231","distance_km":7.62},{"id":19888,"code_insee":"34075","nom_standard":"Cesseras","nom_a":null,"nom_de":null,"slug_ville":"cesseras","departement_id":0,"code_postal":"34210","population":435,"superficie_km2":"1493.75","latitude_centre":"43.3311","longitude_centre":"2.7018","distance_km":7.77},{"id":0,"code_insee":"11067","nom_standard":"Canet","nom_a":null,"nom_de":null,"slug_ville":"canet","departement_id":0,"code_postal":"11200","population":1873,"superficie_km2":"1400.21","latitude_centre":"43.2248","longitude_centre":"2.8291","distance_km":8.27},{"id":19877,"code_insee":"34059","nom_standard":"La Caunette","nom_a":null,"nom_de":null,"slug_ville":"la-caunette","departement_id":0,"code_postal":"34210","population":326,"superficie_km2":"2166.53","latitude_centre":"43.3689","longitude_centre":"2.7895","distance_km":8.85},{"id":19846,"code_insee":"34004","nom_standard":"Agel","nom_a":null,"nom_de":null,"slug_ville":"agel","departement_id":0,"code_postal":"34210","population":240,"superficie_km2":"1216.16","latitude_centre":"43.3498","longitude_centre":"2.8544","distance_km":9.04},{"id":19925,"code_insee":"34158","nom_standard":"Minerve","nom_a":null,"nom_de":null,"slug_ville":"minerve","departement_id":0,"code_postal":"34210","population":98,"superficie_km2":"2765.69","latitude_centre":"43.3624","longitude_centre":"2.7166","distance_km":9.53},{"id":0,"code_insee":"11203","nom_standard":"Lézignan-Corbières","nom_a":null,"nom_de":null,"slug_ville":"lezignan-corbieres","departement_id":0,"code_postal":"11200","population":10343,"superficie_km2":"3817.44","latitude_centre":"43.1983","longitude_centre":"2.7649","distance_km":10.23}]}