{"ville":{"id":34888,"code_insee":"89284","nom_standard":"Pacy-sur-Armançon","nom_a":null,"nom_de":null,"slug_ville":"pacy-sur-armancon","departement_id":0,"code_postal":"89160","population":178,"superficie_km2":"1355.96","latitude_centre":"47.7699","longitude_centre":"4.0815","dep_code":"89","dep_nom":"Yonne","dep_slug":"yonne","reg_code":"27","reg_nom":"Bourgogne-Franche-Comté","reg_slug":"bourgogne-franche-comte"},"departement":{"code":"89","nom":"Yonne","slug":"yonne"},"region":{"code":"27","nom":"Bourgogne-Franche-Comté","slug":"bourgogne-franche-comte"},"villes_proches":[{"id":34688,"code_insee":"89017","nom_standard":"Argenteuil-sur-Armançon","nom_a":null,"nom_de":null,"slug_ville":"argenteuil-sur-armancon","departement_id":0,"code_postal":"89160","population":219,"superficie_km2":"3063.62","latitude_centre":"47.7421","longitude_centre":"4.0928","distance_km":3.2},{"id":0,"code_insee":"89481","nom_standard":"Vireaux","nom_a":null,"nom_de":null,"slug_ville":"vireaux","departement_id":0,"code_postal":"89160","population":97,"superficie_km2":"1470.16","latitude_centre":"47.7867","longitude_centre":"4.0392","distance_km":3.67},{"id":34842,"code_insee":"89223","nom_standard":"Lézinnes","nom_a":null,"nom_de":null,"slug_ville":"lezinnes","departement_id":0,"code_postal":"89160","population":666,"superficie_km2":"1615.64","latitude_centre":"47.8026","longitude_centre":"4.0638","distance_km":3.87},{"id":34877,"code_insee":"89271","nom_standard":"Moulins-en-Tonnerrois","nom_a":null,"nom_de":null,"slug_ville":"moulins-en-tonnerrois","departement_id":0,"code_postal":"89310","population":111,"superficie_km2":"1525.12","latitude_centre":"47.7314","longitude_centre":"4.043","distance_km":5.16},{"id":0,"code_insee":"89374","nom_standard":"Sambourg","nom_a":null,"nom_de":null,"slug_ville":"sambourg","departement_id":0,"code_postal":"89160","population":63,"superficie_km2":"1264.53","latitude_centre":"47.7731","longitude_centre":"4.0111","distance_km":5.27},{"id":34677,"code_insee":"89005","nom_standard":"Ancy-le-Franc","nom_a":null,"nom_de":null,"slug_ville":"ancy-le-franc","departement_id":0,"code_postal":"89160","population":834,"superficie_km2":"1972.77","latitude_centre":"47.7718","longitude_centre":"4.1635","distance_km":6.13},{"id":34687,"code_insee":"89016","nom_standard":"Argentenay","nom_a":null,"nom_de":null,"slug_ville":"argentenay","departement_id":0,"code_postal":"89160","population":82,"superficie_km2":"516.33","latitude_centre":"47.8202","longitude_centre":"4.1159","distance_km":6.16},{"id":34678,"code_insee":"89006","nom_standard":"Ancy-le-Libre","nom_a":null,"nom_de":null,"slug_ville":"ancy-le-libre","departement_id":0,"code_postal":"89160","population":137,"superficie_km2":"2191.35","latitude_centre":"47.8034","longitude_centre":"4.1492","distance_km":6.28},{"id":34813,"code_insee":"89183","nom_standard":"Fresnes","nom_a":null,"nom_de":null,"slug_ville":"fresnes","departement_id":0,"code_postal":"89310","population":61,"superficie_km2":"490.42","latitude_centre":"47.763","longitude_centre":"3.9931","distance_km":6.65},{"id":34814,"code_insee":"89184","nom_standard":"Fulvy","nom_a":null,"nom_de":null,"slug_ville":"fulvy","departement_id":0,"code_postal":"89160","population":128,"superficie_km2":"383.63","latitude_centre":"47.7415","longitude_centre":"4.1633","distance_km":6.88},{"id":0,"code_insee":"89470","nom_standard":"Villiers-les-Hauts","nom_a":null,"nom_de":null,"slug_ville":"villiers-les-hauts","departement_id":0,"code_postal":"89160","population":124,"superficie_km2":"1914.35","latitude_centre":"47.724","longitude_centre":"4.1555","distance_km":7.53},{"id":0,"code_insee":"89290","nom_standard":"Pasilly","nom_a":null,"nom_de":null,"slug_ville":"pasilly","departement_id":0,"code_postal":"89310","population":54,"superficie_km2":"1006.71","latitude_centre":"47.7018","longitude_centre":"4.0836","distance_km":7.57},{"id":34728,"code_insee":"89064","nom_standard":"Censy","nom_a":null,"nom_de":null,"slug_ville":"censy","departement_id":0,"code_postal":"89310","population":51,"superficie_km2":"481.69","latitude_centre":"47.7006","longitude_centre":"4.0476","distance_km":8.11},{"id":34741,"code_insee":"89087","nom_standard":"Chassignelles","nom_a":null,"nom_de":null,"slug_ville":"chassignelles","departement_id":0,"code_postal":"89160","population":289,"superficie_km2":"1324.01","latitude_centre":"47.7735","longitude_centre":"4.1967","distance_km":8.62},{"id":0,"code_insee":"89407","nom_standard":"Tanlay","nom_a":null,"nom_de":null,"slug_ville":"tanlay","departement_id":0,"code_postal":"89430","population":897,"superficie_km2":"3863.40","latitude_centre":"47.8482","longitude_centre":"4.0831","distance_km":8.71},{"id":0,"code_insee":"89299","nom_standard":"Pimelles","nom_a":null,"nom_de":null,"slug_ville":"pimelles","departement_id":0,"code_postal":"89740","population":61,"superficie_km2":"996.07","latitude_centre":"47.842","longitude_centre":"4.1724","distance_km":10.51},{"id":34696,"code_insee":"89028","nom_standard":"Baon","nom_a":null,"nom_de":null,"slug_ville":"baon","departement_id":0,"code_postal":"89430","population":58,"superficie_km2":"862.24","latitude_centre":"47.8611","longitude_centre":"4.1377","distance_km":10.97},{"id":34829,"code_insee":"89207","nom_standard":"Jouancy","nom_a":null,"nom_de":null,"slug_ville":"jouancy","departement_id":0,"code_postal":"89310","population":29,"superficie_km2":"598.26","latitude_centre":"47.6719","longitude_centre":"4.039","distance_km":11.35},{"id":0,"code_insee":"89376","nom_standard":"Sarry","nom_a":null,"nom_de":null,"slug_ville":"sarry","departement_id":0,"code_postal":"89310","population":133,"superficie_km2":"2566.15","latitude_centre":"47.6646","longitude_centre":"4.075","distance_km":11.72},{"id":0,"code_insee":"89355","nom_standard":"Saint-Martin-sur-Armançon","nom_a":null,"nom_de":null,"slug_ville":"saint-martin-sur-armancon","departement_id":0,"code_postal":"89700","population":138,"superficie_km2":"1420.72","latitude_centre":"47.8764","longitude_centre":"4.0667","distance_km":11.89}]}