{"ville":{"id":34525,"code_insee":"88342","nom_standard":"Pallegney","nom_a":null,"nom_de":null,"slug_ville":"pallegney","departement_id":0,"code_postal":"88330","population":178,"superficie_km2":"609.81","latitude_centre":"48.2888","longitude_centre":"6.4479","dep_code":"88","dep_nom":"Vosges","dep_slug":"vosges","reg_code":"44","reg_nom":"Grand Est","reg_slug":"grand-est"},"departement":{"code":"88","nom":"Vosges","slug":"vosges"},"region":{"code":"44","nom":"Grand Est","slug":"grand-est"},"villes_proches":[{"id":0,"code_insee":"88497","nom_standard":"Vaxoncourt","nom_a":null,"nom_de":null,"slug_ville":"vaxoncourt","departement_id":0,"code_postal":"88330","population":507,"superficie_km2":"865.17","latitude_centre":"48.2886","longitude_centre":"6.422","distance_km":1.92},{"id":0,"code_insee":"88532","nom_standard":"Zincourt","nom_a":null,"nom_de":null,"slug_ville":"zincourt","departement_id":0,"code_postal":"88330","population":75,"superficie_km2":"456.07","latitude_centre":"48.3092","longitude_centre":"6.4441","distance_km":2.29},{"id":34357,"code_insee":"88143","nom_standard":"Domèvre-sur-Durbion","nom_a":null,"nom_de":null,"slug_ville":"domevre-sur-durbion","departement_id":0,"code_postal":"88330","population":267,"superficie_km2":"1276.70","latitude_centre":"48.2871","longitude_centre":"6.4886","distance_km":3.02},{"id":34274,"code_insee":"88040","nom_standard":"Bayecourt","nom_a":null,"nom_de":null,"slug_ville":"bayecourt","departement_id":0,"code_postal":"88150","population":230,"superficie_km2":"708.98","latitude_centre":"48.2714","longitude_centre":"6.4941","distance_km":3.93},{"id":34422,"code_insee":"88224","nom_standard":"Hadigny-les-Verrières","nom_a":null,"nom_de":null,"slug_ville":"hadigny-les-verrieres","departement_id":0,"code_postal":"88330","population":374,"superficie_km2":"1403.95","latitude_centre":"48.3207","longitude_centre":"6.4754","distance_km":4.09},{"id":0,"code_insee":"88247","nom_standard":"Igney","nom_a":null,"nom_de":null,"slug_ville":"igney","departement_id":0,"code_postal":"88150","population":1133,"superficie_km2":"782.35","latitude_centre":"48.2767","longitude_centre":"6.3934","distance_km":4.25},{"id":0,"code_insee":"88465","nom_standard":"Thaon-les-Vosges","nom_a":null,"nom_de":null,"slug_ville":"thaon-les-vosges","departement_id":0,"code_postal":"88150","population":8547,"superficie_km2":"2787.31","latitude_centre":"48.2498","longitude_centre":"6.4244","distance_km":4.67},{"id":0,"code_insee":"88094","nom_standard":"Châtel-sur-Moselle","nom_a":null,"nom_de":null,"slug_ville":"chatel-sur-moselle","departement_id":0,"code_postal":"88330","population":1723,"superficie_km2":"1212.20","latitude_centre":"48.3164","longitude_centre":"6.399","distance_km":4.74},{"id":0,"code_insee":"88509","nom_standard":"Villoncourt","nom_a":null,"nom_de":null,"slug_ville":"villoncourt","departement_id":0,"code_postal":"88150","population":101,"superficie_km2":"659.25","latitude_centre":"48.2711","longitude_centre":"6.5151","distance_km":5.35},{"id":0,"code_insee":"88327","nom_standard":"Nomexy","nom_a":null,"nom_de":null,"slug_ville":"nomexy","departement_id":0,"code_postal":"88440","population":1905,"superficie_km2":"816.89","latitude_centre":"48.3073","longitude_centre":"6.3713","distance_km":6.03},{"id":34264,"code_insee":"88027","nom_standard":"Badménil-aux-Bois","nom_a":null,"nom_de":null,"slug_ville":"badmenil-aux-bois","departement_id":0,"code_postal":"88330","population":135,"superficie_km2":"931.03","latitude_centre":"48.3115","longitude_centre":"6.5285","distance_km":6.47},{"id":34348,"code_insee":"88133","nom_standard":"Dignonville","nom_a":null,"nom_de":null,"slug_ville":"dignonville","departement_id":0,"code_postal":"88000","population":208,"superficie_km2":"594.46","latitude_centre":"48.2414","longitude_centre":"6.5002","distance_km":6.54},{"id":0,"code_insee":"88099","nom_standard":"Chavelot","nom_a":null,"nom_de":null,"slug_ville":"chavelot","departement_id":0,"code_postal":"88150","population":1376,"superficie_km2":"623.38","latitude_centre":"48.229","longitude_centre":"6.4281","distance_km":6.81},{"id":0,"code_insee":"88454","nom_standard":"Sercœur","nom_a":null,"nom_de":null,"slug_ville":"sercoeur","departement_id":0,"code_postal":"88600","population":225,"superficie_km2":"935.17","latitude_centre":"48.26","longitude_centre":"6.5347","distance_km":7.18},{"id":34503,"code_insee":"88313","nom_standard":"Moriville","nom_a":null,"nom_de":null,"slug_ville":"moriville","departement_id":0,"code_postal":"88330","population":443,"superficie_km2":"2551.27","latitude_centre":"48.3515","longitude_centre":"6.4136","distance_km":7.42},{"id":0,"code_insee":"88136","nom_standard":"Dogneville","nom_a":null,"nom_de":null,"slug_ville":"dogneville","departement_id":0,"code_postal":"88000","population":1521,"superficie_km2":"1143.33","latitude_centre":"48.2198","longitude_centre":"6.4667","distance_km":7.8},{"id":0,"code_insee":"88416","nom_standard":"Saint-Genest","nom_a":null,"nom_de":null,"slug_ville":"saint-genest","departement_id":0,"code_postal":"88700","population":131,"superficie_km2":"623.95","latitude_centre":"48.3456","longitude_centre":"6.51","distance_km":7.81},{"id":0,"code_insee":"88379","nom_standard":"Rehaincourt","nom_a":null,"nom_de":null,"slug_ville":"rehaincourt","departement_id":0,"code_postal":"88330","population":364,"superficie_km2":"1555.82","latitude_centre":"48.3591","longitude_centre":"6.4628","distance_km":7.89},{"id":34356,"code_insee":"88142","nom_standard":"Domèvre-sur-Avière","nom_a":null,"nom_de":null,"slug_ville":"domevre-sur-aviere","departement_id":0,"code_postal":"88390","population":439,"superficie_km2":"920.20","latitude_centre":"48.2242","longitude_centre":"6.39","distance_km":8.36},{"id":0,"code_insee":"88209","nom_standard":"Golbey","nom_a":null,"nom_de":null,"slug_ville":"golbey","departement_id":0,"code_postal":"88190","population":8832,"superficie_km2":"947.47","latitude_centre":"48.1987","longitude_centre":"6.4258","distance_km":10.15}]}