{"ville":{"id":7470,"code_insee":"71342","nom_standard":"Paray-le-Monial","nom_a":null,"nom_de":null,"slug_ville":"paray-le-monial","departement_id":672,"code_postal":"71600","population":9239,"superficie_km2":"25.00","latitude_centre":"46.4430008","longitude_centre":"4.1129999","dep_code":"71","dep_nom":"Saône-et-Loire","dep_slug":"saone-et-loire","reg_code":"02","reg_nom":"Bourgogne-Franche-Comté","reg_slug":"bourgogne-franche-comte"},"departement":{"code":"71","nom":"Saône-et-Loire","slug":"saone-et-loire"},"region":{"code":"02","nom":"Bourgogne-Franche-Comté","slug":"bourgogne-franche-comte"},"villes_proches":[{"id":7516,"code_insee":"71588","nom_standard":"Vitry-en-Charollais","nom_a":null,"nom_de":null,"slug_ville":"vitry-en-charollais","departement_id":672,"code_postal":"71600","population":1084,"superficie_km2":"21.00","latitude_centre":"46.4609985","longitude_centre":"4.0599999","distance_km":4.53},{"id":7497,"code_insee":"71491","nom_standard":"Saint-Yan","nom_a":null,"nom_de":null,"slug_ville":"saint-yan","departement_id":672,"code_postal":"71600","population":1152,"superficie_km2":"26.00","latitude_centre":"46.4070015","longitude_centre":"4.0580001","distance_km":5.81},{"id":7439,"code_insee":"71176","nom_standard":"Digoin","nom_a":null,"nom_de":null,"slug_ville":"digoin","departement_id":672,"code_postal":"71160","population":7498,"superficie_km2":"35.00","latitude_centre":"46.4889984","longitude_centre":"4.0250001","distance_km":8.46},{"id":7496,"code_insee":"71490","nom_standard":"Saint-Vincent-Bragny","nom_a":null,"nom_de":null,"slug_ville":"saint-vincent-bragny","departement_id":672,"code_postal":"71430","population":1005,"superficie_km2":"41.00","latitude_centre":"46.5250015","longitude_centre":"4.1259999","distance_km":9.17},{"id":287,"code_insee":"03063","nom_standard":"Chassenard","nom_a":null,"nom_de":null,"slug_ville":"chassenard","departement_id":603,"code_postal":"03510","population":1026,"superficie_km2":"25.00","latitude_centre":"46.4420013","longitude_centre":"3.9730001","distance_km":10.73},{"id":7423,"code_insee":"71106","nom_standard":"Charolles","nom_a":null,"nom_de":null,"slug_ville":"charolles","departement_id":672,"code_postal":"71120","population":2819,"superficie_km2":"20.00","latitude_centre":"46.4480019","longitude_centre":"4.2800002","distance_km":12.81},{"id":7469,"code_insee":"71340","nom_standard":"Palinges","nom_a":null,"nom_de":null,"slug_ville":"palinges","departement_id":672,"code_postal":"71430","population":1442,"superficie_km2":"37.00","latitude_centre":"46.5480003","longitude_centre":"4.2080002","distance_km":13.75},{"id":7466,"code_insee":"71325","nom_standard":"La Motte-Saint-Jean","nom_a":null,"nom_de":null,"slug_ville":"la-motte-saint-jean","departement_id":672,"code_postal":"71160","population":1203,"superficie_km2":"21.00","latitude_centre":"46.5149994","longitude_centre":"3.9600000","distance_km":14.19},{"id":311,"code_insee":"03173","nom_standard":"Molinet","nom_a":null,"nom_de":null,"slug_ville":"molinet","departement_id":603,"code_postal":"03510","population":1139,"superficie_km2":"26.00","latitude_centre":"46.4640007","longitude_centre":"3.9260001","distance_km":14.51},{"id":7450,"code_insee":"71230","nom_standard":"Gueugnon","nom_a":null,"nom_de":null,"slug_ville":"gueugnon","departement_id":672,"code_postal":"71130","population":6616,"superficie_km2":"29.00","latitude_centre":"46.5940018","longitude_centre":"4.0489998","distance_km":17.49},{"id":7447,"code_insee":"71212","nom_standard":"Génelard","nom_a":null,"nom_de":null,"slug_ville":"genelard","departement_id":672,"code_postal":"71420","population":1397,"superficie_km2":"22.00","latitude_centre":"46.5800018","longitude_centre":"4.2500000","distance_km":18.49},{"id":7456,"code_insee":"71275","nom_standard":"Marcigny","nom_a":null,"nom_de":null,"slug_ville":"marcigny","departement_id":672,"code_postal":"71110","population":1720,"superficie_km2":"8.00","latitude_centre":"46.2760010","longitude_centre":"4.0390000","distance_km":19.42},{"id":7471,"code_insee":"71346","nom_standard":"Perrecy-les-Forges","nom_a":null,"nom_de":null,"slug_ville":"perrecy-les-forges","departement_id":672,"code_postal":"71420","population":1547,"superficie_km2":"34.00","latitude_centre":"46.6220017","longitude_centre":"4.2259998","distance_km":21.7},{"id":7428,"code_insee":"71132","nom_standard":"Ciry-le-Noble","nom_a":null,"nom_de":null,"slug_ville":"ciry-le-noble","departement_id":672,"code_postal":"71420","population":2248,"superficie_km2":"33.00","latitude_centre":"46.5970001","longitude_centre":"4.2979999","distance_km":22.22},{"id":7429,"code_insee":"71133","nom_standard":"La Clayette","nom_a":null,"nom_de":null,"slug_ville":"la-clayette","departement_id":672,"code_postal":"71800","population":1626,"superficie_km2":"3.00","latitude_centre":"46.2890015","longitude_centre":"4.3109999","distance_km":22.89},{"id":297,"code_insee":"03103","nom_standard":"Le Donjon","nom_a":null,"nom_de":null,"slug_ville":"le-donjon","departement_id":603,"code_postal":"03130","population":1028,"superficie_km2":"37.00","latitude_centre":"46.3450012","longitude_centre":"3.8000000","distance_km":26.36},{"id":7509,"code_insee":"71542","nom_standard":"Toulon-sur-Arroux","nom_a":null,"nom_de":null,"slug_ville":"toulon-sur-arroux","departement_id":672,"code_postal":"71320","population":1458,"superficie_km2":"44.00","latitude_centre":"46.6829987","longitude_centre":"4.1479998","distance_km":26.82},{"id":7499,"code_insee":"71499","nom_standard":"Sanvignes-les-Mines","nom_a":null,"nom_de":null,"slug_ville":"sanvignes-les-mines","departement_id":672,"code_postal":"71410","population":4295,"superficie_km2":"36.00","latitude_centre":"46.6679993","longitude_centre":"4.2800002","distance_km":28.09},{"id":7495,"code_insee":"71486","nom_standard":"Saint-Vallier","nom_a":null,"nom_de":null,"slug_ville":"saint-vallier","departement_id":672,"code_postal":"71230","population":8503,"superficie_km2":"24.00","latitude_centre":"46.6430016","longitude_centre":"4.3600001","distance_km":29.18},{"id":294,"code_insee":"03100","nom_standard":"Diou","nom_a":null,"nom_de":null,"slug_ville":"diou","departement_id":603,"code_postal":"03290","population":1359,"superficie_km2":"26.00","latitude_centre":"46.5229988","longitude_centre":"3.7370000","distance_km":30.13}]}