{"ville":{"id":28251,"code_insee":"63269","nom_standard":"Parent","nom_a":null,"nom_de":null,"slug_ville":"parent","departement_id":0,"code_postal":"63270","population":879,"superficie_km2":"376.74","latitude_centre":"45.6243","longitude_centre":"3.2282","dep_code":"63","dep_nom":"Puy-de-D么me","dep_slug":"puy-de-dome","reg_code":"84","reg_nom":"Auvergne-Rh么ne-Alpes","reg_slug":"auvergne-rhone-alpes"},"departement":{"code":"63","nom":"Puy-de-D么me","slug":"puy-de-dome"},"region":{"code":"84","nom":"Auvergne-Rh么ne-Alpes","slug":"auvergne-rhone-alpes"},"villes_proches":[{"id":28230,"code_insee":"63241","nom_standard":"Montpeyroux","nom_a":null,"nom_de":null,"slug_ville":"montpeyroux","departement_id":0,"code_postal":"63114","population":330,"superficie_km2":"337.36","latitude_centre":"45.6254","longitude_centre":"3.2028","distance_km":1.98},{"id":0,"code_insee":"63121","nom_standard":"Coudes","nom_a":null,"nom_de":null,"slug_ville":"coudes","departement_id":0,"code_postal":"63114","population":1225,"superficie_km2":"469.81","latitude_centre":"45.6126","longitude_centre":"3.2032","distance_km":2.34},{"id":0,"code_insee":"63457","nom_standard":"Vic-le-Comte","nom_a":null,"nom_de":null,"slug_ville":"vic-le-comte","departement_id":0,"code_postal":"63270","population":5396,"superficie_km2":"1811.64","latitude_centre":"45.6468","longitude_centre":"3.2428","distance_km":2.75},{"id":0,"code_insee":"63472","nom_standard":"Yronde-et-Buron","nom_a":null,"nom_de":null,"slug_ville":"yronde-et-buron","departement_id":0,"code_postal":"63270","population":642,"superficie_km2":"1469.21","latitude_centre":"45.609","longitude_centre":"3.2566","distance_km":2.79},{"id":28077,"code_insee":"63021","nom_standard":"Authezat","nom_a":null,"nom_de":null,"slug_ville":"authezat","departement_id":0,"code_postal":"63114","population":661,"superficie_km2":"581.07","latitude_centre":"45.6376","longitude_centre":"3.1942","distance_km":3.03},{"id":0,"code_insee":"63411","nom_standard":"Sauvagnat-Sainte-Marthe","nom_a":null,"nom_de":null,"slug_ville":"sauvagnat-sainte-marthe","departement_id":0,"code_postal":"63500","population":460,"superficie_km2":"644.33","latitude_centre":"45.5879","longitude_centre":"3.2117","distance_km":4.25},{"id":28146,"code_insee":"63120","nom_standard":"Corent","nom_a":null,"nom_de":null,"slug_ville":"corent","departement_id":0,"code_postal":"63730","population":799,"superficie_km2":"271.67","latitude_centre":"45.6599","longitude_centre":"3.195","distance_km":4.73},{"id":0,"code_insee":"63280","nom_standard":"Pignols","nom_a":null,"nom_de":null,"slug_ville":"pignols","departement_id":0,"code_postal":"63270","population":337,"superficie_km2":"931.53","latitude_centre":"45.6485","longitude_centre":"3.2792","distance_km":4.79},{"id":0,"code_insee":"63404","nom_standard":"Saint-Yvoine","nom_a":null,"nom_de":null,"slug_ville":"saint-yvoine","departement_id":0,"code_postal":"63500","population":553,"superficie_km2":"898.49","latitude_centre":"45.5778","longitude_centre":"3.2204","distance_km":5.21},{"id":0,"code_insee":"63378","nom_standard":"Saint-Maurice","nom_a":null,"nom_de":null,"slug_ville":"saint-maurice","departement_id":0,"code_postal":"63270","population":968,"superficie_km2":"539.35","latitude_centre":"45.6716","longitude_centre":"3.2383","distance_km":5.32},{"id":0,"code_insee":"63413","nom_standard":"La Sauvetat","nom_a":null,"nom_de":null,"slug_ville":"la-sauvetat","departement_id":0,"code_postal":"63730","population":737,"superficie_km2":"805.04","latitude_centre":"45.6396","longitude_centre":"3.1617","distance_km":5.44},{"id":0,"code_insee":"63321","nom_standard":"Saint-Babel","nom_a":null,"nom_de":null,"slug_ville":"saint-babel","departement_id":0,"code_postal":"63500","population":948,"superficie_km2":"1950.10","latitude_centre":"45.6053","longitude_centre":"3.2972","distance_km":5.77},{"id":28112,"code_insee":"63073","nom_standard":"Chadeleuf","nom_a":null,"nom_de":null,"slug_ville":"chadeleuf","departement_id":0,"code_postal":"63320","population":427,"superficie_km2":"579.38","latitude_centre":"45.5827","longitude_centre":"3.1806","distance_km":5.93},{"id":28197,"code_insee":"63188","nom_standard":"Laps","nom_a":null,"nom_de":null,"slug_ville":"laps","departement_id":0,"code_postal":"63270","population":601,"superficie_km2":"709.67","latitude_centre":"45.6701","longitude_centre":"3.2683","distance_km":5.97},{"id":0,"code_insee":"63282","nom_standard":"Plauzat","nom_a":null,"nom_de":null,"slug_ville":"plauzat","departement_id":0,"code_postal":"63730","population":1641,"superficie_km2":"1325.61","latitude_centre":"45.6204","longitude_centre":"3.151","distance_km":6.02},{"id":28237,"code_insee":"63250","nom_standard":"Neschers","nom_a":null,"nom_de":null,"slug_ville":"neschers","departement_id":0,"code_postal":"63320","population":908,"superficie_km2":"969.11","latitude_centre":"45.5892","longitude_centre":"3.1684","distance_km":6.07},{"id":28247,"code_insee":"63261","nom_standard":"Orbeil","nom_a":null,"nom_de":null,"slug_ville":"orbeil","departement_id":0,"code_postal":"63500","population":883,"superficie_km2":"969.60","latitude_centre":"45.568","longitude_centre":"3.2693","distance_km":7.03},{"id":0,"code_insee":"63227","nom_standard":"Mirefleurs","nom_a":null,"nom_de":null,"slug_ville":"mirefleurs","departement_id":0,"code_postal":"63730","population":2373,"superficie_km2":"914.73","latitude_centre":"45.6904","longitude_centre":"3.225","distance_km":7.35},{"id":0,"code_insee":"63214","nom_standard":"Les Martres-de-Veyre","nom_a":null,"nom_de":null,"slug_ville":"les-martres-de-veyre","departement_id":0,"code_postal":"63730","population":3826,"superficie_km2":"925.02","latitude_centre":"45.689","longitude_centre":"3.199","distance_km":7.54},{"id":28250,"code_insee":"63268","nom_standard":"Pardines","nom_a":null,"nom_de":null,"slug_ville":"pardines","departement_id":0,"code_postal":"63500","population":302,"superficie_km2":"520.03","latitude_centre":"45.5618","longitude_centre":"3.1869","distance_km":7.66}]}