{"ville":{"id":9816,"code_insee":"95480","nom_standard":"Parmain","nom_a":null,"nom_de":null,"slug_ville":"parmain","departement_id":696,"code_postal":"95620","population":5610,"superficie_km2":"9.00","latitude_centre":"49.1230011","longitude_centre":"2.2010000","dep_code":"95","dep_nom":"Val-d'Oise","dep_slug":"val-d-oise","reg_code":"10","reg_nom":"Île-de-France","reg_slug":"ile-de-france"},"departement":{"code":"95","nom":"Val-d'Oise","slug":"val-d-oise"},"region":{"code":"10","nom":"Île-de-France","slug":"ile-de-france"},"villes_proches":[{"id":9813,"code_insee":"95446","nom_standard":"Nesles-la-Vallée","nom_a":null,"nom_de":null,"slug_ville":"nesles-la-vallee","departement_id":696,"code_postal":"95690","population":1803,"superficie_km2":"14.00","latitude_centre":"49.1259995","longitude_centre":"2.1719999","distance_km":2.14},{"id":9769,"code_insee":"95134","nom_standard":"Champagne-sur-Oise","nom_a":null,"nom_de":null,"slug_ville":"champagne-sur-oise","departement_id":696,"code_postal":"95660","population":5021,"superficie_km2":"9.00","latitude_centre":"49.1430016","longitude_centre":"2.2279999","distance_km":2.97},{"id":9794,"code_insee":"95313","nom_standard":"L'Isle-Adam","nom_a":null,"nom_de":null,"slug_ville":"l-isle-adam","departement_id":696,"code_postal":"95290","population":11846,"superficie_km2":"16.00","latitude_centre":"49.1069984","longitude_centre":"2.2340000","distance_km":2.99},{"id":9841,"code_insee":"95628","nom_standard":"Valmondois","nom_a":null,"nom_de":null,"slug_ville":"valmondois","departement_id":696,"code_postal":"95760","population":1215,"superficie_km2":"5.00","latitude_centre":"49.0979996","longitude_centre":"2.1800001","distance_km":3.17},{"id":9767,"code_insee":"95120","nom_standard":"Butry-sur-Oise","nom_a":null,"nom_de":null,"slug_ville":"butry-sur-oise","departement_id":696,"code_postal":"95430","population":2254,"superficie_km2":"3.00","latitude_centre":"49.0839996","longitude_centre":"2.1919999","distance_km":4.39},{"id":9812,"code_insee":"95436","nom_standard":"Mours","nom_a":null,"nom_de":null,"slug_ville":"mours","departement_id":696,"code_postal":"95260","population":1667,"superficie_km2":"2.00","latitude_centre":"49.1300011","longitude_centre":"2.2639999","distance_km":4.65},{"id":9804,"code_insee":"95392","nom_standard":"Mériel","nom_a":null,"nom_de":null,"slug_ville":"meriel","departement_id":696,"code_postal":"95630","population":5213,"superficie_km2":"5.00","latitude_centre":"49.0769997","longitude_centre":"2.2130001","distance_km":5.19},{"id":9755,"code_insee":"95039","nom_standard":"Auvers-sur-Oise","nom_a":null,"nom_de":null,"slug_ville":"auvers-sur-oise","departement_id":696,"code_postal":"95430","population":6763,"superficie_km2":"13.00","latitude_centre":"49.0800018","longitude_centre":"2.1550000","distance_km":5.84},{"id":9817,"code_insee":"95487","nom_standard":"Persan","nom_a":null,"nom_de":null,"slug_ville":"persan","departement_id":696,"code_postal":"95340","population":13996,"superficie_km2":"5.00","latitude_centre":"49.1500015","longitude_centre":"2.2700000","distance_km":5.85},{"id":9821,"code_insee":"95504","nom_standard":"Presles","nom_a":null,"nom_de":null,"slug_ville":"presles","departement_id":696,"code_postal":"95590","population":3970,"superficie_km2":"10.00","latitude_centre":"49.1119995","longitude_centre":"2.2869999","distance_km":6.38},{"id":6055,"code_insee":"60139","nom_standard":"Chambly","nom_a":null,"nom_de":null,"slug_ville":"chambly","departement_id":661,"code_postal":"60230","population":9980,"superficie_km2":"13.00","latitude_centre":"49.1720009","longitude_centre":"2.2470000","distance_km":6.39},{"id":9758,"code_insee":"95052","nom_standard":"Beaumont-sur-Oise","nom_a":null,"nom_de":null,"slug_ville":"beaumont-sur-oise","departement_id":696,"code_postal":"95260","population":9590,"superficie_km2":"6.00","latitude_centre":"49.1399994","longitude_centre":"2.3000000","distance_km":7.45},{"id":6041,"code_insee":"60088","nom_standard":"Bornel","nom_a":null,"nom_de":null,"slug_ville":"bornel","departement_id":661,"code_postal":"60540","population":4785,"superficie_km2":"12.00","latitude_centre":"49.1920013","longitude_centre":"2.1849999","distance_km":7.76},{"id":9805,"code_insee":"95394","nom_standard":"Méry-sur-Oise","nom_a":null,"nom_de":null,"slug_ville":"mery-sur-oise","departement_id":696,"code_postal":"95540","population":10046,"superficie_km2":"10.00","latitude_centre":"49.0550003","longitude_centre":"2.1740000","distance_km":7.81},{"id":9787,"code_insee":"95256","nom_standard":"Frépillon","nom_a":null,"nom_de":null,"slug_ville":"frepillon","departement_id":696,"code_postal":"95740","population":3334,"superficie_km2":"3.00","latitude_centre":"49.0499992","longitude_centre":"2.2049999","distance_km":8.12},{"id":6109,"code_insee":"60398","nom_standard":"Le Mesnil-en-Thelle","nom_a":null,"nom_de":null,"slug_ville":"le-mesnil-en-thelle","departement_id":661,"code_postal":"60530","population":2329,"superficie_km2":"6.00","latitude_centre":"49.1759987","longitude_centre":"2.2820001","distance_km":8.33},{"id":9780,"code_insee":"95211","nom_standard":"Ennery","nom_a":null,"nom_de":null,"slug_ville":"ennery","departement_id":696,"code_postal":"95300","population":2383,"superficie_km2":"7.00","latitude_centre":"49.0779991","longitude_centre":"2.1090000","distance_km":8.36},{"id":9760,"code_insee":"95058","nom_standard":"Bernes-sur-Oise","nom_a":null,"nom_de":null,"slug_ville":"bernes-sur-oise","departement_id":696,"code_postal":"95340","population":2722,"superficie_km2":"6.00","latitude_centre":"49.1650009","longitude_centre":"2.3010001","distance_km":8.64},{"id":9798,"code_insee":"95353","nom_standard":"Maffliers","nom_a":null,"nom_de":null,"slug_ville":"maffliers","departement_id":696,"code_postal":"95560","population":1806,"superficie_km2":"7.00","latitude_centre":"49.0839996","longitude_centre":"2.3120000","distance_km":9.17},{"id":9811,"code_insee":"95430","nom_standard":"Montsoult","nom_a":null,"nom_de":null,"slug_ville":"montsoult","departement_id":696,"code_postal":"95560","population":4068,"superficie_km2":"4.00","latitude_centre":"49.0719986","longitude_centre":"2.3039999","distance_km":9.4}]}