{"ville":{"id":22959,"code_insee":"49236","nom_standard":"Passavant-sur-Layon","nom_a":null,"nom_de":null,"slug_ville":"passavant-sur-layon","departement_id":0,"code_postal":"49560","population":126,"superficie_km2":"490.64","latitude_centre":"47.1013","longitude_centre":"-0.3852","dep_code":"49","dep_nom":"Maine-et-Loire","dep_slug":"maine-et-loire","reg_code":"52","reg_nom":"Pays de la Loire","reg_slug":"pays-de-la-loire"},"departement":{"code":"49","nom":"Maine-et-Loire","slug":"maine-et-loire"},"region":{"code":"52","nom":"Pays de la Loire","slug":"pays-de-la-loire"},"villes_proches":[{"id":22937,"code_insee":"49102","nom_standard":"Cléré-sur-Layon","nom_a":null,"nom_de":null,"slug_ville":"clere-sur-layon","departement_id":0,"code_postal":"49560","population":348,"superficie_km2":"2154.68","latitude_centre":"47.0829","longitude_centre":"-0.4363","distance_km":4.38},{"id":0,"code_insee":"49302","nom_standard":"Saint-Macaire-du-Bois","nom_a":null,"nom_de":null,"slug_ville":"saint-macaire-du-bois","departement_id":0,"code_postal":"49260","population":439,"superficie_km2":"1324.39","latitude_centre":"47.1135","longitude_centre":"-0.288","distance_km":7.48},{"id":0,"code_insee":"79132","nom_standard":"Genneton","nom_a":null,"nom_de":null,"slug_ville":"genneton","departement_id":0,"code_postal":"79150","population":302,"superficie_km2":"2765.57","latitude_centre":"47.0412","longitude_centre":"-0.4392","distance_km":7.83},{"id":0,"code_insee":"49373","nom_standard":"Lys-Haut-Layon","nom_a":null,"nom_de":null,"slug_ville":"lys-haut-layon","departement_id":0,"code_postal":"49310","population":7748,"superficie_km2":"17222.75","latitude_centre":"47.1504","longitude_centre":"-0.4618","distance_km":7.96},{"id":0,"code_insee":"79063","nom_standard":"Val en Vignes","nom_a":null,"nom_de":null,"slug_ville":"val-en-vignes","departement_id":0,"code_postal":"79150","population":2020,"superficie_km2":"7897.58","latitude_centre":"47.0351","longitude_centre":"-0.345","distance_km":7.97},{"id":0,"code_insee":"79014","nom_standard":"Loretz-d'Argenton","nom_a":null,"nom_de":null,"slug_ville":"loretz-d-argenton","departement_id":0,"code_postal":"79290","population":2575,"superficie_km2":"5284.77","latitude_centre":"47.0578","longitude_centre":"-0.2732","distance_km":9.76},{"id":22928,"code_insee":"49057","nom_standard":"Cernusson","nom_a":null,"nom_de":null,"slug_ville":"cernusson","departement_id":0,"code_postal":"49310","population":329,"superficie_km2":"856.45","latitude_centre":"47.1681","longitude_centre":"-0.4849","distance_km":10.59},{"id":0,"code_insee":"49310","nom_standard":"Saint-Paul-du-Bois","nom_a":null,"nom_de":null,"slug_ville":"saint-paul-du-bois","departement_id":0,"code_postal":"49310","population":598,"superficie_km2":"2688.65","latitude_centre":"47.0905","longitude_centre":"-0.539","distance_km":11.7},{"id":0,"code_insee":"49253","nom_standard":"Le Puy-Notre-Dame","nom_a":null,"nom_de":null,"slug_ville":"le-puy-notre-dame","departement_id":0,"code_postal":"49260","population":1084,"superficie_km2":"1596.12","latitude_centre":"47.1142","longitude_centre":"-0.2281","distance_km":11.98},{"id":0,"code_insee":"49125","nom_standard":"Doué-en-Anjou","nom_a":null,"nom_de":null,"slug_ville":"doue-en-anjou","departement_id":0,"code_postal":"49700","population":11029,"superficie_km2":"14949.49","latitude_centre":"47.1988","longitude_centre":"-0.3053","distance_km":12.41},{"id":0,"code_insee":"79280","nom_standard":"Saint Maurice Étusson","nom_a":null,"nom_de":null,"slug_ville":"saint-maurice-etusson","departement_id":0,"code_postal":"79150","population":895,"superficie_km2":"5734.77","latitude_centre":"47.0343","longitude_centre":"-0.5281","distance_km":13.14},{"id":0,"code_insee":"49211","nom_standard":"Montilliers","nom_a":null,"nom_de":null,"slug_ville":"montilliers","departement_id":0,"code_postal":"49310","population":1222,"superficie_km2":"2657.48","latitude_centre":"47.1805","longitude_centre":"-0.5186","distance_km":13.39},{"id":0,"code_insee":"49364","nom_standard":"Vaudelnay","nom_a":null,"nom_de":null,"slug_ville":"vaudelnay","departement_id":0,"code_postal":"49260","population":1122,"superficie_km2":"2558.78","latitude_centre":"47.1396","longitude_centre":"-0.2148","distance_km":13.58},{"id":22919,"code_insee":"49012","nom_standard":"Aubigné-sur-Layon","nom_a":null,"nom_de":null,"slug_ville":"aubigne-sur-layon","departement_id":0,"code_postal":"49540","population":347,"superficie_km2":"534.19","latitude_centre":"47.2127","longitude_centre":"-0.4745","distance_km":14.11},{"id":0,"code_insee":"79013","nom_standard":"Argentonnay","nom_a":null,"nom_de":null,"slug_ville":"argentonnay","departement_id":0,"code_postal":"79150","population":3234,"superficie_km2":"11769.88","latitude_centre":"46.9721","longitude_centre":"-0.4164","distance_km":14.56},{"id":22926,"code_insee":"49053","nom_standard":"Brossay","nom_a":null,"nom_de":null,"slug_ville":"brossay","departement_id":0,"code_postal":"49700","population":340,"superficie_km2":"483.64","latitude_centre":"47.1698","longitude_centre":"-0.2155","distance_km":14.93},{"id":0,"code_insee":"79300","nom_standard":"Sainte-Verge","nom_a":null,"nom_de":null,"slug_ville":"sainte-verge","departement_id":0,"code_postal":"79100","population":1404,"superficie_km2":"1283.38","latitude_centre":"47.0135","longitude_centre":"-0.2278","distance_km":15.41},{"id":22950,"code_insee":"49182","nom_standard":"Louresse-Rochemenier","nom_a":null,"nom_de":null,"slug_ville":"louresse-rochemenier","departement_id":0,"code_postal":"49700","population":896,"superficie_km2":"2602.61","latitude_centre":"47.2494","longitude_centre":"-0.3124","distance_km":17.36},{"id":0,"code_insee":"49086","nom_standard":"Terranjou","nom_a":null,"nom_de":null,"slug_ville":"terranjou","departement_id":0,"code_postal":"49380","population":3871,"superficie_km2":"5767.71","latitude_centre":"47.269","longitude_centre":"-0.443","distance_km":19.15},{"id":0,"code_insee":"49003","nom_standard":"Tuffalun","nom_a":null,"nom_de":null,"slug_ville":"tuffalun","departement_id":0,"code_postal":"49700","population":1746,"superficie_km2":"3961.96","latitude_centre":"47.2705","longitude_centre":"-0.3222","distance_km":19.41}]}