{"ville":{"id":16912,"code_insee":"25390","nom_standard":"Pays-de-Montbenoît","nom_a":null,"nom_de":null,"slug_ville":"pays-de-montbenoit","departement_id":0,"code_postal":"25650","population":1923,"superficie_km2":"4673.94","latitude_centre":"46.9985","longitude_centre":"6.4652","dep_code":"25","dep_nom":"Doubs","dep_slug":"doubs","reg_code":"27","reg_nom":"Bourgogne-Franche-Comté","reg_slug":"bourgogne-franche-comte"},"departement":{"code":"25","nom":"Doubs","slug":"doubs"},"region":{"code":"27","nom":"Bourgogne-Franche-Comté","slug":"bourgogne-franche-comte"},"villes_proches":[{"id":16888,"code_insee":"25357","nom_standard":"Maisons-du-Bois-Lièvremont","nom_a":null,"nom_de":null,"slug_ville":"maisons-du-bois-lievremont","departement_id":0,"code_postal":"25650","population":835,"superficie_km2":"1583.87","latitude_centre":"46.9796","longitude_centre":"6.4131","distance_km":4.48},{"id":16730,"code_insee":"25139","nom_standard":"La Chaux","nom_a":null,"nom_de":null,"slug_ville":"la-chaux","departement_id":0,"code_postal":"25650","population":614,"superficie_km2":"1699.40","latitude_centre":"47.0202","longitude_centre":"6.4093","distance_km":4.88},{"id":16842,"code_insee":"25296","nom_standard":"Les Gras","nom_a":null,"nom_de":null,"slug_ville":"les-gras","departement_id":0,"code_postal":"25790","population":817,"superficie_km2":"1496.59","latitude_centre":"46.9894","longitude_centre":"6.5404","distance_km":5.79},{"id":16638,"code_insee":"25012","nom_standard":"Les Alliés","nom_a":null,"nom_de":null,"slug_ville":"les-allies","departement_id":0,"code_postal":"25300","population":172,"superficie_km2":"532.38","latitude_centre":"46.9466","longitude_centre":"6.4486","distance_km":5.91},{"id":0,"code_insee":"25271","nom_standard":"Gilley","nom_a":null,"nom_de":null,"slug_ville":"gilley","departement_id":0,"code_postal":"25650","population":1842,"superficie_km2":"1746.13","latitude_centre":"47.0554","longitude_centre":"6.4832","distance_km":6.47},{"id":16647,"code_insee":"25024","nom_standard":"Arçon","nom_a":null,"nom_de":null,"slug_ville":"arcon","departement_id":0,"code_postal":"25300","population":961,"superficie_km2":"2150.19","latitude_centre":"46.9702","longitude_centre":"6.3843","distance_km":6.9},{"id":0,"code_insee":"25285","nom_standard":"Grand'Combe-Châteleu","nom_a":null,"nom_de":null,"slug_ville":"grand-combe-chateleu","departement_id":0,"code_postal":"25570","population":1491,"superficie_km2":"2160.47","latitude_centre":"47.016","longitude_centre":"6.555","distance_km":7.08},{"id":16743,"code_insee":"25160","nom_standard":"Les Combes","nom_a":null,"nom_de":null,"slug_ville":"les-combes","departement_id":0,"code_postal":"25500","population":777,"superficie_km2":"1779.77","latitude_centre":"47.0462","longitude_centre":"6.5349","distance_km":7.49},{"id":16648,"code_insee":"25025","nom_standard":"Arc-sous-Cicon","nom_a":null,"nom_de":null,"slug_ville":"arc-sous-cicon","departement_id":0,"code_postal":"25520","population":768,"superficie_km2":"2858.81","latitude_centre":"47.0524","longitude_centre":"6.4038","distance_km":7.59},{"id":16700,"code_insee":"25099","nom_standard":"Bugny","nom_a":null,"nom_de":null,"slug_ville":"bugny","departement_id":0,"code_postal":"25520","population":257,"superficie_km2":"477.92","latitude_centre":"46.9972","longitude_centre":"6.3617","distance_km":7.85},{"id":16878,"code_insee":"25343","nom_standard":"Longemaison","nom_a":null,"nom_de":null,"slug_ville":"longemaison","departement_id":0,"code_postal":"25690","population":167,"superficie_km2":"992.43","latitude_centre":"47.0847","longitude_centre":"6.459","distance_km":9.6},{"id":0,"code_insee":"25517","nom_standard":"Saint-Gorgon-Main","nom_a":null,"nom_de":null,"slug_ville":"saint-gorgon-main","departement_id":0,"code_postal":"25520","population":250,"superficie_km2":"796.42","latitude_centre":"47.0181","longitude_centre":"6.3383","distance_km":9.87},{"id":16650,"code_insee":"25029","nom_standard":"Aubonne","nom_a":null,"nom_de":null,"slug_ville":"aubonne","departement_id":0,"code_postal":"25520","population":266,"superficie_km2":"1526.54","latitude_centre":"47.0417","longitude_centre":"6.3446","distance_km":10.33},{"id":0,"code_insee":"25204","nom_standard":"Doubs","nom_a":null,"nom_de":null,"slug_ville":"doubs","departement_id":0,"code_postal":"25300","population":3335,"superficie_km2":"894.56","latitude_centre":"46.9321","longitude_centre":"6.3651","distance_km":10.59},{"id":0,"code_insee":"25462","nom_standard":"Pontarlier","nom_a":null,"nom_de":null,"slug_ville":"pontarlier","departement_id":0,"code_postal":"25300","population":18067,"superficie_km2":"4134.56","latitude_centre":"46.9167","longitude_centre":"6.3796","distance_km":11.18},{"id":0,"code_insee":"25634","nom_standard":"Vuillecin","nom_a":null,"nom_de":null,"slug_ville":"vuillecin","departement_id":0,"code_postal":"25300","population":687,"superficie_km2":"1424.31","latitude_centre":"46.9524","longitude_centre":"6.3329","distance_km":11.27},{"id":0,"code_insee":"25447","nom_standard":"Passonfontaine","nom_a":null,"nom_de":null,"slug_ville":"passonfontaine","departement_id":0,"code_postal":"25690","population":331,"superficie_km2":"1959.27","latitude_centre":"47.0989","longitude_centre":"6.4253","distance_km":11.57},{"id":0,"code_insee":"25609","nom_standard":"Verrières-de-Joux","nom_a":null,"nom_de":null,"slug_ville":"verrieres-de-joux","departement_id":0,"code_postal":"25300","population":464,"superficie_km2":"1012.76","latitude_centre":"46.8865","longitude_centre":"6.4442","distance_km":12.56},{"id":0,"code_insee":"25432","nom_standard":"Orchamps-Vennes","nom_a":null,"nom_de":null,"slug_ville":"orchamps-vennes","departement_id":0,"code_postal":"25390","population":2189,"superficie_km2":"2478.60","latitude_centre":"47.109","longitude_centre":"6.5122","distance_km":12.79},{"id":16806,"code_insee":"25243","nom_standard":"Flangebouche","nom_a":null,"nom_de":null,"slug_ville":"flangebouche","departement_id":0,"code_postal":"25390","population":850,"superficie_km2":"2300.29","latitude_centre":"47.1197","longitude_centre":"6.4747","distance_km":13.5}]}