{"ville":{"id":5340,"code_insee":"56153","nom_standard":"Péaule","nom_a":null,"nom_de":null,"slug_ville":"peaule","departement_id":657,"code_postal":"56130","population":2782,"superficie_km2":"39.00","latitude_centre":"47.5830002","longitude_centre":"-2.3360000","dep_code":"56","dep_nom":"Morbihan","dep_slug":"morbihan","reg_code":"03","reg_nom":"Bretagne","reg_slug":"bretagne"},"departement":{"code":"56","nom":"Morbihan","slug":"morbihan"},"region":{"code":"03","nom":"Bretagne","slug":"bretagne"},"villes_proches":[{"id":5319,"code_insee":"56126","nom_standard":"Marzan","nom_a":null,"nom_de":null,"slug_ville":"marzan","departement_id":657,"code_postal":"56130","population":2539,"superficie_km2":"34.00","latitude_centre":"47.5419998","longitude_centre":"-2.3540001","distance_km":4.75},{"id":5307,"code_insee":"56111","nom_standard":"Limerzel","nom_a":null,"nom_de":null,"slug_ville":"limerzel","departement_id":657,"code_postal":"56220","population":1307,"superficie_km2":"25.00","latitude_centre":"47.6360016","longitude_centre":"-2.3610001","distance_km":6.18},{"id":5258,"code_insee":"56028","nom_standard":"Caden","nom_a":null,"nom_de":null,"slug_ville":"caden","departement_id":657,"code_postal":"56220","population":1579,"superficie_km2":"38.00","latitude_centre":"47.6399994","longitude_centre":"-2.2990000","distance_km":6.92},{"id":5246,"code_insee":"56011","nom_standard":"Béganne","nom_a":null,"nom_de":null,"slug_ville":"beganne","departement_id":657,"code_postal":"56350","population":1423,"superficie_km2":"35.00","latitude_centre":"47.6030006","longitude_centre":"-2.2440000","distance_km":7.25},{"id":5335,"code_insee":"56147","nom_standard":"Nivillac","nom_a":null,"nom_de":null,"slug_ville":"nivillac","departement_id":657,"code_postal":"56130","population":4810,"superficie_km2":"56.00","latitude_centre":"47.5410004","longitude_centre":"-2.2490001","distance_km":8.03},{"id":5239,"code_insee":"56004","nom_standard":"Arzal","nom_a":null,"nom_de":null,"slug_ville":"arzal","departement_id":657,"code_postal":"56190","population":1742,"superficie_km2":"25.00","latitude_centre":"47.5200005","longitude_centre":"-2.4050000","distance_km":8.71},{"id":5337,"code_insee":"56149","nom_standard":"Noyal-Muzillac","nom_a":null,"nom_de":null,"slug_ville":"noyal-muzillac","departement_id":657,"code_postal":"56190","population":2516,"superficie_km2":"49.00","latitude_centre":"47.5999985","longitude_centre":"-2.4600000","distance_km":9.49},{"id":5277,"code_insee":"56058","nom_standard":"Férel","nom_a":null,"nom_de":null,"slug_ville":"ferel","departement_id":657,"code_postal":"56130","population":3404,"superficie_km2":"30.00","latitude_centre":"47.4869995","longitude_centre":"-2.3399999","distance_km":10.68},{"id":5331,"code_insee":"56143","nom_standard":"Muzillac","nom_a":null,"nom_de":null,"slug_ville":"muzillac","departement_id":657,"code_postal":"56190","population":5041,"superficie_km2":"38.00","latitude_centre":"47.5550003","longitude_centre":"-2.4730001","distance_km":10.74},{"id":5368,"code_insee":"56184","nom_standard":"Questembert","nom_a":null,"nom_de":null,"slug_ville":"questembert","departement_id":657,"code_postal":"56230","population":8001,"superficie_km2":"66.00","latitude_centre":"47.6640015","longitude_centre":"-2.4370000","distance_km":11.77},{"id":5316,"code_insee":"56123","nom_standard":"Malansac","nom_a":null,"nom_de":null,"slug_ville":"malansac","departement_id":657,"code_postal":"56220","population":2244,"superficie_km2":"36.00","latitude_centre":"47.6860008","longitude_centre":"-2.3000000","distance_km":11.77},{"id":5260,"code_insee":"56030","nom_standard":"Camoël","nom_a":null,"nom_de":null,"slug_ville":"camoel","departement_id":657,"code_postal":"56130","population":1122,"superficie_km2":"15.00","latitude_centre":"47.4790001","longitude_centre":"-2.3989999","distance_km":12.49},{"id":5252,"code_insee":"56018","nom_standard":"Billiers","nom_a":null,"nom_de":null,"slug_ville":"billiers","departement_id":657,"code_postal":"56190","population":1047,"superficie_km2":"6.00","latitude_centre":"47.5239983","longitude_centre":"-2.4800000","distance_km":12.64},{"id":5381,"code_insee":"56212","nom_standard":"Saint-Dolay","nom_a":null,"nom_de":null,"slug_ville":"saint-dolay","departement_id":657,"code_postal":"56130","population":2603,"superficie_km2":"49.00","latitude_centre":"47.5480003","longitude_centre":"-2.1719999","distance_km":12.91},{"id":5236,"code_insee":"56001","nom_standard":"Allaire","nom_a":null,"nom_de":null,"slug_ville":"allaire","departement_id":657,"code_postal":"56350","population":3875,"superficie_km2":"42.00","latitude_centre":"47.6389999","longitude_centre":"-2.1770000","distance_km":13.45},{"id":5387,"code_insee":"56221","nom_standard":"Saint-Jacut-les-Pins","nom_a":null,"nom_de":null,"slug_ville":"saint-jacut-les-pins","departement_id":657,"code_postal":"56220","population":1734,"superficie_km2":"23.00","latitude_centre":"47.6780014","longitude_centre":"-2.2119999","distance_km":14.07},{"id":5357,"code_insee":"56171","nom_standard":"Pluherlin","nom_a":null,"nom_de":null,"slug_ville":"pluherlin","departement_id":657,"code_postal":"56220","population":1518,"superficie_km2":"35.00","latitude_centre":"47.7150002","longitude_centre":"-2.3699999","distance_km":14.9},{"id":4325,"code_insee":"44072","nom_standard":"Herbignac","nom_a":null,"nom_de":null,"slug_ville":"herbignac","departement_id":645,"code_postal":"44410","population":7133,"superficie_km2":"71.00","latitude_centre":"47.4469986","longitude_centre":"-2.3130000","distance_km":15.22},{"id":5342,"code_insee":"56155","nom_standard":"Pénestin","nom_a":null,"nom_de":null,"slug_ville":"penestin","departement_id":657,"code_postal":"56760","population":2028,"superficie_km2":"21.00","latitude_centre":"47.4729996","longitude_centre":"-2.4649999","distance_km":15.6},{"id":5250,"code_insee":"56015","nom_standard":"Berric","nom_a":null,"nom_de":null,"slug_ville":"berric","departement_id":657,"code_postal":"56230","population":2109,"superficie_km2":"22.00","latitude_centre":"47.6380005","longitude_centre":"-2.5280001","distance_km":15.64}]}