{"ville":{"id":21377,"code_insee":"40220","nom_standard":"Pécorade","nom_a":null,"nom_de":null,"slug_ville":"pecorade","departement_id":0,"code_postal":"40320","population":133,"superficie_km2":"420.23","latitude_centre":"43.6495","longitude_centre":"-0.3588","dep_code":"40","dep_nom":"Landes","dep_slug":"landes","reg_code":"75","reg_nom":"Nouvelle-Aquitaine","reg_slug":"nouvelle-aquitaine"},"departement":{"code":"40","nom":"Landes","slug":"landes"},"region":{"code":"75","nom":"Nouvelle-Aquitaine","slug":"nouvelle-aquitaine"},"villes_proches":[{"id":21296,"code_insee":"40110","nom_standard":"Geaune","nom_a":null,"nom_de":null,"slug_ville":"geaune","departement_id":0,"code_postal":"40320","population":767,"superficie_km2":"1051.40","latitude_centre":"43.6322","longitude_centre":"-0.3698","distance_km":2.12},{"id":0,"code_insee":"40305","nom_standard":"Sorbets","nom_a":null,"nom_de":null,"slug_ville":"sorbets","departement_id":0,"code_postal":"40320","population":198,"superficie_km2":"1195.56","latitude_centre":"43.6418","longitude_centre":"-0.3311","distance_km":2.39},{"id":21222,"code_insee":"40022","nom_standard":"Bahus-Soubiran","nom_a":null,"nom_de":null,"slug_ville":"bahus-soubiran","departement_id":0,"code_postal":"40320","population":394,"superficie_km2":"1473.38","latitude_centre":"43.6744","longitude_centre":"-0.3456","distance_km":2.97},{"id":21264,"code_insee":"40072","nom_standard":"Castelnau-Tursan","nom_a":null,"nom_de":null,"slug_ville":"castelnau-tursan","departement_id":0,"code_postal":"40320","population":182,"superficie_km2":"935.55","latitude_centre":"43.6522","longitude_centre":"-0.4018","distance_km":3.47},{"id":21376,"code_insee":"40219","nom_standard":"Payros-Cazautets","nom_a":null,"nom_de":null,"slug_ville":"payros-cazautets","departement_id":0,"code_postal":"40320","population":105,"superficie_km2":"637.06","latitude_centre":"43.627","longitude_centre":"-0.3975","distance_km":3.99},{"id":21345,"code_insee":"40174","nom_standard":"Mauries","nom_a":null,"nom_de":null,"slug_ville":"mauries","departement_id":0,"code_postal":"40320","population":84,"superficie_km2":"551.28","latitude_centre":"43.6138","longitude_centre":"-0.3347","distance_km":4.42},{"id":21273,"code_insee":"40083","nom_standard":"Clèdes","nom_a":null,"nom_de":null,"slug_ville":"cledes","departement_id":0,"code_postal":"40320","population":115,"superficie_km2":"684.60","latitude_centre":"43.609","longitude_centre":"-0.3734","distance_km":4.65},{"id":21286,"code_insee":"40097","nom_standard":"Eugénie-les-Bains","nom_a":null,"nom_de":null,"slug_ville":"eugenie-les-bains","departement_id":0,"code_postal":"40320","population":498,"superficie_km2":"1104.35","latitude_centre":"43.6919","longitude_centre":"-0.3811","distance_km":5.04},{"id":0,"code_insee":"40270","nom_standard":"Saint-Loubouer","nom_a":null,"nom_de":null,"slug_ville":"saint-loubouer","departement_id":0,"code_postal":"40320","population":442,"superficie_km2":"1693.50","latitude_centre":"43.684","longitude_centre":"-0.4121","distance_km":5.75},{"id":0,"code_insee":"40321","nom_standard":"Urgons","nom_a":null,"nom_de":null,"slug_ville":"urgons","departement_id":0,"code_postal":"40320","population":244,"superficie_km2":"1159.28","latitude_centre":"43.6397","longitude_centre":"-0.432","distance_km":5.99},{"id":0,"code_insee":"40239","nom_standard":"Puyol-Cazalet","nom_a":null,"nom_de":null,"slug_ville":"puyol-cazalet","departement_id":0,"code_postal":"40320","population":105,"superficie_km2":"465.10","latitude_centre":"43.6059","longitude_centre":"-0.4034","distance_km":6.03},{"id":21322,"code_insee":"40146","nom_standard":"Latrille","nom_a":null,"nom_de":null,"slug_ville":"latrille","departement_id":0,"code_postal":"40800","population":168,"superficie_km2":"687.57","latitude_centre":"43.6275","longitude_centre":"-0.2903","distance_km":6.03},{"id":21353,"code_insee":"40185","nom_standard":"Miramont-Sensacq","nom_a":null,"nom_de":null,"slug_ville":"miramont-sensacq","departement_id":0,"code_postal":"40320","population":342,"superficie_km2":"2558.96","latitude_centre":"43.5969","longitude_centre":"-0.327","distance_km":6.38},{"id":21272,"code_insee":"40082","nom_standard":"Classun","nom_a":null,"nom_de":null,"slug_ville":"classun","departement_id":0,"code_postal":"40320","population":242,"superficie_km2":"891.91","latitude_centre":"43.7157","longitude_centre":"-0.39","distance_km":7.78},{"id":0,"code_insee":"40226","nom_standard":"Pimbo","nom_a":null,"nom_de":null,"slug_ville":"pimbo","departement_id":0,"code_postal":"40320","population":195,"superficie_km2":"1093.75","latitude_centre":"43.5799","longitude_centre":"-0.3744","distance_km":7.84},{"id":21280,"code_insee":"40091","nom_standard":"Duhort-Bachen","nom_a":null,"nom_de":null,"slug_ville":"duhort-bachen","departement_id":0,"code_postal":"40800","population":700,"superficie_km2":"3424.86","latitude_centre":"43.7158","longitude_centre":"-0.3182","distance_km":8.06},{"id":21313,"code_insee":"40136","nom_standard":"Lacajunte","nom_a":null,"nom_de":null,"slug_ville":"lacajunte","departement_id":0,"code_postal":"40320","population":144,"superficie_km2":"566.26","latitude_centre":"43.5897","longitude_centre":"-0.4204","distance_km":8.29},{"id":21250,"code_insee":"40057","nom_standard":"Buanes","nom_a":null,"nom_de":null,"slug_ville":"buanes","departement_id":0,"code_postal":"40320","population":236,"superficie_km2":"666.79","latitude_centre":"43.7147","longitude_centre":"-0.4232","distance_km":8.91},{"id":21324,"code_insee":"40148","nom_standard":"Lauret","nom_a":null,"nom_de":null,"slug_ville":"lauret","departement_id":0,"code_postal":"40320","population":76,"superficie_km2":"737.27","latitude_centre":"43.5641","longitude_centre":"-0.3271","distance_km":9.83},{"id":0,"code_insee":"40240","nom_standard":"Renung","nom_a":null,"nom_de":null,"slug_ville":"renung","departement_id":0,"code_postal":"40270","population":483,"superficie_km2":"2225.80","latitude_centre":"43.7417","longitude_centre":"-0.3663","distance_km":10.27}]}