{"ville":{"id":744,"code_insee":"11279","nom_standard":"Pennautier","nom_a":null,"nom_de":null,"slug_ville":"pennautier","departement_id":611,"code_postal":"11610","population":2795,"superficie_km2":"19.00","latitude_centre":"43.2509995","longitude_centre":"2.3130000","dep_code":"11","dep_nom":"Aude","dep_slug":"aude","reg_code":"16","reg_nom":"Occitanie","reg_slug":"occitanie"},"departement":{"code":"11","nom":"Aude","slug":"aude"},"region":{"code":"16","nom":"Occitanie","slug":"occitanie"},"villes_proches":[{"id":764,"code_insee":"11425","nom_standard":"Villegailhenc","nom_a":null,"nom_de":null,"slug_ville":"villegailhenc","departement_id":611,"code_postal":"11600","population":1671,"superficie_km2":"5.00","latitude_centre":"43.2719994","longitude_centre":"2.3469999","distance_km":3.61},{"id":766,"code_insee":"11429","nom_standard":"Villemoustaussou","nom_a":null,"nom_de":null,"slug_ville":"villemoustaussou","departement_id":611,"code_postal":"11620","population":4468,"superficie_km2":"13.00","latitude_centre":"43.2500000","longitude_centre":"2.3659999","distance_km":4.29},{"id":749,"code_insee":"11288","nom_standard":"Pezens","nom_a":null,"nom_de":null,"slug_ville":"pezens","departement_id":611,"code_postal":"11170","population":1598,"superficie_km2":"11.00","latitude_centre":"43.2550011","longitude_centre":"2.2479999","distance_km":5.28},{"id":709,"code_insee":"11069","nom_standard":"Carcassonne","nom_a":null,"nom_de":null,"slug_ville":"carcassonne","departement_id":611,"code_postal":"11000","population":46218,"superficie_km2":"65.00","latitude_centre":"43.2089996","longitude_centre":"2.3440001","distance_km":5.3},{"id":712,"code_insee":"11084","nom_standard":"Caux-et-Sauzens","nom_a":null,"nom_de":null,"slug_ville":"caux-et-sauzens","departement_id":611,"code_postal":"11170","population":1001,"superficie_km2":"9.00","latitude_centre":"43.2260017","longitude_centre":"2.2539999","distance_km":5.53},{"id":715,"code_insee":"11099","nom_standard":"Conques-sur-Orbiel","nom_a":null,"nom_de":null,"slug_ville":"conques-sur-orbiel","departement_id":611,"code_postal":"11600","population":2575,"superficie_km2":"26.00","latitude_centre":"43.2840004","longitude_centre":"2.3840001","distance_km":6.82},{"id":729,"code_insee":"11199","nom_standard":"Lavalette","nom_a":null,"nom_de":null,"slug_ville":"lavalette","departement_id":611,"code_postal":"11290","population":1532,"superficie_km2":"7.00","latitude_centre":"43.1920013","longitude_centre":"2.2709999","distance_km":7.39},{"id":713,"code_insee":"11088","nom_standard":"Cazilhac","nom_a":null,"nom_de":null,"slug_ville":"cazilhac","departement_id":611,"code_postal":"11570","population":1643,"superficie_km2":"4.00","latitude_centre":"43.1780014","longitude_centre":"2.3590000","distance_km":8.93},{"id":697,"code_insee":"11005","nom_standard":"Alairac","nom_a":null,"nom_de":null,"slug_ville":"alairac","departement_id":611,"code_postal":"11290","population":1364,"superficie_km2":"17.00","latitude_centre":"43.1819992","longitude_centre":"2.2370000","distance_km":9.84},{"id":701,"code_insee":"11018","nom_standard":"Arzens","nom_a":null,"nom_de":null,"slug_ville":"arzens","departement_id":611,"code_postal":"11290","population":1202,"superficie_km2":"22.00","latitude_centre":"43.2010002","longitude_centre":"2.2049999","distance_km":10.37},{"id":765,"code_insee":"11426","nom_standard":"Villegly","nom_a":null,"nom_de":null,"slug_ville":"villegly","departement_id":611,"code_postal":"11600","population":1208,"superficie_km2":"10.00","latitude_centre":"43.2929993","longitude_centre":"2.4370000","distance_km":11.07},{"id":743,"code_insee":"11272","nom_standard":"Palaja","nom_a":null,"nom_de":null,"slug_ville":"palaja","departement_id":611,"code_postal":"11570","population":2594,"superficie_km2":"15.00","latitude_centre":"43.1669998","longitude_centre":"2.3870001","distance_km":11.1},{"id":698,"code_insee":"11009","nom_standard":"Alzonne","nom_a":null,"nom_de":null,"slug_ville":"alzonne","departement_id":611,"code_postal":"11170","population":1595,"superficie_km2":"22.00","latitude_centre":"43.2649994","longitude_centre":"2.1750000","distance_km":11.28},{"id":762,"code_insee":"11397","nom_standard":"Trèbes","nom_a":null,"nom_de":null,"slug_ville":"trebes","departement_id":611,"code_postal":"11800","population":5416,"superficie_km2":"18.00","latitude_centre":"43.2060013","longitude_centre":"2.4600000","distance_km":12.92},{"id":735,"code_insee":"11254","nom_standard":"Montréal","nom_a":null,"nom_de":null,"slug_ville":"montreal","departement_id":611,"code_postal":"11290","population":2048,"superficie_km2":"56.00","latitude_centre":"43.2000008","longitude_centre":"2.1480000","distance_km":14.52},{"id":706,"code_insee":"11049","nom_standard":"Bram","nom_a":null,"nom_de":null,"slug_ville":"bram","departement_id":611,"code_postal":"11150","population":3239,"superficie_km2":"18.00","latitude_centre":"43.2509995","longitude_centre":"2.1099999","distance_km":16.44},{"id":768,"code_insee":"11434","nom_standard":"Villepinte","nom_a":null,"nom_de":null,"slug_ville":"villepinte","departement_id":611,"code_postal":"11150","population":1257,"superficie_km2":"15.00","latitude_centre":"43.2809982","longitude_centre":"2.0960000","distance_km":17.88},{"id":711,"code_insee":"11081","nom_standard":"Caunes-Minervois","nom_a":null,"nom_de":null,"slug_ville":"caunes-minervois","departement_id":611,"code_postal":"11160","population":1581,"superficie_km2":"29.00","latitude_centre":"43.3330002","longitude_centre":"2.5160000","distance_km":18.79},{"id":708,"code_insee":"11068","nom_standard":"Capendu","nom_a":null,"nom_de":null,"slug_ville":"capendu","departement_id":611,"code_postal":"11700","population":1470,"superficie_km2":"16.00","latitude_centre":"43.1839981","longitude_centre":"2.5539999","distance_km":20.9},{"id":748,"code_insee":"11286","nom_standard":"Peyriac-Minervois","nom_a":null,"nom_de":null,"slug_ville":"peyriac-minervois","departement_id":611,"code_postal":"11160","population":1160,"superficie_km2":"10.00","latitude_centre":"43.2939987","longitude_centre":"2.5669999","distance_km":21.11}]}