{"ville":{"id":22383,"code_insee":"46172","nom_standard":"Pern-Lhospitalet","nom_a":null,"nom_de":null,"slug_ville":"pern-lhospitalet","departement_id":0,"code_postal":"46170","population":925,"superficie_km2":"4065.37","latitude_centre":"44.3423","longitude_centre":"1.4128","dep_code":"46","dep_nom":"Lot","dep_slug":"lot","reg_code":"76","reg_nom":"Occitanie","reg_slug":"occitanie"},"departement":{"code":"46","nom":"Lot","slug":"lot"},"region":{"code":"76","nom":"Occitanie","slug":"occitanie"},"villes_proches":[{"id":0,"code_insee":"46137","nom_standard":"Labastide-Marnhac","nom_a":null,"nom_de":null,"slug_ville":"labastide-marnhac","departement_id":0,"code_postal":"46090","population":1311,"superficie_km2":"2877.09","latitude_centre":"44.389","longitude_centre":"1.3861","distance_km":5.61},{"id":22297,"code_insee":"46069","nom_standard":"Cézac","nom_a":null,"nom_de":null,"slug_ville":"cezac","departement_id":0,"code_postal":"46170","population":179,"superficie_km2":"1752.97","latitude_centre":"44.3481","longitude_centre":"1.3426","distance_km":5.62},{"id":0,"code_insee":"46197","nom_standard":"Le Montat","nom_a":null,"nom_de":null,"slug_ville":"le-montat","departement_id":0,"code_postal":"46090","population":1107,"superficie_km2":"2253.08","latitude_centre":"44.3881","longitude_centre":"1.4567","distance_km":6.17},{"id":22325,"code_insee":"46103","nom_standard":"Saint-Paul-Flaugnac","nom_a":null,"nom_de":null,"slug_ville":"saint-paul-flaugnac","departement_id":0,"code_postal":"46170","population":996,"superficie_km2":"5158.28","latitude_centre":"44.2859","longitude_centre":"1.4255","distance_km":6.35},{"id":22331,"code_insee":"46109","nom_standard":"Fontanes","nom_a":null,"nom_de":null,"slug_ville":"fontanes","departement_id":0,"code_postal":"46230","population":547,"superficie_km2":"1658.30","latitude_centre":"44.3256","longitude_centre":"1.4926","distance_km":6.61},{"id":22298,"code_insee":"46070","nom_standard":"Cieurac","nom_a":null,"nom_de":null,"slug_ville":"cieurac","departement_id":0,"code_postal":"46230","population":660,"superficie_km2":"1866.86","latitude_centre":"44.3773","longitude_centre":"1.5002","distance_km":7.96},{"id":0,"code_insee":"46202","nom_standard":"Montdoumerc","nom_a":null,"nom_de":null,"slug_ville":"montdoumerc","departement_id":0,"code_postal":"46230","population":577,"superficie_km2":"1361.42","latitude_centre":"44.2909","longitude_centre":"1.5001","distance_km":8.99},{"id":0,"code_insee":"46063","nom_standard":"Castelnau-Montratier","nom_a":null,"nom_de":null,"slug_ville":"castelnau-montratier","departement_id":0,"code_postal":"46170","population":1840,"superficie_km2":"8532.76","latitude_centre":"44.2677","longitude_centre":"1.3525","distance_km":9.58},{"id":22327,"code_insee":"46105","nom_standard":"Flaujac-Poujols","nom_a":null,"nom_de":null,"slug_ville":"flaujac-poujols","departement_id":0,"code_postal":"46090","population":811,"superficie_km2":"1262.90","latitude_centre":"44.408","longitude_centre":"1.496","distance_km":9.85},{"id":0,"code_insee":"46335","nom_standard":"Villesèque","nom_a":null,"nom_de":null,"slug_ville":"villeseque","departement_id":0,"code_postal":"46090","population":409,"superficie_km2":"2343.29","latitude_centre":"44.3979","longitude_centre":"1.3164","distance_km":9.85},{"id":0,"code_insee":"46322","nom_standard":"Trespoux-Rassiels","nom_a":null,"nom_de":null,"slug_ville":"trespoux-rassiels","departement_id":0,"code_postal":"46090","population":845,"superficie_km2":"2058.44","latitude_centre":"44.4255","longitude_centre":"1.3573","distance_km":10.25},{"id":22358,"code_insee":"46140","nom_standard":"Laburgade","nom_a":null,"nom_de":null,"slug_ville":"laburgade","departement_id":0,"code_postal":"46230","population":379,"superficie_km2":"1243.24","latitude_centre":"44.3898","longitude_centre":"1.5408","distance_km":11.46},{"id":0,"code_insee":"46262","nom_standard":"Lendou-en-Quercy","nom_a":null,"nom_de":null,"slug_ville":"lendou-en-quercy","departement_id":0,"code_postal":"46800","population":612,"superficie_km2":"4275.46","latitude_centre":"44.3125","longitude_centre":"1.2684","distance_km":11.95},{"id":0,"code_insee":"82131","nom_standard":"Montpezat-de-Quercy","nom_a":null,"nom_de":null,"slug_ville":"montpezat-de-quercy","departement_id":0,"code_postal":"82270","population":1590,"superficie_km2":"4396.64","latitude_centre":"44.2392","longitude_centre":"1.4738","distance_km":12.45},{"id":0,"code_insee":"82128","nom_standard":"Montfermier","nom_a":null,"nom_de":null,"slug_ville":"montfermier","departement_id":0,"code_postal":"82270","population":111,"superficie_km2":"656.37","latitude_centre":"44.2274","longitude_centre":"1.4171","distance_km":12.78},{"id":0,"code_insee":"46042","nom_standard":"Cahors","nom_a":null,"nom_de":null,"slug_ville":"cahors","departement_id":0,"code_postal":"46000","population":20050,"superficie_km2":"6488.33","latitude_centre":"44.4565","longitude_centre":"1.439","distance_km":12.87},{"id":22281,"code_insee":"46050","nom_standard":"Cambayrac","nom_a":null,"nom_de":null,"slug_ville":"cambayrac","departement_id":0,"code_postal":"46140","population":136,"superficie_km2":"735.67","latitude_centre":"44.4307","longitude_centre":"1.2929","distance_km":13.69},{"id":0,"code_insee":"46224","nom_standard":"Pradines","nom_a":null,"nom_de":null,"slug_ville":"pradines","departement_id":0,"code_postal":"46090","population":3617,"superficie_km2":"1644.05","latitude_centre":"44.4647","longitude_centre":"1.3891","distance_km":13.74},{"id":0,"code_insee":"46296","nom_standard":"Saint-Vincent-Rive-d'Olt","nom_a":null,"nom_de":null,"slug_ville":"saint-vincent-rive-d-olt","departement_id":0,"code_postal":"46140","population":442,"superficie_km2":"1988.42","latitude_centre":"44.4486","longitude_centre":"1.3139","distance_km":14.19},{"id":22313,"code_insee":"46088","nom_standard":"Douelle","nom_a":null,"nom_de":null,"slug_ville":"douelle","departement_id":0,"code_postal":"46140","population":830,"superficie_km2":"914.69","latitude_centre":"44.4709","longitude_centre":"1.3563","distance_km":14.99}]}