{"ville":{"id":3879,"code_insee":"39411","nom_standard":"Perrigny","nom_a":null,"nom_de":null,"slug_ville":"perrigny","departement_id":640,"code_postal":"39570","population":1518,"superficie_km2":"9.00","latitude_centre":"46.6769981","longitude_centre":"5.5990000","dep_code":"39","dep_nom":"Jura","dep_slug":"jura","reg_code":"02","reg_nom":"Bourgogne-Franche-Comté","reg_slug":"bourgogne-franche-comte"},"departement":{"code":"39","nom":"Jura","slug":"jura"},"region":{"code":"02","nom":"Bourgogne-Franche-Comté","slug":"bourgogne-franche-comte"},"villes_proches":[{"id":3867,"code_insee":"39300","nom_standard":"Lons-le-Saunier","nom_a":null,"nom_de":null,"slug_ville":"lons-le-saunier","departement_id":640,"code_postal":"39000","population":17043,"superficie_km2":"8.00","latitude_centre":"46.6739998","longitude_centre":"5.5570002","distance_km":3.22},{"id":3868,"code_insee":"39306","nom_standard":"Macornay","nom_a":null,"nom_de":null,"slug_ville":"macornay","departement_id":640,"code_postal":"39570","population":1003,"superficie_km2":"5.00","latitude_centre":"46.6419983","longitude_centre":"5.5450001","distance_km":5.67},{"id":3871,"code_insee":"39362","nom_standard":"Montmorot","nom_a":null,"nom_de":null,"slug_ville":"montmorot","departement_id":640,"code_postal":"39570","population":3154,"superficie_km2":"11.00","latitude_centre":"46.6870003","longitude_centre":"5.5200000","distance_km":6.13},{"id":3861,"code_insee":"39199","nom_standard":"Domblans","nom_a":null,"nom_de":null,"slug_ville":"domblans","departement_id":640,"code_postal":"39210","population":1207,"superficie_km2":"10.00","latitude_centre":"46.7620010","longitude_centre":"5.5900002","distance_km":9.48},{"id":3855,"code_insee":"39171","nom_standard":"Courlaoux","nom_a":null,"nom_de":null,"slug_ville":"courlaoux","departement_id":640,"code_postal":"39570","population":1136,"superficie_km2":"13.00","latitude_centre":"46.6699982","longitude_centre":"5.4489999","distance_km":11.47},{"id":3846,"code_insee":"39017","nom_standard":"Arlay","nom_a":null,"nom_de":null,"slug_ville":"arlay","departement_id":640,"code_postal":"39140","population":1187,"superficie_km2":"14.00","latitude_centre":"46.7700005","longitude_centre":"5.5289998","distance_km":11.64},{"id":3848,"code_insee":"39056","nom_standard":"Bletterans","nom_a":null,"nom_de":null,"slug_ville":"bletterans","departement_id":640,"code_postal":"39140","population":1527,"superficie_km2":"8.00","latitude_centre":"46.7319984","longitude_centre":"5.4280000","distance_km":14.4},{"id":3847,"code_insee":"39043","nom_standard":"Beaufort-Orbagna","nom_a":null,"nom_de":null,"slug_ville":"beaufort-orbagna","departement_id":640,"code_postal":"39190","population":1444,"superficie_km2":"13.00","latitude_centre":"46.5859985","longitude_centre":"5.4299998","distance_km":16.4},{"id":7501,"code_insee":"71506","nom_standard":"Savigny-en-Revermont","nom_a":null,"nom_de":null,"slug_ville":"savigny-en-revermont","departement_id":672,"code_postal":"71580","population":1129,"superficie_km2":"28.00","latitude_centre":"46.6339989","longitude_centre":"5.3909998","distance_km":16.58},{"id":3854,"code_insee":"39154","nom_standard":"Clairvaux-les-Lacs","nom_a":null,"nom_de":null,"slug_ville":"clairvaux-les-lacs","departement_id":640,"code_postal":"39130","population":1426,"superficie_km2":"12.00","latitude_centre":"46.5649986","longitude_centre":"5.7550001","distance_km":17.23},{"id":3881,"code_insee":"39434","nom_standard":"Poligny","nom_a":null,"nom_de":null,"slug_ville":"poligny","departement_id":640,"code_postal":"39800","population":4011,"superficie_km2":"51.00","latitude_centre":"46.8219986","longitude_centre":"5.7329998","distance_km":19.08},{"id":3877,"code_insee":"39397","nom_standard":"Orgelet","nom_a":null,"nom_de":null,"slug_ville":"orgelet","departement_id":640,"code_postal":"39270","population":1587,"superficie_km2":"26.00","latitude_centre":"46.5060005","longitude_centre":"5.6220002","distance_km":19.1},{"id":7478,"code_insee":"71379","nom_standard":"Sagy","nom_a":null,"nom_de":null,"slug_ville":"sagy","departement_id":672,"code_postal":"71580","population":1241,"superficie_km2":"34.00","latitude_centre":"46.5940018","longitude_centre":"5.3239999","distance_km":22.94},{"id":3856,"code_insee":"39173","nom_standard":"Cousance","nom_a":null,"nom_de":null,"slug_ville":"cousance","departement_id":640,"code_postal":"39190","population":1293,"superficie_km2":"7.00","latitude_centre":"46.5330010","longitude_centre":"5.3769999","distance_km":23.32},{"id":3850,"code_insee":"39097","nom_standard":"Champagnole","nom_a":null,"nom_de":null,"slug_ville":"champagnole","departement_id":640,"code_postal":"39300","population":8000,"superficie_km2":"20.00","latitude_centre":"46.7439995","longitude_centre":"5.8990002","distance_km":24.06},{"id":7435,"code_insee":"71157","nom_standard":"Cuiseaux","nom_a":null,"nom_de":null,"slug_ville":"cuiseaux","departement_id":672,"code_postal":"71480","population":1837,"superficie_km2":"21.00","latitude_centre":"46.5050011","longitude_centre":"5.3639998","distance_km":26.23},{"id":7494,"code_insee":"71484","nom_standard":"Saint-Usuge","nom_a":null,"nom_de":null,"slug_ville":"saint-usuge","departement_id":672,"code_postal":"71500","population":1240,"superficie_km2":"32.00","latitude_centre":"46.6899986","longitude_centre":"5.2410002","distance_km":27.35},{"id":3844,"code_insee":"39013","nom_standard":"Arbois","nom_a":null,"nom_de":null,"slug_ville":"arbois","departement_id":640,"code_postal":"39600","population":3193,"superficie_km2":"45.00","latitude_centre":"46.8940010","longitude_centre":"5.7729998","distance_km":27.53},{"id":7483,"code_insee":"71419","nom_standard":"Saint-Germain-du-Bois","nom_a":null,"nom_de":null,"slug_ville":"saint-germain-du-bois","departement_id":672,"code_postal":"71330","population":1917,"superficie_km2":"30.00","latitude_centre":"46.7400017","longitude_centre":"5.2449999","distance_km":27.89},{"id":7453,"code_insee":"71263","nom_standard":"Louhans","nom_a":null,"nom_de":null,"slug_ville":"louhans","departement_id":672,"code_postal":"71500","population":6454,"superficie_km2":"23.00","latitude_centre":"46.6349983","longitude_centre":"5.2379999","distance_km":27.95}]}