{"ville":{"id":33707,"code_insee":"82138","nom_standard":"Perville","nom_a":null,"nom_de":null,"slug_ville":"perville","departement_id":0,"code_postal":"82400","population":165,"superficie_km2":"929.87","latitude_centre":"44.1788","longitude_centre":"0.8801","dep_code":"82","dep_nom":"Tarn-et-Garonne","dep_slug":"tarn-et-garonne","reg_code":"76","reg_nom":"Occitanie","reg_slug":"occitanie"},"departement":{"code":"82","nom":"Tarn-et-Garonne","slug":"tarn-et-garonne"},"region":{"code":"76","nom":"Occitanie","slug":"occitanie"},"villes_proches":[{"id":22604,"code_insee":"47113","nom_standard":"Grayssas","nom_a":null,"nom_de":null,"slug_ville":"grayssas","departement_id":0,"code_postal":"47270","population":150,"superficie_km2":"938.05","latitude_centre":"44.1592","longitude_centre":"0.8592","distance_km":2.74},{"id":33665,"code_insee":"82065","nom_standard":"Gasques","nom_a":null,"nom_de":null,"slug_ville":"gasques","departement_id":0,"code_postal":"82400","population":404,"superficie_km2":"1337.76","latitude_centre":"44.1509","longitude_centre":"0.9099","distance_km":3.91},{"id":22735,"code_insee":"47281","nom_standard":"Saint-Urcisse","nom_a":null,"nom_de":null,"slug_ville":"saint-urcisse","departement_id":0,"code_postal":"47270","population":242,"superficie_km2":"1095.76","latitude_centre":"44.1632","longitude_centre":"0.8311","distance_km":4.28},{"id":22719,"code_insee":"47260","nom_standard":"Saint-Maurin","nom_a":null,"nom_de":null,"slug_ville":"saint-maurin","departement_id":0,"code_postal":"47270","population":377,"superficie_km2":"2181.91","latitude_centre":"44.2185","longitude_centre":"0.8949","distance_km":4.57},{"id":22756,"code_insee":"47305","nom_standard":"Tayrac","nom_a":null,"nom_de":null,"slug_ville":"tayrac","departement_id":0,"code_postal":"47270","population":381,"superficie_km2":"1298.75","latitude_centre":"44.2087","longitude_centre":"0.8351","distance_km":4.89},{"id":33704,"code_insee":"82130","nom_standard":"Montjoi","nom_a":null,"nom_de":null,"slug_ville":"montjoi","departement_id":0,"code_postal":"82400","population":172,"superficie_km2":"1478.10","latitude_centre":"44.2029","longitude_centre":"0.9331","distance_km":5.0},{"id":22569,"code_insee":"47067","nom_standard":"Clermont-Soubiran","nom_a":null,"nom_de":null,"slug_ville":"clermont-soubiran","departement_id":0,"code_postal":"47270","population":395,"superficie_km2":"1038.81","latitude_centre":"44.1413","longitude_centre":"0.8409","distance_km":5.21},{"id":33642,"code_insee":"82032","nom_standard":"Castelsagrat","nom_a":null,"nom_de":null,"slug_ville":"castelsagrat","departement_id":0,"code_postal":"82400","population":547,"superficie_km2":"2265.91","latitude_centre":"44.1727","longitude_centre":"0.9513","distance_km":5.72},{"id":0,"code_insee":"82160","nom_standard":"Saint-Clair","nom_a":null,"nom_de":null,"slug_ville":"saint-clair","departement_id":0,"code_postal":"82400","population":260,"superficie_km2":"841.27","latitude_centre":"44.1522","longitude_centre":"0.9447","distance_km":5.94},{"id":22682,"code_insee":"47217","nom_standard":"Puymirol","nom_a":null,"nom_de":null,"slug_ville":"puymirol","departement_id":0,"code_postal":"47270","population":899,"superficie_km2":"1964.68","latitude_centre":"44.1916","longitude_centre":"0.8076","distance_km":5.95},{"id":22580,"code_insee":"47082","nom_standard":"Dondas","nom_a":null,"nom_de":null,"slug_ville":"dondas","departement_id":0,"code_postal":"47470","population":219,"superficie_km2":"1446.75","latitude_centre":"44.2397","longitude_centre":"0.8614","distance_km":6.93},{"id":0,"code_insee":"82089","nom_standard":"Lamagistère","nom_a":null,"nom_de":null,"slug_ville":"lamagistere","departement_id":0,"code_postal":"82360","population":1218,"superficie_km2":"913.21","latitude_centre":"44.1309","longitude_centre":"0.8228","distance_km":7.02},{"id":22714,"code_insee":"47255","nom_standard":"Saint-Martin-de-Beauville","nom_a":null,"nom_de":null,"slug_ville":"saint-martin-de-beauville","departement_id":0,"code_postal":"47270","population":154,"superficie_km2":"758.51","latitude_centre":"44.2306","longitude_centre":"0.8196","distance_km":7.51},{"id":0,"code_insee":"82072","nom_standard":"Golfech","nom_a":null,"nom_de":null,"slug_ville":"golfech","departement_id":0,"code_postal":"82400","population":1007,"superficie_km2":"954.96","latitude_centre":"44.1105","longitude_centre":"0.8572","distance_km":7.81},{"id":22584,"code_insee":"47087","nom_standard":"Engayrac","nom_a":null,"nom_de":null,"slug_ville":"engayrac","departement_id":0,"code_postal":"47470","population":160,"superficie_km2":"1007.95","latitude_centre":"44.2526","longitude_centre":"0.8941","distance_km":8.28},{"id":0,"code_insee":"82186","nom_standard":"Valence","nom_a":null,"nom_de":null,"slug_ville":"valence","departement_id":0,"code_postal":"82400","population":5289,"superficie_km2":"1356.72","latitude_centre":"44.1064","longitude_centre":"0.9043","distance_km":8.28},{"id":33672,"code_insee":"82073","nom_standard":"Goudourville","nom_a":null,"nom_de":null,"slug_ville":"goudourville","departement_id":0,"code_postal":"82400","population":976,"superficie_km2":"1130.46","latitude_centre":"44.113","longitude_centre":"0.9304","distance_km":8.35},{"id":22742,"code_insee":"47289","nom_standard":"La Sauvetat-de-Savères","nom_a":null,"nom_de":null,"slug_ville":"la-sauvetat-de-saveres","departement_id":0,"code_postal":"47270","population":479,"superficie_km2":"691.97","latitude_centre":"44.2333","longitude_centre":"0.7965","distance_km":9.01},{"id":33635,"code_insee":"82022","nom_standard":"Bourg-de-Visa","nom_a":null,"nom_de":null,"slug_ville":"bourg-de-visa","departement_id":0,"code_postal":"82190","population":396,"superficie_km2":"1447.86","latitude_centre":"44.2485","longitude_centre":"0.9525","distance_km":9.66},{"id":22540,"code_insee":"47025","nom_standard":"Beauville","nom_a":null,"nom_de":null,"slug_ville":"beauville","departement_id":0,"code_postal":"47470","population":551,"superficie_km2":"2329.49","latitude_centre":"44.2755","longitude_centre":"0.8971","distance_km":10.84}]}