{"ville":{"id":25839,"code_insee":"57536","nom_standard":"Petit-Tenquin","nom_a":null,"nom_de":null,"slug_ville":"petit-tenquin","departement_id":0,"code_postal":"57660","population":217,"superficie_km2":"486.67","latitude_centre":"48.9883","longitude_centre":"6.8698","dep_code":"57","dep_nom":"Moselle","dep_slug":"moselle","reg_code":"44","reg_nom":"Grand Est","reg_slug":"grand-est"},"departement":{"code":"57","nom":"Moselle","slug":"moselle"},"region":{"code":"44","nom":"Grand Est","slug":"grand-est"},"villes_proches":[{"id":25815,"code_insee":"57497","nom_standard":"Nelling","nom_a":null,"nom_de":null,"slug_ville":"nelling","departement_id":0,"code_postal":"57670","population":266,"superficie_km2":"740.21","latitude_centre":"48.9695","longitude_centre":"6.8601","distance_km":2.21},{"id":25583,"code_insee":"57178","nom_standard":"Diffembach-lès-Hellimer","nom_a":null,"nom_de":null,"slug_ville":"diffembach-les-hellimer","departement_id":0,"code_postal":"57660","population":359,"superficie_km2":"577.52","latitude_centre":"49.007","longitude_centre":"6.8557","distance_km":2.32},{"id":25679,"code_insee":"57311","nom_standard":"Hellimer","nom_a":null,"nom_de":null,"slug_ville":"hellimer","departement_id":0,"code_postal":"57660","population":523,"superficie_km2":"1040.71","latitude_centre":"48.9931","longitude_centre":"6.8348","distance_km":2.61},{"id":25637,"code_insee":"57258","nom_standard":"Gréning","nom_a":null,"nom_de":null,"slug_ville":"grening","departement_id":0,"code_postal":"57660","population":113,"superficie_km2":"275.36","latitude_centre":"48.9725","longitude_centre":"6.8416","distance_km":2.71},{"id":25715,"code_insee":"57357","nom_standard":"Kappelkinger","nom_a":null,"nom_de":null,"slug_ville":"kappelkinger","departement_id":0,"code_postal":"57430","population":425,"superficie_km2":"854.35","latitude_centre":"48.9768","longitude_centre":"6.9088","distance_km":3.12},{"id":25692,"code_insee":"57325","nom_standard":"Hilsprich","nom_a":null,"nom_de":null,"slug_ville":"hilsprich","departement_id":0,"code_postal":"57510","population":847,"superficie_km2":"1035.07","latitude_centre":"49.0054","longitude_centre":"6.9094","distance_km":3.46},{"id":25707,"code_insee":"57346","nom_standard":"Insming","nom_a":null,"nom_de":null,"slug_ville":"insming","departement_id":0,"code_postal":"57670","population":605,"superficie_km2":"721.74","latitude_centre":"48.9562","longitude_centre":"6.8831","distance_km":3.7},{"id":0,"code_insee":"57615","nom_standard":"Saint-Jean-Rohrbach","nom_a":null,"nom_de":null,"slug_ville":"saint-jean-rohrbach","departement_id":0,"code_postal":"57510","population":960,"superficie_km2":"1218.16","latitude_centre":"49.0274","longitude_centre":"6.8801","distance_km":4.41},{"id":0,"code_insee":"57573","nom_standard":"Réning","nom_a":null,"nom_de":null,"slug_ville":"rening","departement_id":0,"code_postal":"57670","population":127,"superficie_km2":"404.75","latitude_centre":"48.9489","longitude_centre":"6.8436","distance_km":4.78},{"id":25746,"code_insee":"57398","nom_standard":"Leyviller","nom_a":null,"nom_de":null,"slug_ville":"leyviller","departement_id":0,"code_postal":"57660","population":502,"superficie_km2":"720.89","latitude_centre":"49.0299","longitude_centre":"6.8387","distance_km":5.15},{"id":25742,"code_insee":"57394","nom_standard":"Léning","nom_a":null,"nom_de":null,"slug_ville":"lening","departement_id":0,"code_postal":"57670","population":321,"superficie_km2":"649.80","latitude_centre":"48.9547","longitude_centre":"6.8188","distance_km":5.27},{"id":25467,"code_insee":"57014","nom_standard":"Altrippe","nom_a":null,"nom_de":null,"slug_ville":"altrippe","departement_id":0,"code_postal":"57660","population":365,"superficie_km2":"487.25","latitude_centre":"49.0274","longitude_centre":"6.8167","distance_km":5.82},{"id":25617,"code_insee":"57232","nom_standard":"Francaltroff","nom_a":null,"nom_de":null,"slug_ville":"francaltroff","departement_id":0,"code_postal":"57670","population":750,"superficie_km2":"1249.49","latitude_centre":"48.963","longitude_centre":"6.7959","distance_km":6.08},{"id":25676,"code_insee":"57308","nom_standard":"Hazembourg","nom_a":null,"nom_de":null,"slug_ville":"hazembourg","departement_id":0,"code_postal":"57430","population":152,"superficie_km2":"168.80","latitude_centre":"48.9633","longitude_centre":"6.9452","distance_km":6.17},{"id":0,"code_insee":"57725","nom_standard":"Vittersbourg","nom_a":null,"nom_de":null,"slug_ville":"vittersbourg","departement_id":0,"code_postal":"57670","population":334,"superficie_km2":"714.09","latitude_centre":"48.9485","longitude_centre":"6.934","distance_km":6.45},{"id":25466,"code_insee":"57011","nom_standard":"Albestroff","nom_a":null,"nom_de":null,"slug_ville":"albestroff","departement_id":0,"code_postal":"57670","population":606,"superficie_km2":"1905.23","latitude_centre":"48.93","longitude_centre":"6.8723","distance_km":6.49},{"id":0,"code_insee":"57571","nom_standard":"Rémering-lès-Puttelange","nom_a":null,"nom_de":null,"slug_ville":"remering-les-puttelange","departement_id":0,"code_postal":"57510","population":1050,"superficie_km2":"920.99","latitude_centre":"49.0332","longitude_centre":"6.9294","distance_km":6.62},{"id":25803,"code_insee":"57478","nom_standard":"Montdidier","nom_a":null,"nom_de":null,"slug_ville":"montdidier","departement_id":0,"code_postal":"57670","population":81,"superficie_km2":"191.19","latitude_centre":"48.9339","longitude_centre":"6.8153","distance_km":7.24},{"id":25629,"code_insee":"57248","nom_standard":"Givrycourt","nom_a":null,"nom_de":null,"slug_ville":"givrycourt","departement_id":0,"code_postal":"57670","population":95,"superficie_km2":"277.26","latitude_centre":"48.9286","longitude_centre":"6.9161","distance_km":7.45},{"id":25700,"code_insee":"57337","nom_standard":"Hoste","nom_a":null,"nom_de":null,"slug_ville":"hoste","departement_id":0,"code_postal":"57510","population":562,"superficie_km2":"946.59","latitude_centre":"49.0579","longitude_centre":"6.8667","distance_km":7.74}]}