{"ville":{"id":29913,"code_insee":"68257","nom_standard":"Pfetterhouse","nom_a":null,"nom_de":null,"slug_ville":"pfetterhouse","departement_id":0,"code_postal":"68480","population":987,"superficie_km2":"1426.79","latitude_centre":"47.5089","longitude_centre":"7.1669","dep_code":"68","dep_nom":"Haut-Rhin","dep_slug":"haut-rhin","reg_code":"44","reg_nom":"Grand Est","reg_slug":"grand-est"},"departement":{"code":"68","nom":"Haut-Rhin","slug":"haut-rhin"},"region":{"code":"44","nom":"Grand Est","slug":"grand-est"},"villes_proches":[{"id":0,"code_insee":"68306","nom_standard":"Seppois-le-Haut","nom_a":null,"nom_de":null,"slug_ville":"seppois-le-haut","departement_id":0,"code_postal":"68580","population":505,"superficie_km2":"625.13","latitude_centre":"47.5327","longitude_centre":"7.1851","distance_km":2.98},{"id":0,"code_insee":"68305","nom_standard":"Seppois-le-Bas","nom_a":null,"nom_de":null,"slug_ville":"seppois-le-bas","departement_id":0,"code_postal":"68580","population":1443,"superficie_km2":"673.22","latitude_centre":"47.5378","longitude_centre":"7.1676","distance_km":3.21},{"id":29894,"code_insee":"68216","nom_standard":"Mooslargue","nom_a":null,"nom_de":null,"slug_ville":"mooslargue","departement_id":0,"code_postal":"68580","population":401,"superficie_km2":"560.54","latitude_centre":"47.511","longitude_centre":"7.2151","distance_km":3.63},{"id":0,"code_insee":"90081","nom_standard":"Réchésy","nom_a":null,"nom_de":null,"slug_ville":"rechesy","departement_id":0,"code_postal":"90370","population":764,"superficie_km2":"1264.88","latitude_centre":"47.5169","longitude_centre":"7.1175","distance_km":3.82},{"id":0,"code_insee":"68340","nom_standard":"Ueberstrass","nom_a":null,"nom_de":null,"slug_ville":"ueberstrass","departement_id":0,"code_postal":"68580","population":333,"superficie_km2":"511.19","latitude_centre":"47.545","longitude_centre":"7.1544","distance_km":4.12},{"id":29802,"code_insee":"68067","nom_standard":"Courtavon","nom_a":null,"nom_de":null,"slug_ville":"courtavon","departement_id":0,"code_postal":"68480","population":343,"superficie_km2":"970.73","latitude_centre":"47.4728","longitude_centre":"7.2038","distance_km":4.88},{"id":29805,"code_insee":"68074","nom_standard":"Durlinsdorf","nom_a":null,"nom_de":null,"slug_ville":"durlinsdorf","departement_id":0,"code_postal":"68480","population":498,"superficie_km2":"776.27","latitude_centre":"47.4908","longitude_centre":"7.2296","distance_km":5.12},{"id":29869,"code_insee":"68184","nom_standard":"Liebsdorf","nom_a":null,"nom_de":null,"slug_ville":"liebsdorf","departement_id":0,"code_postal":"68480","population":286,"superficie_km2":"425.58","latitude_centre":"47.4813","longitude_centre":"7.2238","distance_km":5.26},{"id":29790,"code_insee":"68039","nom_standard":"Bisel","nom_a":null,"nom_de":null,"slug_ville":"bisel","departement_id":0,"code_postal":"68580","population":537,"superficie_km2":"811.29","latitude_centre":"47.5381","longitude_centre":"7.2224","distance_km":5.28},{"id":29820,"code_insee":"68098","nom_standard":"Friesen","nom_a":null,"nom_de":null,"slug_ville":"friesen","departement_id":0,"code_postal":"68580","population":651,"superficie_km2":"842.02","latitude_centre":"47.5597","longitude_centre":"7.1497","distance_km":5.79},{"id":0,"code_insee":"90064","nom_standard":"Lepuix-Neuf","nom_a":null,"nom_de":null,"slug_ville":"lepuix-neuf","departement_id":0,"code_postal":"90100","population":307,"superficie_km2":"548.08","latitude_centre":"47.542","longitude_centre":"7.1071","distance_km":5.81},{"id":29890,"code_insee":"68212","nom_standard":"Mœrnach","nom_a":null,"nom_de":null,"slug_ville":"moernach","departement_id":0,"code_postal":"68480","population":518,"superficie_km2":"677.91","latitude_centre":"47.5093","longitude_centre":"7.246","distance_km":5.94},{"id":29863,"code_insee":"68176","nom_standard":"Largitzen","nom_a":null,"nom_de":null,"slug_ville":"largitzen","departement_id":0,"code_postal":"68580","population":352,"superficie_km2":"564.75","latitude_centre":"47.5623","longitude_centre":"7.1933","distance_km":6.26},{"id":0,"code_insee":"90028","nom_standard":"Courtelevant","nom_a":null,"nom_de":null,"slug_ville":"courtelevant","departement_id":0,"code_postal":"90100","population":379,"superficie_km2":"585.63","latitude_centre":"47.5262","longitude_centre":"7.0846","distance_km":6.47},{"id":29847,"code_insee":"68137","nom_standard":"Hindlingen","nom_a":null,"nom_de":null,"slug_ville":"hindlingen","departement_id":0,"code_postal":"68580","population":646,"superficie_km2":"807.12","latitude_centre":"47.5687","longitude_centre":"7.1449","distance_km":6.85},{"id":29867,"code_insee":"68181","nom_standard":"Levoncourt","nom_a":null,"nom_de":null,"slug_ville":"levoncourt","departement_id":0,"code_postal":"68480","population":250,"superficie_km2":"524.62","latitude_centre":"47.4466","longitude_centre":"7.1922","distance_km":7.18},{"id":29907,"code_insee":"68243","nom_standard":"Oberlarg","nom_a":null,"nom_de":null,"slug_ville":"oberlarg","departement_id":0,"code_postal":"68480","population":143,"superficie_km2":"821.85","latitude_centre":"47.4534","longitude_centre":"7.2292","distance_km":7.75},{"id":29843,"code_insee":"68128","nom_standard":"Heimersdorf","nom_a":null,"nom_de":null,"slug_ville":"heimersdorf","departement_id":0,"code_postal":"68560","population":645,"superficie_km2":"760.72","latitude_centre":"47.5625","longitude_centre":"7.2354","distance_km":7.87},{"id":0,"code_insee":"68330","nom_standard":"Strueth","nom_a":null,"nom_de":null,"slug_ville":"strueth","departement_id":0,"code_postal":"68580","population":360,"superficie_km2":"434.81","latitude_centre":"47.5732","longitude_centre":"7.1147","distance_km":8.15},{"id":29822,"code_insee":"68100","nom_standard":"Fulleren","nom_a":null,"nom_de":null,"slug_ville":"fulleren","departement_id":0,"code_postal":"68210","population":331,"superficie_km2":"531.29","latitude_centre":"47.5917","longitude_centre":"7.1621","distance_km":9.21}]}