{"ville":{"id":33210,"code_insee":"80623","nom_standard":"Piennes-Onvillers","nom_a":null,"nom_de":null,"slug_ville":"piennes-onvillers","departement_id":0,"code_postal":"80500","population":391,"superficie_km2":"1227.62","latitude_centre":"49.6243","longitude_centre":"2.6494","dep_code":"80","dep_nom":"Somme","dep_slug":"somme","reg_code":"32","reg_nom":"Hauts-de-France","reg_slug":"hauts-de-france"},"departement":{"code":"80","nom":"Somme","slug":"somme"},"region":{"code":"32","nom":"Hauts-de-France","slug":"hauts-de-france"},"villes_proches":[{"id":0,"code_insee":"80667","nom_standard":"Remaugies","nom_a":null,"nom_de":null,"slug_ville":"remaugies","departement_id":0,"code_postal":"80500","population":137,"superficie_km2":"416.81","latitude_centre":"49.6276","longitude_centre":"2.6698","distance_km":1.51},{"id":32954,"code_insee":"80306","nom_standard":"Fescamps","nom_a":null,"nom_de":null,"slug_ville":"fescamps","departement_id":0,"code_postal":"80500","population":136,"superficie_km2":"506.19","latitude_centre":"49.6427","longitude_centre":"2.686","distance_km":3.34},{"id":32950,"code_insee":"80302","nom_standard":"Faverolles","nom_a":null,"nom_de":null,"slug_ville":"faverolles","departement_id":0,"code_postal":"80500","population":171,"superficie_km2":"671.54","latitude_centre":"49.6467","longitude_centre":"2.6181","distance_km":3.36},{"id":0,"code_insee":"80678","nom_standard":"Rollot","nom_a":null,"nom_de":null,"slug_ville":"rollot","departement_id":0,"code_postal":"80500","population":755,"superficie_km2":"1207.97","latitude_centre":"49.5932","longitude_centre":"2.6486","distance_km":3.46},{"id":32720,"code_insee":"80032","nom_standard":"Assainvillers","nom_a":null,"nom_de":null,"slug_ville":"assainvillers","departement_id":0,"code_postal":"80500","population":136,"superficie_km2":"730.89","latitude_centre":"49.6236","longitude_centre":"2.5991","distance_km":3.62},{"id":26644,"code_insee":"60093","nom_standard":"Boulogne-la-Grasse","nom_a":null,"nom_de":null,"slug_ville":"boulogne-la-grasse","departement_id":0,"code_postal":"60490","population":472,"superficie_km2":"945.45","latitude_centre":"49.6072","longitude_centre":"2.6981","distance_km":3.99},{"id":33075,"code_insee":"80453","nom_standard":"Laboissière-en-Santerre","nom_a":null,"nom_de":null,"slug_ville":"laboissiere-en-santerre","departement_id":0,"code_postal":"80500","population":134,"superficie_km2":"720.78","latitude_centre":"49.6606","longitude_centre":"2.6664","distance_km":4.22},{"id":26769,"code_insee":"60262","nom_standard":"Le Frestoy-Vaux","nom_a":null,"nom_de":null,"slug_ville":"le-frestoy-vaux","departement_id":0,"code_postal":"60420","population":224,"superficie_km2":"877.95","latitude_centre":"49.595","longitude_centre":"2.6073","distance_km":4.45},{"id":26795,"code_insee":"60294","nom_standard":"Hainvillers","nom_a":null,"nom_de":null,"slug_ville":"hainvillers","departement_id":0,"code_postal":"60490","population":82,"superficie_km2":"300.13","latitude_centre":"49.59","longitude_centre":"2.6849","distance_km":4.59},{"id":32828,"code_insee":"80152","nom_standard":"Bus-la-Mésière","nom_a":null,"nom_de":null,"slug_ville":"bus-la-mesiere","departement_id":0,"code_postal":"80700","population":144,"superficie_km2":"691.72","latitude_centre":"49.6373","longitude_centre":"2.7146","distance_km":4.91},{"id":33097,"code_insee":"80478","nom_standard":"Lignières","nom_a":null,"nom_de":null,"slug_ville":"lignieres","departement_id":0,"code_postal":"80500","population":142,"superficie_km2":"636.70","latitude_centre":"49.6698","longitude_centre":"2.6495","distance_km":5.06},{"id":32942,"code_insee":"80293","nom_standard":"Ételfay","nom_a":null,"nom_de":null,"slug_ville":"etelfay","departement_id":0,"code_postal":"80500","population":348,"superficie_km2":"812.80","latitude_centre":"49.6647","longitude_centre":"2.6087","distance_km":5.36},{"id":0,"code_insee":"80687","nom_standard":"Rubescourt","nom_a":null,"nom_de":null,"slug_ville":"rubescourt","departement_id":0,"code_postal":"80500","population":129,"superficie_km2":"397.95","latitude_centre":"49.6109","longitude_centre":"2.5778","distance_km":5.37},{"id":33025,"code_insee":"80391","nom_standard":"Grivillers","nom_a":null,"nom_de":null,"slug_ville":"grivillers","departement_id":0,"code_postal":"80700","population":91,"superficie_km2":"340.94","latitude_centre":"49.6594","longitude_centre":"2.7021","distance_km":5.44},{"id":26692,"code_insee":"60168","nom_standard":"Courcelles-Epayelles","nom_a":null,"nom_de":null,"slug_ville":"courcelles-epayelles","departement_id":0,"code_postal":"60420","population":210,"superficie_km2":"643.22","latitude_centre":"49.5706","longitude_centre":"2.6283","distance_km":6.16},{"id":26900,"code_insee":"60434","nom_standard":"Mortemer","nom_a":null,"nom_de":null,"slug_ville":"mortemer","departement_id":0,"code_postal":"60490","population":220,"superficie_km2":"659.71","latitude_centre":"49.5698","longitude_centre":"2.6725","distance_km":6.28},{"id":33128,"code_insee":"80517","nom_standard":"Marquivillers","nom_a":null,"nom_de":null,"slug_ville":"marquivillers","departement_id":0,"code_postal":"80700","population":189,"superficie_km2":"578.99","latitude_centre":"49.6813","longitude_centre":"2.6894","distance_km":6.96},{"id":26935,"code_insee":"60483","nom_standard":"Orvillers-Sorel","nom_a":null,"nom_de":null,"slug_ville":"orvillers-sorel","departement_id":0,"code_postal":"60490","population":513,"superficie_km2":"853.31","latitude_centre":"49.5736","longitude_centre":"2.7064","distance_km":6.98},{"id":32757,"code_insee":"80074","nom_standard":"Becquigny","nom_a":null,"nom_de":null,"slug_ville":"becquigny","departement_id":0,"code_postal":"80500","population":109,"superficie_km2":"608.68","latitude_centre":"49.6887","longitude_centre":"2.622","distance_km":7.43},{"id":33028,"code_insee":"80395","nom_standard":"Guerbigny","nom_a":null,"nom_de":null,"slug_ville":"guerbigny","departement_id":0,"code_postal":"80500","population":275,"superficie_km2":"831.47","latitude_centre":"49.6976","longitude_centre":"2.6658","distance_km":8.24}]}