{"ville":{"id":9361,"code_insee":"88349","nom_standard":"Plainfaing","nom_a":null,"nom_de":null,"slug_ville":"plainfaing","departement_id":689,"code_postal":"88230","population":1616,"superficie_km2":"39.00","latitude_centre":"48.1430016","longitude_centre":"7.0380001","dep_code":"88","dep_nom":"Vosges","dep_slug":"vosges","reg_code":"06","reg_nom":"Grand Est","reg_slug":"grand-est"},"departement":{"code":"88","nom":"Vosges","slug":"vosges"},"region":{"code":"06","nom":"Grand Est","slug":"grand-est"},"villes_proches":[{"id":9348,"code_insee":"88181","nom_standard":"Fraize","nom_a":null,"nom_de":null,"slug_ville":"fraize","departement_id":689,"code_postal":"88230","population":2846,"superficie_km2":"16.00","latitude_centre":"48.1860008","longitude_centre":"7.0180001","distance_km":5.01},{"id":7164,"code_insee":"68317","nom_standard":"Soultzeren","nom_a":null,"nom_de":null,"slug_ville":"soultzeren","departement_id":669,"code_postal":"68140","population":1121,"superficie_km2":"18.00","latitude_centre":"48.0830002","longitude_centre":"7.0929999","distance_km":7.82},{"id":7134,"code_insee":"68249","nom_standard":"Orbey","nom_a":null,"nom_de":null,"slug_ville":"orbey","departement_id":669,"code_postal":"68370","population":3453,"superficie_km2":"46.00","latitude_centre":"48.1150017","longitude_centre":"7.1350002","distance_km":7.84},{"id":9320,"code_insee":"88009","nom_standard":"Anould","nom_a":null,"nom_de":null,"slug_ville":"anould","departement_id":689,"code_postal":"88650","population":3301,"superficie_km2":"24.00","latitude_centre":"48.1850014","longitude_centre":"6.9410000","distance_km":8.58},{"id":7112,"code_insee":"68175","nom_standard":"Lapoutroie","nom_a":null,"nom_de":null,"slug_ville":"lapoutroie","departement_id":669,"code_postal":"68650","population":1862,"superficie_km2":"21.00","latitude_centre":"48.1599999","longitude_centre":"7.1589999","distance_km":9.17},{"id":7169,"code_insee":"68329","nom_standard":"Stosswihr","nom_a":null,"nom_de":null,"slug_ville":"stosswihr","departement_id":669,"code_postal":"68140","population":1333,"superficie_km2":"26.00","latitude_centre":"48.0550003","longitude_centre":"7.0609999","distance_km":9.93},{"id":9324,"code_insee":"88032","nom_standard":"Ban-de-Laveline","nom_a":null,"nom_de":null,"slug_ville":"ban-de-laveline","departement_id":689,"code_postal":"88520","population":1183,"superficie_km2":"26.00","latitude_centre":"48.2280006","longitude_centre":"7.0840001","distance_km":10.05},{"id":9396,"code_insee":"88531","nom_standard":"Xonrupt-Longemer","nom_a":null,"nom_de":null,"slug_ville":"xonrupt-longemer","departement_id":689,"code_postal":"88400","population":1488,"superficie_km2":"31.00","latitude_centre":"48.0719986","longitude_centre":"6.9540000","distance_km":10.06},{"id":9336,"code_insee":"88115","nom_standard":"Corcieux","nom_a":null,"nom_de":null,"slug_ville":"corcieux","departement_id":689,"code_postal":"88430","population":1494,"superficie_km2":"18.00","latitude_centre":"48.1669998","longitude_centre":"6.8850002","distance_km":11.66},{"id":9375,"code_insee":"88423","nom_standard":"Saint-Léonard","nom_a":null,"nom_de":null,"slug_ville":"saint-leonard","departement_id":689,"code_postal":"88650","population":1369,"superficie_km2":"14.00","latitude_centre":"48.2150002","longitude_centre":"6.9180002","distance_km":11.97},{"id":7080,"code_insee":"68097","nom_standard":"Fréland","nom_a":null,"nom_de":null,"slug_ville":"freland","departement_id":669,"code_postal":"68240","population":1305,"superficie_km2":"19.00","latitude_centre":"48.1839981","longitude_centre":"7.1880002","distance_km":12.02},{"id":7110,"code_insee":"68173","nom_standard":"Labaroche","nom_a":null,"nom_de":null,"slug_ville":"labaroche","departement_id":669,"code_postal":"68910","population":2116,"superficie_km2":"14.00","latitude_centre":"48.1100006","longitude_centre":"7.1960001","distance_km":12.29},{"id":9380,"code_insee":"88445","nom_standard":"Saulcy-sur-Meurthe","nom_a":null,"nom_de":null,"slug_ville":"saulcy-sur-meurthe","departement_id":689,"code_postal":"88580","population":2319,"superficie_km2":"16.00","latitude_centre":"48.2420006","longitude_centre":"6.9489999","distance_km":12.83},{"id":7126,"code_insee":"68226","nom_standard":"Munster","nom_a":null,"nom_de":null,"slug_ville":"munster","departement_id":669,"code_postal":"68140","population":4707,"superficie_km2":"9.00","latitude_centre":"48.0449982","longitude_centre":"7.1420002","distance_km":13.36},{"id":7157,"code_insee":"68298","nom_standard":"Sainte-Marie-aux-Mines","nom_a":null,"nom_de":null,"slug_ville":"sainte-marie-aux-mines","departement_id":669,"code_postal":"68160","population":5049,"superficie_km2":"45.00","latitude_centre":"48.2290001","longitude_centre":"7.1690001","distance_km":13.63},{"id":9376,"code_insee":"88424","nom_standard":"Sainte-Marguerite","nom_a":null,"nom_de":null,"slug_ville":"sainte-marguerite","departement_id":689,"code_postal":"88100","population":2271,"superficie_km2":"6.00","latitude_centre":"48.2680016","longitude_centre":"6.9730001","distance_km":14.71},{"id":7106,"code_insee":"68162","nom_standard":"Kaysersberg Vignoble","nom_a":null,"nom_de":null,"slug_ville":"kaysersberg-vignoble","departement_id":669,"code_postal":"68240","population":4401,"superficie_km2":"25.00","latitude_centre":"48.1549988","longitude_centre":"7.2379999","distance_km":14.9},{"id":7184,"code_insee":"68368","nom_standard":"Wihr-au-Val","nom_a":null,"nom_de":null,"slug_ville":"wihr-au-val","departement_id":669,"code_postal":"68230","population":1220,"superficie_km2":"12.00","latitude_centre":"48.0550003","longitude_centre":"7.1970000","distance_km":15.34},{"id":9350,"code_insee":"88196","nom_standard":"Gérardmer","nom_a":null,"nom_de":null,"slug_ville":"gerardmer","departement_id":689,"code_postal":"88400","population":7833,"superficie_km2":"56.00","latitude_centre":"48.0649986","longitude_centre":"6.8590002","distance_km":15.87},{"id":7119,"code_insee":"68204","nom_standard":"Metzeral","nom_a":null,"nom_de":null,"slug_ville":"metzeral","departement_id":669,"code_postal":"68380","population":1043,"superficie_km2":"31.00","latitude_centre":"47.9980011","longitude_centre":"7.0250001","distance_km":16.15}]}