{"ville":{"id":30448,"code_insee":"70412","nom_standard":"Plainemont","nom_a":null,"nom_de":null,"slug_ville":"plainemont","departement_id":0,"code_postal":"70800","population":63,"superficie_km2":"329.63","latitude_centre":"47.8469","longitude_centre":"6.2176","dep_code":"70","dep_nom":"Haute-Saône","dep_slug":"haute-saone","reg_code":"27","reg_nom":"Bourgogne-Franche-Comté","reg_slug":"bourgogne-franche-comte"},"departement":{"code":"70","nom":"Haute-Saône","slug":"haute-saone"},"region":{"code":"27","nom":"Bourgogne-Franche-Comté","slug":"bourgogne-franche-comte"},"villes_proches":[{"id":30447,"code_insee":"70411","nom_standard":"La Pisseure","nom_a":null,"nom_de":null,"slug_ville":"la-pisseure","departement_id":0,"code_postal":"70800","population":37,"superficie_km2":"226.92","latitude_centre":"47.8622","longitude_centre":"6.2275","distance_km":1.85},{"id":30101,"code_insee":"70008","nom_standard":"Ainvelle","nom_a":null,"nom_de":null,"slug_ville":"ainvelle","departement_id":0,"code_postal":"70800","population":149,"superficie_km2":"682.45","latitude_centre":"47.848","longitude_centre":"6.2438","distance_km":1.96},{"id":30272,"code_insee":"70196","nom_standard":"Dampierre-lès-Conflans","nom_a":null,"nom_de":null,"slug_ville":"dampierre-les-conflans","departement_id":0,"code_postal":"70800","population":264,"superficie_km2":"1041.24","latitude_centre":"47.8411","longitude_centre":"6.179","distance_km":2.95},{"id":30142,"code_insee":"70052","nom_standard":"Bassigney","nom_a":null,"nom_de":null,"slug_ville":"bassigney","departement_id":0,"code_postal":"70800","population":123,"superficie_km2":"615.83","latitude_centre":"47.8236","longitude_centre":"6.1847","distance_km":3.57},{"id":30185,"code_insee":"70097","nom_standard":"Briaucourt","nom_a":null,"nom_de":null,"slug_ville":"briaucourt","departement_id":0,"code_postal":"70800","population":256,"superficie_km2":"979.64","latitude_centre":"47.8196","longitude_centre":"6.2479","distance_km":3.79},{"id":30116,"code_insee":"70023","nom_standard":"Anjeux","nom_a":null,"nom_de":null,"slug_ville":"anjeux","departement_id":0,"code_postal":"70800","population":148,"superficie_km2":"879.86","latitude_centre":"47.8814","longitude_centre":"6.2099","distance_km":3.88},{"id":30247,"code_insee":"70168","nom_standard":"Conflans-sur-Lanterne","nom_a":null,"nom_de":null,"slug_ville":"conflans-sur-lanterne","departement_id":0,"code_postal":"70800","population":564,"superficie_km2":"1316.68","latitude_centre":"47.8113","longitude_centre":"6.2147","distance_km":3.96},{"id":30347,"code_insee":"70290","nom_standard":"Jasney","nom_a":null,"nom_de":null,"slug_ville":"jasney","departement_id":0,"code_postal":"70800","population":190,"superficie_km2":"1304.64","latitude_centre":"47.872","longitude_centre":"6.18","distance_km":3.96},{"id":30315,"code_insee":"70249","nom_standard":"Francalmont","nom_a":null,"nom_de":null,"slug_ville":"francalmont","departement_id":0,"code_postal":"70800","population":121,"superficie_km2":"691.08","latitude_centre":"47.8335","longitude_centre":"6.2709","distance_km":4.25},{"id":30175,"code_insee":"70087","nom_standard":"Bourguignon-lès-Conflans","nom_a":null,"nom_de":null,"slug_ville":"bourguignon-les-conflans","departement_id":0,"code_postal":"70800","population":129,"superficie_km2":"795.01","latitude_centre":"47.8144","longitude_centre":"6.1606","distance_km":5.58},{"id":0,"code_insee":"70467","nom_standard":"Saint-Loup-sur-Semouse","nom_a":null,"nom_de":null,"slug_ville":"saint-loup-sur-semouse","departement_id":0,"code_postal":"70800","population":2814,"superficie_km2":"1677.71","latitude_centre":"47.891","longitude_centre":"6.2644","distance_km":6.02},{"id":30331,"code_insee":"70269","nom_standard":"Girefontaine","nom_a":null,"nom_de":null,"slug_ville":"girefontaine","departement_id":0,"code_postal":"70210","population":30,"superficie_km2":"361.04","latitude_centre":"47.8946","longitude_centre":"6.1688","distance_km":6.43},{"id":30270,"code_insee":"70194","nom_standard":"Cuve","nom_a":null,"nom_de":null,"slug_ville":"cuve","departement_id":0,"code_postal":"70800","population":128,"superficie_km2":"804.93","latitude_centre":"47.9109","longitude_centre":"6.2174","distance_km":7.12},{"id":0,"code_insee":"70541","nom_standard":"Velorcey","nom_a":null,"nom_de":null,"slug_ville":"velorcey","departement_id":0,"code_postal":"70300","population":206,"superficie_km2":"617.98","latitude_centre":"47.7856","longitude_centre":"6.252","distance_km":7.28},{"id":30171,"code_insee":"70083","nom_standard":"Bouligney","nom_a":null,"nom_de":null,"slug_ville":"bouligney","departement_id":0,"code_postal":"70800","population":401,"superficie_km2":"1422.71","latitude_centre":"47.9088","longitude_centre":"6.2516","distance_km":7.34},{"id":30095,"code_insee":"70001","nom_standard":"Abelcourt","nom_a":null,"nom_de":null,"slug_ville":"abelcourt","departement_id":0,"code_postal":"70300","population":333,"superficie_km2":"759.37","latitude_centre":"47.7947","longitude_centre":"6.2789","distance_km":7.39},{"id":30275,"code_insee":"70200","nom_standard":"Dampvalley-Saint-Pancras","nom_a":null,"nom_de":null,"slug_ville":"dampvalley-saint-pancras","departement_id":0,"code_postal":"70210","population":44,"superficie_km2":"467.84","latitude_centre":"47.9133","longitude_centre":"6.1982","distance_km":7.52},{"id":0,"code_insee":"70555","nom_standard":"La Villedieu-en-Fontenette","nom_a":null,"nom_de":null,"slug_ville":"la-villedieu-en-fontenette","departement_id":0,"code_postal":"70160","population":167,"superficie_km2":"973.40","latitude_centre":"47.7748","longitude_centre":"6.2018","distance_km":8.1},{"id":30286,"code_insee":"70214","nom_standard":"Équevilley","nom_a":null,"nom_de":null,"slug_ville":"equevilley","departement_id":0,"code_postal":"70160","population":121,"superficie_km2":"947.75","latitude_centre":"47.7776","longitude_centre":"6.182","distance_km":8.15},{"id":30393,"code_insee":"70344","nom_standard":"Meurcourt","nom_a":null,"nom_de":null,"slug_ville":"meurcourt","departement_id":0,"code_postal":"70300","population":345,"superficie_km2":"1187.39","latitude_centre":"47.7685","longitude_centre":"6.2357","distance_km":8.82}]}