{"ville":{"id":1091,"code_insee":"15153","nom_standard":"Pleaux","nom_a":null,"nom_de":null,"slug_ville":"pleaux","departement_id":615,"code_postal":"15700","population":1459,"superficie_km2":"93.00","latitude_centre":"45.1300011","longitude_centre":"2.2490001","dep_code":"15","dep_nom":"Cantal","dep_slug":"cantal","reg_code":"01","reg_nom":"Auvergne-Rhône-Alpes","reg_slug":"auvergne-rhone-alpes"},"departement":{"code":"15","nom":"Cantal","slug":"cantal"},"region":{"code":"01","nom":"Auvergne-Rhône-Alpes","slug":"auvergne-rhone-alpes"},"villes_proches":[{"id":1085,"code_insee":"15120","nom_standard":"Mauriac","nom_a":null,"nom_de":null,"slug_ville":"mauriac","departement_id":615,"code_postal":"15200","population":3519,"superficie_km2":"28.00","latitude_centre":"45.2179985","longitude_centre":"2.3169999","distance_km":11.14},{"id":1421,"code_insee":"19237","nom_standard":"Saint-Privat","nom_a":null,"nom_de":null,"slug_ville":"saint-privat","departement_id":619,"code_postal":"19220","population":1041,"superficie_km2":"32.00","latitude_centre":"45.1370010","longitude_centre":"2.0769999","distance_km":13.51},{"id":1096,"code_insee":"15175","nom_standard":"Saint-Cernin","nom_a":null,"nom_de":null,"slug_ville":"saint-cernin","departement_id":615,"code_postal":"15310","population":1055,"superficie_km2":"47.00","latitude_centre":"45.0530014","longitude_centre":"2.4260001","distance_km":16.32},{"id":1082,"code_insee":"15083","nom_standard":"Jussac","nom_a":null,"nom_de":null,"slug_ville":"jussac","departement_id":615,"code_postal":"15250","population":2026,"superficie_km2":"19.00","latitude_centre":"44.9949989","longitude_centre":"2.4180000","distance_km":20.04},{"id":1100,"code_insee":"15204","nom_standard":"Saint-Paul-des-Landes","nom_a":null,"nom_de":null,"slug_ville":"saint-paul-des-landes","departement_id":615,"code_postal":"15250","population":1533,"superficie_km2":"19.00","latitude_centre":"44.9510002","longitude_centre":"2.3000000","distance_km":20.3},{"id":1093,"code_insee":"15160","nom_standard":"Reilhac","nom_a":null,"nom_de":null,"slug_ville":"reilhac","departement_id":615,"code_postal":"15250","population":1089,"superficie_km2":"9.00","latitude_centre":"44.9700012","longitude_centre":"2.4230001","distance_km":22.44},{"id":1088,"code_insee":"15140","nom_standard":"Naucelles","nom_a":null,"nom_de":null,"slug_ville":"naucelles","departement_id":615,"code_postal":"15250","population":2137,"superficie_km2":"12.00","latitude_centre":"44.9519997","longitude_centre":"2.4210000","distance_km":23.97},{"id":1384,"code_insee":"19010","nom_standard":"Argentat-sur-Dordogne","nom_a":null,"nom_de":null,"slug_ville":"argentat-sur-dordogne","departement_id":619,"code_postal":"19320","population":2869,"superficie_km2":"22.00","latitude_centre":"45.1010017","longitude_centre":"1.9340000","distance_km":24.93},{"id":1106,"code_insee":"15267","nom_standard":"Ytrac","nom_a":null,"nom_de":null,"slug_ville":"ytrac","departement_id":615,"code_postal":"15130","population":4322,"superficie_km2":"38.00","latitude_centre":"44.9160004","longitude_centre":"2.3659999","distance_km":25.51},{"id":1101,"code_insee":"15215","nom_standard":"Saint-Simon","nom_a":null,"nom_de":null,"slug_ville":"saint-simon","departement_id":615,"code_postal":"15130","population":1126,"superficie_km2":"27.00","latitude_centre":"44.9700012","longitude_centre":"2.4970000","distance_km":26.38},{"id":1410,"code_insee":"19148","nom_standard":"Neuvic","nom_a":null,"nom_de":null,"slug_ville":"neuvic","departement_id":619,"code_postal":"19160","population":1627,"superficie_km2":"75.00","latitude_centre":"45.3709984","longitude_centre":"2.2590001","distance_km":26.81},{"id":1079,"code_insee":"15014","nom_standard":"Aurillac","nom_a":null,"nom_de":null,"slug_ville":"aurillac","departement_id":615,"code_postal":"15000","population":25815,"superficie_km2":"29.00","latitude_centre":"44.9239998","longitude_centre":"2.4419999","distance_km":27.47},{"id":1102,"code_insee":"15221","nom_standard":"Sansac-de-Marmiesse","nom_a":null,"nom_de":null,"slug_ville":"sansac-de-marmiesse","departement_id":615,"code_postal":"15130","population":1370,"superficie_km2":"14.00","latitude_centre":"44.8899994","longitude_centre":"2.3429999","distance_km":27.69},{"id":1105,"code_insee":"15265","nom_standard":"Ydes","nom_a":null,"nom_de":null,"slug_ville":"ydes","departement_id":615,"code_postal":"15210","population":1624,"superficie_km2":"18.00","latitude_centre":"45.3429985","longitude_centre":"2.4500000","distance_km":28.44},{"id":1080,"code_insee":"15037","nom_standard":"Champagnac","nom_a":null,"nom_de":null,"slug_ville":"champagnac","departement_id":615,"code_postal":"15350","population":1026,"superficie_km2":"28.00","latitude_centre":"45.3629990","longitude_centre":"2.4030001","distance_km":28.58},{"id":1107,"code_insee":"15268","nom_standard":"Le Rouget-Pers","nom_a":null,"nom_de":null,"slug_ville":"le-rouget-pers","departement_id":615,"code_postal":"15290","population":1278,"superficie_km2":"8.00","latitude_centre":"44.8569984","longitude_centre":"2.2340000","distance_km":30.38},{"id":1099,"code_insee":"15196","nom_standard":"Saint-Mamet-la-Salvetat","nom_a":null,"nom_de":null,"slug_ville":"saint-mamet-la-salvetat","departement_id":615,"code_postal":"15220","population":1543,"superficie_km2":"52.00","latitude_centre":"44.8559990","longitude_centre":"2.3050001","distance_km":30.78},{"id":4616,"code_insee":"46311","nom_standard":"Sousceyrac-en-Quercy","nom_a":null,"nom_de":null,"slug_ville":"sousceyrac-en-quercy","departement_id":647,"code_postal":"46190","population":1333,"superficie_km2":"58.00","latitude_centre":"44.8810005","longitude_centre":"2.0360000","distance_km":32.36},{"id":1092,"code_insee":"15154","nom_standard":"Polminhac","nom_a":null,"nom_de":null,"slug_ville":"polminhac","departement_id":615,"code_postal":"15800","population":1213,"superficie_km2":"29.00","latitude_centre":"44.9519997","longitude_centre":"2.5760000","distance_km":32.43},{"id":1078,"code_insee":"15012","nom_standard":"Arpajon-sur-Cère","nom_a":null,"nom_de":null,"slug_ville":"arpajon-sur-cere","departement_id":615,"code_postal":"15130","population":6315,"superficie_km2":"48.00","latitude_centre":"44.8759995","longitude_centre":"2.4640000","distance_km":32.92}]}