{"ville":{"id":1615,"code_insee":"22237","nom_standard":"Pluduno","nom_a":null,"nom_de":null,"slug_ville":"pluduno","departement_id":623,"code_postal":"22130","population":2208,"superficie_km2":"29.00","latitude_centre":"48.5229988","longitude_centre":"-2.2809999","dep_code":"22","dep_nom":"Côtes-d'Armor","dep_slug":"cotes-d-armor","reg_code":"03","reg_nom":"Bretagne","reg_slug":"bretagne"},"departement":{"code":"22","nom":"Côtes-d'Armor","slug":"cotes-d-armor"},"region":{"code":"03","nom":"Bretagne","slug":"bretagne"},"villes_proches":[{"id":1568,"code_insee":"22172","nom_standard":"Plancoët","nom_a":null,"nom_de":null,"slug_ville":"plancoet","departement_id":623,"code_postal":"22130","population":3057,"superficie_km2":"12.00","latitude_centre":"48.5149994","longitude_centre":"-2.2190001","distance_km":4.65},{"id":1510,"code_insee":"22014","nom_standard":"Bourseul","nom_a":null,"nom_de":null,"slug_ville":"bourseul","departement_id":623,"code_postal":"22130","population":1218,"superficie_km2":"22.00","latitude_centre":"48.4669991","longitude_centre":"-2.2650001","distance_km":6.34},{"id":1521,"code_insee":"22049","nom_standard":"Créhen","nom_a":null,"nom_de":null,"slug_ville":"crehen","departement_id":623,"code_postal":"22130","population":1654,"superficie_km2":"18.00","latitude_centre":"48.5400009","longitude_centre":"-2.1910000","distance_km":6.89},{"id":1531,"code_insee":"22076","nom_standard":"Hénanbihen","nom_a":null,"nom_de":null,"slug_ville":"henanbihen","departement_id":623,"code_postal":"22550","population":1378,"superficie_km2":"32.00","latitude_centre":"48.5579987","longitude_centre":"-2.3820000","distance_km":8.39},{"id":1555,"code_insee":"22143","nom_standard":"Matignon","nom_a":null,"nom_de":null,"slug_ville":"matignon","departement_id":623,"code_postal":"22550","population":1704,"superficie_km2":"15.00","latitude_centre":"48.6020012","longitude_centre":"-2.2900000","distance_km":8.81},{"id":1569,"code_insee":"22175","nom_standard":"Plédéliac","nom_a":null,"nom_de":null,"slug_ville":"pledeliac","departement_id":623,"code_postal":"22270","population":1541,"superficie_km2":"53.00","latitude_centre":"48.4690018","longitude_centre":"-2.3720000","distance_km":9},{"id":1639,"code_insee":"22282","nom_standard":"Saint-Cast-le-Guildo","nom_a":null,"nom_de":null,"slug_ville":"saint-cast-le-guildo","departement_id":623,"code_postal":"22380","population":3334,"superficie_km2":"23.00","latitude_centre":"48.6040001","longitude_centre":"-2.2490001","distance_km":9.31},{"id":1520,"code_insee":"22048","nom_standard":"Corseul","nom_a":null,"nom_de":null,"slug_ville":"corseul","departement_id":623,"code_postal":"22130","population":2223,"superficie_km2":"42.00","latitude_centre":"48.4830017","longitude_centre":"-2.1659999","distance_km":9.57},{"id":1542,"code_insee":"22105","nom_standard":"Languenan","nom_a":null,"nom_de":null,"slug_ville":"languenan","departement_id":623,"code_postal":"22130","population":1148,"superficie_km2":"16.00","latitude_centre":"48.5120010","longitude_centre":"-2.1329999","distance_km":10.97},{"id":1574,"code_insee":"22180","nom_standard":"Plélan-le-Petit","nom_a":null,"nom_de":null,"slug_ville":"plelan-le-petit","departement_id":623,"code_postal":"22980","population":1933,"superficie_km2":"22.00","latitude_centre":"48.4269981","longitude_centre":"-2.2240000","distance_km":11.47},{"id":1594,"code_insee":"22209","nom_standard":"Beaussais-sur-Mer","nom_a":null,"nom_de":null,"slug_ville":"beaussais-sur-mer","departement_id":623,"code_postal":"22650","population":4168,"superficie_km2":"36.00","latitude_centre":"48.5600014","longitude_centre":"-2.1280000","distance_km":11.99},{"id":1535,"code_insee":"22084","nom_standard":"Jugon-les-Lacs","nom_a":null,"nom_de":null,"slug_ville":"jugon-les-lacs","departement_id":623,"code_postal":"22270","population":2529,"superficie_km2":"27.00","latitude_centre":"48.4169998","longitude_centre":"-2.3250000","distance_km":12.22},{"id":1532,"code_insee":"22077","nom_standard":"Hénansal","nom_a":null,"nom_de":null,"slug_ville":"henansal","departement_id":623,"code_postal":"22400","population":1231,"superficie_km2":"29.00","latitude_centre":"48.5379982","longitude_centre":"-2.4480000","distance_km":12.41},{"id":1619,"code_insee":"22242","nom_standard":"Plurien","nom_a":null,"nom_de":null,"slug_ville":"plurien","departement_id":623,"code_postal":"22240","population":1528,"superficie_km2":"22.00","latitude_centre":"48.6100006","longitude_centre":"-2.4000001","distance_km":13.05},{"id":1538,"code_insee":"22094","nom_standard":"Lancieux","nom_a":null,"nom_de":null,"slug_ville":"lancieux","departement_id":623,"code_postal":"22770","population":1584,"superficie_km2":"7.00","latitude_centre":"48.6010017","longitude_centre":"-2.1470001","distance_km":13.13},{"id":1666,"code_insee":"22388","nom_standard":"Vildé-Guingalan","nom_a":null,"nom_de":null,"slug_ville":"vilde-guingalan","departement_id":623,"code_postal":"22980","population":1276,"superficie_km2":"8.00","latitude_centre":"48.4360008","longitude_centre":"-2.1520000","distance_km":13.56},{"id":1573,"code_insee":"22179","nom_standard":"Fréhel","nom_a":null,"nom_de":null,"slug_ville":"frehel","departement_id":623,"code_postal":"22240","population":1608,"superficie_km2":"19.00","latitude_centre":"48.6349983","longitude_centre":"-2.3620000","distance_km":13.81},{"id":1582,"code_insee":"22190","nom_standard":"Pleslin-Trigavou","nom_a":null,"nom_de":null,"slug_ville":"pleslin-trigavou","departement_id":623,"code_postal":"22490","population":3955,"superficie_km2":"22.00","latitude_centre":"48.5279999","longitude_centre":"-2.0710001","distance_km":15.47},{"id":3358,"code_insee":"35256","nom_standard":"Saint-Briac-sur-Mer","nom_a":null,"nom_de":null,"slug_ville":"saint-briac-sur-mer","departement_id":636,"code_postal":"35800","population":2208,"superficie_km2":"8.00","latitude_centre":"48.6160011","longitude_centre":"-2.1240001","distance_km":15.5},{"id":1626,"code_insee":"22259","nom_standard":"Quévert","nom_a":null,"nom_de":null,"slug_ville":"quevert","departement_id":623,"code_postal":"22100","population":3966,"superficie_km2":"13.00","latitude_centre":"48.4630013","longitude_centre":"-2.0860000","distance_km":15.84}]}