{"ville":{"id":2937,"code_insee":"33327","nom_standard":"Podensac","nom_a":null,"nom_de":null,"slug_ville":"podensac","departement_id":634,"code_postal":"33720","population":3285,"superficie_km2":"8.00","latitude_centre":"44.6459999","longitude_centre":"-0.3590000","dep_code":"33","dep_nom":"Gironde","dep_slug":"gironde","reg_code":"15","reg_nom":"Nouvelle-Aquitaine","reg_slug":"nouvelle-aquitaine"},"departement":{"code":"33","nom":"Gironde","slug":"gironde"},"region":{"code":"15","nom":"Nouvelle-Aquitaine","slug":"nouvelle-aquitaine"},"villes_proches":[{"id":2857,"code_insee":"33120","nom_standard":"Cérons","nom_a":null,"nom_de":null,"slug_ville":"cerons","departement_id":634,"code_postal":"33720","population":2132,"superficie_km2":"6.00","latitude_centre":"44.6269989","longitude_centre":"-0.3400000","distance_km":2.59},{"id":2818,"code_insee":"33040","nom_standard":"Béguey","nom_a":null,"nom_de":null,"slug_ville":"beguey","departement_id":634,"code_postal":"33410","population":1208,"superficie_km2":"3.00","latitude_centre":"44.6489983","longitude_centre":"-0.3250000","distance_km":2.71},{"id":3026,"code_insee":"33552","nom_standard":"Virelade","nom_a":null,"nom_de":null,"slug_ville":"virelade","departement_id":634,"code_postal":"33720","population":1109,"superficie_km2":"14.00","latitude_centre":"44.6520004","longitude_centre":"-0.3950000","distance_km":2.92},{"id":2950,"code_insee":"33355","nom_standard":"Rions","nom_a":null,"nom_de":null,"slug_ville":"rions","departement_id":634,"code_postal":"33410","population":1500,"superficie_km2":"11.00","latitude_centre":"44.6679993","longitude_centre":"-0.3360000","distance_km":3.05},{"id":2837,"code_insee":"33081","nom_standard":"Cadillac-sur-Garonne","nom_a":null,"nom_de":null,"slug_ville":"cadillac-sur-garonne","departement_id":634,"code_postal":"33410","population":2785,"superficie_km2":"5.00","latitude_centre":"44.6409988","longitude_centre":"-0.3050000","distance_km":4.31},{"id":2799,"code_insee":"33007","nom_standard":"Arbanats","nom_a":null,"nom_de":null,"slug_ville":"arbanats","departement_id":634,"code_postal":"33640","population":1353,"superficie_km2":"8.00","latitude_centre":"44.6710014","longitude_centre":"-0.4030000","distance_km":4.45},{"id":2928,"code_insee":"33311","nom_standard":"Paillet","nom_a":null,"nom_de":null,"slug_ville":"paillet","departement_id":634,"code_postal":"33550","population":1207,"superficie_km2":"2.00","latitude_centre":"44.6860008","longitude_centre":"-0.3620000","distance_km":4.45},{"id":2887,"code_insee":"33205","nom_standard":"Illats","nom_a":null,"nom_de":null,"slug_ville":"illats","departement_id":634,"code_postal":"33720","population":1387,"superficie_km2":"29.00","latitude_centre":"44.6069984","longitude_centre":"-0.3800000","distance_km":4.64},{"id":2813,"code_insee":"33030","nom_standard":"Barsac","nom_a":null,"nom_de":null,"slug_ville":"barsac","departement_id":634,"code_postal":"33720","population":2065,"superficie_km2":"14.00","latitude_centre":"44.6020012","longitude_centre":"-0.3240000","distance_km":5.62},{"id":2907,"code_insee":"33253","nom_standard":"Loupiac","nom_a":null,"nom_de":null,"slug_ville":"loupiac","departement_id":634,"code_postal":"33410","population":1097,"superficie_km2":"10.00","latitude_centre":"44.6279984","longitude_centre":"-0.2870000","distance_km":6.04},{"id":2940,"code_insee":"33334","nom_standard":"Portets","nom_a":null,"nom_de":null,"slug_ville":"portets","departement_id":634,"code_postal":"33640","population":2676,"superficie_km2":"15.00","latitude_centre":"44.6809998","longitude_centre":"-0.4260000","distance_km":6.57},{"id":2896,"code_insee":"33226","nom_standard":"Langoiran","nom_a":null,"nom_de":null,"slug_ville":"langoiran","departement_id":634,"code_postal":"33550","population":2191,"superficie_km2":"10.00","latitude_centre":"44.7080002","longitude_centre":"-0.3740000","distance_km":7},{"id":2852,"code_insee":"33109","nom_standard":"Castres-Gironde","nom_a":null,"nom_de":null,"slug_ville":"castres-gironde","departement_id":634,"code_postal":"33640","population":2575,"superficie_km2":"7.00","latitude_centre":"44.6860008","longitude_centre":"-0.4550000","distance_km":8.8},{"id":2992,"code_insee":"33474","nom_standard":"Saint-Selve","nom_a":null,"nom_de":null,"slug_ville":"saint-selve","departement_id":634,"code_postal":"33650","population":3578,"superficie_km2":"18.00","latitude_centre":"44.6549988","longitude_centre":"-0.4730000","distance_km":9.07},{"id":2942,"code_insee":"33337","nom_standard":"Preignac","nom_a":null,"nom_de":null,"slug_ville":"preignac","departement_id":634,"code_postal":"33210","population":2145,"superficie_km2":"13.00","latitude_centre":"44.5699997","longitude_centre":"-0.3100000","distance_km":9.3},{"id":3008,"code_insee":"33518","nom_standard":"Tabanac","nom_a":null,"nom_de":null,"slug_ville":"tabanac","departement_id":634,"code_postal":"33550","population":1085,"superficie_km2":"8.00","latitude_centre":"44.7239990","longitude_centre":"-0.4110000","distance_km":9.6},{"id":2816,"code_insee":"33037","nom_standard":"Beautiran","nom_a":null,"nom_de":null,"slug_ville":"beautiran","departement_id":634,"code_postal":"33640","population":2443,"superficie_km2":"6.00","latitude_centre":"44.7029991","longitude_centre":"-0.4590000","distance_km":10.13},{"id":3020,"code_insee":"33543","nom_standard":"Verdelais","nom_a":null,"nom_de":null,"slug_ville":"verdelais","departement_id":634,"code_postal":"33490","population":1035,"superficie_km2":"5.00","latitude_centre":"44.5919991","longitude_centre":"-0.2480000","distance_km":10.64},{"id":2895,"code_insee":"33225","nom_standard":"Landiras","nom_a":null,"nom_de":null,"slug_ville":"landiras","departement_id":634,"code_postal":"33720","population":2191,"superficie_km2":"60.00","latitude_centre":"44.5670013","longitude_centre":"-0.4430000","distance_km":11.02},{"id":3015,"code_insee":"33533","nom_standard":"Toulenne","nom_a":null,"nom_de":null,"slug_ville":"toulenne","departement_id":634,"code_postal":"33210","population":2813,"superficie_km2":"7.00","latitude_centre":"44.5639992","longitude_centre":"-0.2750000","distance_km":11.29}]}