{"ville":{"id":24155,"code_insee":"52395","nom_standard":"Poinson-lès-Grancey","nom_a":null,"nom_de":null,"slug_ville":"poinson-les-grancey","departement_id":0,"code_postal":"52160","population":57,"superficie_km2":"1161.91","latitude_centre":"47.7103","longitude_centre":"4.9789","dep_code":"52","dep_nom":"Haute-Marne","dep_slug":"haute-marne","reg_code":"44","reg_nom":"Grand Est","reg_slug":"grand-est"},"departement":{"code":"52","nom":"Haute-Marne","slug":"haute-marne"},"region":{"code":"44","nom":"Grand Est","slug":"grand-est"},"villes_proches":[{"id":24153,"code_insee":"52393","nom_standard":"Poinsenot","nom_a":null,"nom_de":null,"slug_ville":"poinsenot","departement_id":0,"code_postal":"52160","population":54,"superficie_km2":"728.39","latitude_centre":"47.7156","longitude_centre":"5.0094","distance_km":2.36},{"id":15225,"code_insee":"21063","nom_standard":"Beneuvre","nom_a":null,"nom_de":null,"slug_ville":"beneuvre","departement_id":0,"code_postal":"21290","population":94,"superficie_km2":"1553.83","latitude_centre":"47.6933","longitude_centre":"4.9333","distance_km":3.9},{"id":0,"code_insee":"52526","nom_standard":"Villars-Santenoge","nom_a":null,"nom_de":null,"slug_ville":"villars-santenoge","departement_id":0,"code_postal":"52160","population":82,"superficie_km2":"1977.38","latitude_centre":"47.7451","longitude_centre":"5.0017","distance_km":4.23},{"id":15314,"code_insee":"21157","nom_standard":"Chaugey","nom_a":null,"nom_de":null,"slug_ville":"chaugey","departement_id":0,"code_postal":"21290","population":24,"superficie_km2":"678.72","latitude_centre":"47.7467","longitude_centre":"4.95","distance_km":4.59},{"id":15445,"code_insee":"21304","nom_standard":"Grancey-le-Château-Neuvelle","nom_a":null,"nom_de":null,"slug_ville":"grancey-le-chateau-neuvelle","departement_id":0,"code_postal":"21580","population":247,"superficie_km2":"2770.56","latitude_centre":"47.6699","longitude_centre":"5.0117","distance_km":5.12},{"id":15274,"code_insee":"21116","nom_standard":"Bure-les-Templiers","nom_a":null,"nom_de":null,"slug_ville":"bure-les-templiers","departement_id":0,"code_postal":"21290","population":135,"superficie_km2":"3526.74","latitude_centre":"47.7317","longitude_centre":"4.9179","distance_km":5.15},{"id":15276,"code_insee":"21118","nom_standard":"Busserotte-et-Montenaille","nom_a":null,"nom_de":null,"slug_ville":"busserotte-et-montenaille","departement_id":0,"code_postal":"21580","population":33,"superficie_km2":"668.57","latitude_centre":"47.6599","longitude_centre":"4.9827","distance_km":5.61},{"id":15277,"code_insee":"21119","nom_standard":"Bussières","nom_a":null,"nom_de":null,"slug_ville":"bussieres","departement_id":0,"code_postal":"21580","population":44,"superficie_km2":"637.06","latitude_centre":"47.6585","longitude_centre":"4.9639","distance_km":5.87},{"id":0,"code_insee":"52542","nom_standard":"Vivey","nom_a":null,"nom_de":null,"slug_ville":"vivey","departement_id":0,"code_postal":"52160","population":51,"superficie_km2":"1299.33","latitude_centre":"47.7377","longitude_centre":"5.0608","distance_km":6.84},{"id":23968,"code_insee":"52137","nom_standard":"Colmier-le-Bas","nom_a":null,"nom_de":null,"slug_ville":"colmier-le-bas","departement_id":0,"code_postal":"52160","population":22,"superficie_km2":"607.66","latitude_centre":"47.7723","longitude_centre":"4.9412","distance_km":7.45},{"id":15426,"code_insee":"21283","nom_standard":"Fraignot-et-Vesvrotte","nom_a":null,"nom_de":null,"slug_ville":"fraignot-et-vesvrotte","departement_id":0,"code_postal":"21580","population":76,"superficie_km2":"1177.09","latitude_centre":"47.6502","longitude_centre":"4.9348","distance_km":7.45},{"id":15357,"code_insee":"21207","nom_standard":"Courlon","nom_a":null,"nom_de":null,"slug_ville":"courlon","departement_id":0,"code_postal":"21580","population":79,"superficie_km2":"982.79","latitude_centre":"47.646","longitude_centre":"5.0124","distance_km":7.58},{"id":23936,"code_insee":"52094","nom_standard":"Vals-des-Tilles","nom_a":null,"nom_de":null,"slug_ville":"vals-des-tilles","departement_id":0,"code_postal":"52160","population":180,"superficie_km2":"3728.88","latitude_centre":"47.6905","longitude_centre":"5.0868","distance_km":8.37},{"id":23969,"code_insee":"52138","nom_standard":"Colmier-le-Haut","nom_a":null,"nom_de":null,"slug_ville":"colmier-le-haut","departement_id":0,"code_postal":"52160","population":61,"superficie_km2":"1961.49","latitude_centre":"47.7896","longitude_centre":"4.9801","distance_km":8.82},{"id":15531,"code_insee":"21402","nom_standard":"Menesble","nom_a":null,"nom_de":null,"slug_ville":"menesble","departement_id":0,"code_postal":"21290","population":17,"superficie_km2":"553.68","latitude_centre":"47.7828","longitude_centre":"4.9045","distance_km":9.79},{"id":15287,"code_insee":"21129","nom_standard":"Chambain","nom_a":null,"nom_de":null,"slug_ville":"chambain","departement_id":0,"code_postal":"21290","population":36,"superficie_km2":"973.45","latitude_centre":"47.7958","longitude_centre":"4.9241","distance_km":10.35},{"id":15213,"code_insee":"21049","nom_standard":"Barjon","nom_a":null,"nom_de":null,"slug_ville":"barjon","departement_id":0,"code_postal":"21580","population":29,"superficie_km2":"459.63","latitude_centre":"47.6158","longitude_centre":"4.9626","distance_km":10.58},{"id":24024,"code_insee":"52216","nom_standard":"Germaines","nom_a":null,"nom_de":null,"slug_ville":"germaines","departement_id":0,"code_postal":"52160","population":47,"superficie_km2":"867.89","latitude_centre":"47.7991","longitude_centre":"5.0297","distance_km":10.58},{"id":15205,"code_insee":"21041","nom_standard":"Avot","nom_a":null,"nom_de":null,"slug_ville":"avot","departement_id":0,"code_postal":"21580","population":186,"superficie_km2":"2180.35","latitude_centre":"47.6163","longitude_centre":"5.0053","distance_km":10.64},{"id":15281,"code_insee":"21123","nom_standard":"Buxerolles","nom_a":null,"nom_de":null,"slug_ville":"buxerolles","departement_id":0,"code_postal":"21290","population":34,"superficie_km2":"1181.98","latitude_centre":"47.8074","longitude_centre":"4.9511","distance_km":11.0}]}