{"ville":{"id":12756,"code_insee":"10293","nom_standard":"Poivres","nom_a":null,"nom_de":null,"slug_ville":"poivres","departement_id":0,"code_postal":"10700","population":154,"superficie_km2":"4248.71","latitude_centre":"48.684","longitude_centre":"4.2783","dep_code":"10","dep_nom":"Aube","dep_slug":"aube","reg_code":"44","reg_nom":"Grand Est","reg_slug":"grand-est"},"departement":{"code":"10","nom":"Aube","slug":"aube"},"region":{"code":"44","nom":"Grand Est","slug":"grand-est"},"villes_proches":[{"id":0,"code_insee":"51555","nom_standard":"Soudé","nom_a":null,"nom_de":null,"slug_ville":"soude","departement_id":0,"code_postal":"51320","population":149,"superficie_km2":"3234.54","latitude_centre":"48.7299","longitude_centre":"4.3011","distance_km":5.37},{"id":0,"code_insee":"10386","nom_standard":"Trouans","nom_a":null,"nom_de":null,"slug_ville":"trouans","departement_id":0,"code_postal":"10700","population":200,"superficie_km2":"2973.19","latitude_centre":"48.6339","longitude_centre":"4.2513","distance_km":5.91},{"id":0,"code_insee":"10216","nom_standard":"Mailly-le-Camp","nom_a":null,"nom_de":null,"slug_ville":"mailly-le-camp","departement_id":0,"code_postal":"10230","population":2015,"superficie_km2":"4294.71","latitude_centre":"48.6683","longitude_centre":"4.1828","distance_km":7.23},{"id":0,"code_insee":"51550","nom_standard":"Sompuis","nom_a":null,"nom_de":null,"slug_ville":"sompuis","departement_id":0,"code_postal":"51320","population":258,"superficie_km2":"4345.87","latitude_centre":"48.6794","longitude_centre":"4.3819","distance_km":7.62},{"id":0,"code_insee":"51545","nom_standard":"Sommesous","nom_a":null,"nom_de":null,"slug_ville":"sommesous","departement_id":0,"code_postal":"51320","population":467,"superficie_km2":"3687.28","latitude_centre":"48.7393","longitude_centre":"4.2075","distance_km":8.05},{"id":12608,"code_insee":"10130","nom_standard":"Dosnon","nom_a":null,"nom_de":null,"slug_ville":"dosnon","departement_id":0,"code_postal":"10700","population":100,"superficie_km2":"2889.33","latitude_centre":"48.6132","longitude_centre":"4.2507","distance_km":8.13},{"id":0,"code_insee":"51296","nom_standard":"Humbauville","nom_a":null,"nom_de":null,"slug_ville":"humbauville","departement_id":0,"code_postal":"51320","population":74,"superficie_km2":"1691.53","latitude_centre":"48.6578","longitude_centre":"4.3889","distance_km":8.63},{"id":0,"code_insee":"51212","nom_standard":"Dommartin-Lettrée","nom_a":null,"nom_de":null,"slug_ville":"dommartin-lettree","departement_id":0,"code_postal":"51320","population":165,"superficie_km2":"3263.95","latitude_centre":"48.7677","longitude_centre":"4.2849","distance_km":9.32},{"id":0,"code_insee":"51285","nom_standard":"Haussimont","nom_a":null,"nom_de":null,"slug_ville":"haussimont","departement_id":0,"code_postal":"51320","population":139,"superficie_km2":"1747.46","latitude_centre":"48.7472","longitude_centre":"4.1752","distance_km":10.32},{"id":12642,"code_insee":"10167","nom_standard":"Grandville","nom_a":null,"nom_de":null,"slug_ville":"grandville","departement_id":0,"code_postal":"10700","population":86,"superficie_km2":"915.21","latitude_centre":"48.5934","longitude_centre":"4.2408","distance_km":10.44},{"id":0,"code_insee":"51167","nom_standard":"Coole","nom_a":null,"nom_de":null,"slug_ville":"coole","departement_id":0,"code_postal":"51320","population":157,"superficie_km2":"2997.43","latitude_centre":"48.7391","longitude_centre":"4.3943","distance_km":10.49},{"id":0,"code_insee":"51508","nom_standard":"Saint-Ouen-Domprot","nom_a":null,"nom_de":null,"slug_ville":"saint-ouen-domprot","departement_id":0,"code_postal":"51320","population":203,"superficie_km2":"4735.72","latitude_centre":"48.6138","longitude_centre":"4.3942","distance_km":11.55},{"id":12670,"code_insee":"10195","nom_standard":"Lhuître","nom_a":null,"nom_de":null,"slug_ville":"lhuitre","departement_id":0,"code_postal":"10700","population":268,"superficie_km2":"3606.61","latitude_centre":"48.5799","longitude_centre":"4.2721","distance_km":11.58},{"id":0,"code_insee":"51244","nom_standard":"Faux-Vésigneul","nom_a":null,"nom_de":null,"slug_ville":"faux-vesigneul","departement_id":0,"code_postal":"51320","population":238,"superficie_km2":"3921.61","latitude_centre":"48.7854","longitude_centre":"4.3847","distance_km":13.71},{"id":0,"code_insee":"51099","nom_standard":"Bussy-Lettrée","nom_a":null,"nom_de":null,"slug_ville":"bussy-lettree","departement_id":0,"code_postal":"51320","population":307,"superficie_km2":"3358.02","latitude_centre":"48.8079","longitude_centre":"4.2445","distance_km":14.0},{"id":12599,"code_insee":"10121","nom_standard":"Dampierre","nom_a":null,"nom_de":null,"slug_ville":"dampierre","departement_id":0,"code_postal":"10240","population":327,"superficie_km2":"2949.38","latitude_centre":"48.5677","longitude_centre":"4.3653","distance_km":14.43},{"id":0,"code_insee":"51178","nom_standard":"Coupetz","nom_a":null,"nom_de":null,"slug_ville":"coupetz","departement_id":0,"code_postal":"51240","population":88,"superficie_km2":"1054.71","latitude_centre":"48.813","longitude_centre":"4.3501","distance_km":15.28},{"id":0,"code_insee":"51595","nom_standard":"Vatry","nom_a":null,"nom_de":null,"slug_ville":"vatry","departement_id":0,"code_postal":"51320","population":143,"superficie_km2":"846.11","latitude_centre":"48.8234","longitude_centre":"4.2379","distance_km":15.78},{"id":12649,"code_insee":"10174","nom_standard":"Isle-Aubigny","nom_a":null,"nom_de":null,"slug_ville":"isle-aubigny","departement_id":0,"code_postal":"10240","population":166,"superficie_km2":"1884.33","latitude_centre":"48.5414","longitude_centre":"4.284","distance_km":15.86},{"id":0,"code_insee":"10436","nom_standard":"Vinets","nom_a":null,"nom_de":null,"slug_ville":"vinets","departement_id":0,"code_postal":"10700","population":191,"superficie_km2":"923.54","latitude_centre":"48.5456","longitude_centre":"4.2247","distance_km":15.89}]}