{"ville":{"id":3881,"code_insee":"39434","nom_standard":"Poligny","nom_a":null,"nom_de":null,"slug_ville":"poligny","departement_id":640,"code_postal":"39800","population":4011,"superficie_km2":"51.00","latitude_centre":"46.8219986","longitude_centre":"5.7329998","dep_code":"39","dep_nom":"Jura","dep_slug":"jura","reg_code":"02","reg_nom":"Bourgogne-Franche-Comté","reg_slug":"bourgogne-franche-comte"},"departement":{"code":"39","nom":"Jura","slug":"jura"},"region":{"code":"02","nom":"Bourgogne-Franche-Comté","slug":"bourgogne-franche-comte"},"villes_proches":[{"id":3844,"code_insee":"39013","nom_standard":"Arbois","nom_a":null,"nom_de":null,"slug_ville":"arbois","departement_id":640,"code_postal":"39600","population":3193,"superficie_km2":"45.00","latitude_centre":"46.8940010","longitude_centre":"5.7729998","distance_km":8.56},{"id":3861,"code_insee":"39199","nom_standard":"Domblans","nom_a":null,"nom_de":null,"slug_ville":"domblans","departement_id":640,"code_postal":"39210","population":1207,"superficie_km2":"10.00","latitude_centre":"46.7620010","longitude_centre":"5.5900002","distance_km":12.77},{"id":3850,"code_insee":"39097","nom_standard":"Champagnole","nom_a":null,"nom_de":null,"slug_ville":"champagnole","departement_id":640,"code_postal":"39300","population":8000,"superficie_km2":"20.00","latitude_centre":"46.7439995","longitude_centre":"5.8990002","distance_km":15.33},{"id":3846,"code_insee":"39017","nom_standard":"Arlay","nom_a":null,"nom_de":null,"slug_ville":"arlay","departement_id":640,"code_postal":"39140","population":1187,"superficie_km2":"14.00","latitude_centre":"46.7700005","longitude_centre":"5.5289998","distance_km":16.57},{"id":3875,"code_insee":"39370","nom_standard":"Mouchard","nom_a":null,"nom_de":null,"slug_ville":"mouchard","departement_id":640,"code_postal":"39330","population":1093,"superficie_km2":"6.00","latitude_centre":"46.9780006","longitude_centre":"5.7900000","distance_km":17.88},{"id":3889,"code_insee":"39500","nom_standard":"Salins-les-Bains","nom_a":null,"nom_de":null,"slug_ville":"salins-les-bains","departement_id":640,"code_postal":"39110","population":2471,"superficie_km2":"25.00","latitude_centre":"46.9480019","longitude_centre":"5.8979998","distance_km":18.8},{"id":3872,"code_insee":"39365","nom_standard":"Mont-sous-Vaudrey","nom_a":null,"nom_de":null,"slug_ville":"mont-sous-vaudrey","departement_id":640,"code_postal":"39380","population":1295,"superficie_km2":"15.00","latitude_centre":"46.9630013","longitude_centre":"5.5939999","distance_km":18.9},{"id":3879,"code_insee":"39411","nom_standard":"Perrigny","nom_a":null,"nom_de":null,"slug_ville":"perrigny","departement_id":640,"code_postal":"39570","population":1518,"superficie_km2":"9.00","latitude_centre":"46.6769981","longitude_centre":"5.5990000","distance_km":19.08},{"id":3867,"code_insee":"39300","nom_standard":"Lons-le-Saunier","nom_a":null,"nom_de":null,"slug_ville":"lons-le-saunier","departement_id":640,"code_postal":"39000","population":17043,"superficie_km2":"8.00","latitude_centre":"46.6739998","longitude_centre":"5.5570002","distance_km":21.23},{"id":3871,"code_insee":"39362","nom_standard":"Montmorot","nom_a":null,"nom_de":null,"slug_ville":"montmorot","departement_id":640,"code_postal":"39570","population":3154,"superficie_km2":"11.00","latitude_centre":"46.6870003","longitude_centre":"5.5200000","distance_km":22.11},{"id":3859,"code_insee":"39193","nom_standard":"Le Deschaux","nom_a":null,"nom_de":null,"slug_ville":"le-deschaux","departement_id":640,"code_postal":"39120","population":1014,"superficie_km2":"9.00","latitude_centre":"46.9500008","longitude_centre":"5.4990001","distance_km":22.78},{"id":1781,"code_insee":"25021","nom_standard":"Arc-et-Senans","nom_a":null,"nom_de":null,"slug_ville":"arc-et-senans","departement_id":626,"code_postal":"25610","population":1619,"superficie_km2":"15.00","latitude_centre":"47.0349999","longitude_centre":"5.7700000","distance_km":23.85},{"id":3868,"code_insee":"39306","nom_standard":"Macornay","nom_a":null,"nom_de":null,"slug_ville":"macornay","departement_id":640,"code_postal":"39570","population":1003,"superficie_km2":"5.00","latitude_centre":"46.6419983","longitude_centre":"5.5450001","distance_km":24.62},{"id":3848,"code_insee":"39056","nom_standard":"Bletterans","nom_a":null,"nom_de":null,"slug_ville":"bletterans","departement_id":640,"code_postal":"39140","population":1527,"superficie_km2":"8.00","latitude_centre":"46.7319984","longitude_centre":"5.4280000","distance_km":25.29},{"id":3855,"code_insee":"39171","nom_standard":"Courlaoux","nom_a":null,"nom_de":null,"slug_ville":"courlaoux","departement_id":640,"code_postal":"39570","population":1136,"superficie_km2":"13.00","latitude_centre":"46.6699982","longitude_centre":"5.4489999","distance_km":27.46},{"id":3854,"code_insee":"39154","nom_standard":"Clairvaux-les-Lacs","nom_a":null,"nom_de":null,"slug_ville":"clairvaux-les-lacs","departement_id":640,"code_postal":"39130","population":1426,"superficie_km2":"12.00","latitude_centre":"46.5649986","longitude_centre":"5.7550001","distance_km":28.63},{"id":3878,"code_insee":"39405","nom_standard":"Parcey","nom_a":null,"nom_de":null,"slug_ville":"parcey","departement_id":640,"code_postal":"39100","population":1014,"superficie_km2":"8.00","latitude_centre":"47.0219994","longitude_centre":"5.4800000","distance_km":29.39},{"id":3852,"code_insee":"39128","nom_standard":"Chaussin","nom_a":null,"nom_de":null,"slug_ville":"chaussin","departement_id":640,"code_postal":"39120","population":1547,"superficie_km2":"16.00","latitude_centre":"46.9739990","longitude_centre":"5.4029999","distance_km":30.24},{"id":3862,"code_insee":"39228","nom_standard":"Foncine-le-Haut","nom_a":null,"nom_de":null,"slug_ville":"foncine-le-haut","departement_id":640,"code_postal":"39460","population":1101,"superficie_km2":"29.00","latitude_centre":"46.6590004","longitude_centre":"6.0619998","distance_km":30.94},{"id":1820,"code_insee":"25259","nom_standard":"Frasne","nom_a":null,"nom_de":null,"slug_ville":"frasne","departement_id":626,"code_postal":"25560","population":1941,"superficie_km2":"33.00","latitude_centre":"46.8520012","longitude_centre":"6.1459999","distance_km":31.59}]}