{"ville":{"id":18596,"code_insee":"30199","nom_standard":"Pommiers","nom_a":null,"nom_de":null,"slug_ville":"pommiers","departement_id":0,"code_postal":"30120","population":58,"superficie_km2":"646.19","latitude_centre":"43.9492","longitude_centre":"3.622","dep_code":"30","dep_nom":"Gard","dep_slug":"gard","reg_code":"76","reg_nom":"Occitanie","reg_slug":"occitanie"},"departement":{"code":"30","nom":"Gard","slug":"gard"},"region":{"code":"76","nom":"Occitanie","slug":"occitanie"},"villes_proches":[{"id":0,"code_insee":"30238","nom_standard":"Saint-Bresson","nom_a":null,"nom_de":null,"slug_ville":"saint-bresson","departement_id":0,"code_postal":"30440","population":73,"superficie_km2":"854.75","latitude_centre":"43.956","longitude_centre":"3.6447","distance_km":1.97},{"id":0,"code_insee":"30026","nom_standard":"Avèze","nom_a":null,"nom_de":null,"slug_ville":"aveze","departement_id":0,"code_postal":"30120","population":1053,"superficie_km2":"411.75","latitude_centre":"43.9748","longitude_centre":"3.5992","distance_km":3.38},{"id":0,"code_insee":"30350","nom_standard":"Le Vigan","nom_a":null,"nom_de":null,"slug_ville":"le-vigan","departement_id":0,"code_postal":"30120","population":3863,"superficie_km2":"1725.61","latitude_centre":"43.9822","longitude_centre":"3.6336","distance_km":3.79},{"id":0,"code_insee":"30280","nom_standard":"Saint-Laurent-le-Minier","nom_a":null,"nom_de":null,"slug_ville":"saint-laurent-le-minier","departement_id":0,"code_postal":"30440","population":372,"superficie_km2":"1326.77","latitude_centre":"43.9214","longitude_centre":"3.6531","distance_km":3.97},{"id":18582,"code_insee":"30176","nom_standard":"Montdardier","nom_a":null,"nom_de":null,"slug_ville":"montdardier","departement_id":0,"code_postal":"30120","population":209,"superficie_km2":"3544.13","latitude_centre":"43.9292","longitude_centre":"3.5791","distance_km":4.09},{"id":0,"code_insee":"30220","nom_standard":"Roquedur","nom_a":null,"nom_de":null,"slug_ville":"roquedur","departement_id":0,"code_postal":"30440","population":266,"superficie_km2":"1101.69","latitude_centre":"43.976","longitude_centre":"3.662","distance_km":4.37},{"id":18579,"code_insee":"30170","nom_standard":"Molières-Cavaillac","nom_a":null,"nom_de":null,"slug_ville":"molieres-cavaillac","departement_id":0,"code_postal":"30120","population":905,"superficie_km2":"766.13","latitude_centre":"43.972","longitude_centre":"3.5708","distance_km":4.82},{"id":0,"code_insee":"30272","nom_standard":"Saint-Julien-de-la-Nef","nom_a":null,"nom_de":null,"slug_ville":"saint-julien-de-la-nef","departement_id":0,"code_postal":"30440","population":143,"superficie_km2":"896.55","latitude_centre":"43.9631","longitude_centre":"3.6837","distance_km":5.18},{"id":18492,"code_insee":"30024","nom_standard":"Aulas","nom_a":null,"nom_de":null,"slug_ville":"aulas","departement_id":0,"code_postal":"30120","population":456,"superficie_km2":"293.37","latitude_centre":"43.9955","longitude_centre":"3.5896","distance_km":5.76},{"id":0,"code_insee":"34111","nom_standard":"Ganges","nom_a":null,"nom_de":null,"slug_ville":"ganges","departement_id":0,"code_postal":"34190","population":3724,"superficie_km2":"721.25","latitude_centre":"43.9448","longitude_centre":"3.7039","distance_km":6.58},{"id":0,"code_insee":"34067","nom_standard":"Cazilhac","nom_a":null,"nom_de":null,"slug_ville":"cazilhac","departement_id":0,"code_postal":"34190","population":1605,"superficie_km2":"1182.98","latitude_centre":"43.9176","longitude_centre":"3.694","distance_km":6.75},{"id":0,"code_insee":"34115","nom_standard":"Gorniès","nom_a":null,"nom_de":null,"slug_ville":"gornies","departement_id":0,"code_postal":"34190","population":103,"superficie_km2":"2928.87","latitude_centre":"43.8848","longitude_centre":"3.6224","distance_km":7.16},{"id":18497,"code_insee":"30038","nom_standard":"Bez-et-Esparon","nom_a":null,"nom_de":null,"slug_ville":"bez-et-esparon","departement_id":0,"code_postal":"30120","population":335,"superficie_km2":"837.63","latitude_centre":"43.9792","longitude_centre":"3.5356","distance_km":7.68},{"id":18486,"code_insee":"30016","nom_standard":"Arre","nom_a":null,"nom_de":null,"slug_ville":"arre","departement_id":0,"code_postal":"30120","population":252,"superficie_km2":"724.01","latitude_centre":"43.9584","longitude_centre":"3.5258","distance_km":7.77},{"id":18569,"code_insee":"30154","nom_standard":"Mandagout","nom_a":null,"nom_de":null,"slug_ville":"mandagout","departement_id":0,"code_postal":"30120","population":368,"superficie_km2":"1509.19","latitude_centre":"44.0257","longitude_centre":"3.6275","distance_km":8.52},{"id":0,"code_insee":"30219","nom_standard":"Rogues","nom_a":null,"nom_de":null,"slug_ville":"rogues","departement_id":0,"code_postal":"30120","population":83,"superficie_km2":"3061.46","latitude_centre":"43.8781","longitude_centre":"3.5603","distance_km":9.32},{"id":0,"code_insee":"30229","nom_standard":"Saint-André-de-Majencoules","nom_a":null,"nom_de":null,"slug_ville":"saint-andre-de-majencoules","departement_id":0,"code_postal":"30570","population":599,"superficie_km2":"2203.20","latitude_centre":"44.0245","longitude_centre":"3.6846","distance_km":9.76},{"id":18506,"code_insee":"30052","nom_standard":"Bréau-Mars","nom_a":null,"nom_de":null,"slug_ville":"breau-mars","departement_id":0,"code_postal":"30120","population":689,"superficie_km2":"2848.39","latitude_centre":"44.0305","longitude_centre":"3.5581","distance_km":10.39},{"id":18485,"code_insee":"30015","nom_standard":"Arphy","nom_a":null,"nom_de":null,"slug_ville":"arphy","departement_id":0,"code_postal":"30120","population":139,"superficie_km2":"2097.07","latitude_centre":"44.0414","longitude_centre":"3.5875","distance_km":10.62},{"id":0,"code_insee":"34238","nom_standard":"Saint-André-de-Buèges","nom_a":null,"nom_de":null,"slug_ville":"saint-andre-de-bueges","departement_id":0,"code_postal":"34190","population":47,"superficie_km2":"1538.49","latitude_centre":"43.8539","longitude_centre":"3.6438","distance_km":10.74}]}