{"ville":{"id":33779,"code_insee":"83095","nom_standard":"Pontevès","nom_a":null,"nom_de":null,"slug_ville":"ponteves","departement_id":0,"code_postal":"83670","population":784,"superficie_km2":"4114.60","latitude_centre":"43.5509","longitude_centre":"6.0687","dep_code":"83","dep_nom":"Var","dep_slug":"var","reg_code":"93","reg_nom":"Provence-Alpes-Côte d'Azur","reg_slug":"provence-alpes-cote-d-azur"},"departement":{"code":"83","nom":"Var","slug":"var"},"region":{"code":"93","nom":"Provence-Alpes-Côte d'Azur","slug":"provence-alpes-cote-d-azur"},"villes_proches":[{"id":33771,"code_insee":"83060","nom_standard":"Fox-Amphoux","nom_a":null,"nom_de":null,"slug_ville":"fox-amphoux","departement_id":0,"code_postal":"83670","population":504,"superficie_km2":"4114.26","latitude_centre":"43.5944","longitude_centre":"6.1165","distance_km":6.18},{"id":0,"code_insee":"83135","nom_standard":"Tavernes","nom_a":null,"nom_de":null,"slug_ville":"tavernes","departement_id":0,"code_postal":"83670","population":1492,"superficie_km2":"3128.64","latitude_centre":"43.6009","longitude_centre":"6.0232","distance_km":6.66},{"id":0,"code_insee":"83046","nom_standard":"Cotignac","nom_a":null,"nom_de":null,"slug_ville":"cotignac","departement_id":0,"code_postal":"83570","population":2197,"superficie_km2":"4426.17","latitude_centre":"43.5246","longitude_centre":"6.1436","distance_km":6.71},{"id":33769,"code_insee":"83045","nom_standard":"Correns","nom_a":null,"nom_de":null,"slug_ville":"correns","departement_id":0,"code_postal":"83570","population":886,"superficie_km2":"3707.72","latitude_centre":"43.4884","longitude_centre":"6.0543","distance_km":7.05},{"id":0,"code_insee":"83128","nom_standard":"Sillans-la-Cascade","nom_a":null,"nom_de":null,"slug_ville":"sillans-la-cascade","departement_id":0,"code_postal":"83690","population":787,"superficie_km2":"2028.42","latitude_centre":"43.565","longitude_centre":"6.1549","distance_km":7.12},{"id":33765,"code_insee":"83039","nom_standard":"Châteauvert","nom_a":null,"nom_de":null,"slug_ville":"chateauvert","departement_id":0,"code_postal":"83670","population":141,"superficie_km2":"2764.67","latitude_centre":"43.4992","longitude_centre":"6.0088","distance_km":7.51},{"id":0,"code_insee":"83012","nom_standard":"Barjols","nom_a":null,"nom_de":null,"slug_ville":"barjols","departement_id":0,"code_postal":"83670","population":2984,"superficie_km2":"3034.08","latitude_centre":"43.5484","longitude_centre":"5.973","distance_km":7.72},{"id":0,"code_insee":"83083","nom_standard":"Montfort-sur-Argens","nom_a":null,"nom_de":null,"slug_ville":"montfort-sur-argens","departement_id":0,"code_postal":"83570","population":1453,"superficie_km2":"1196.82","latitude_centre":"43.486","longitude_centre":"6.1252","distance_km":8.53},{"id":0,"code_insee":"83025","nom_standard":"Brue-Auriac","nom_a":null,"nom_de":null,"slug_ville":"brue-auriac","departement_id":0,"code_postal":"83119","population":1463,"superficie_km2":"3665.03","latitude_centre":"43.5259","longitude_centre":"5.9402","distance_km":10.72},{"id":0,"code_insee":"83145","nom_standard":"Varages","nom_a":null,"nom_de":null,"slug_ville":"varages","departement_id":0,"code_postal":"83670","population":1177,"superficie_km2":"3481.62","latitude_centre":"43.5924","longitude_centre":"5.9435","distance_km":11.09},{"id":0,"code_insee":"83143","nom_standard":"Le Val","nom_a":null,"nom_de":null,"slug_ville":"le-val","departement_id":0,"code_postal":"83143","population":4335,"superficie_km2":"3931.93","latitude_centre":"43.4468","longitude_centre":"6.0569","distance_km":11.61},{"id":33777,"code_insee":"83084","nom_standard":"Montmeyan","nom_a":null,"nom_de":null,"slug_ville":"montmeyan","departement_id":0,"code_postal":"83670","population":596,"superficie_km2":"3951.45","latitude_centre":"43.6574","longitude_centre":"6.0652","distance_km":11.85},{"id":0,"code_insee":"83032","nom_standard":"Carcès","nom_a":null,"nom_de":null,"slug_ville":"carces","departement_id":0,"code_postal":"83570","population":3540,"superficie_km2":"3574.31","latitude_centre":"43.4738","longitude_centre":"6.1752","distance_km":12.13},{"id":0,"code_insee":"83021","nom_standard":"Bras","nom_a":null,"nom_de":null,"slug_ville":"bras","departement_id":0,"code_postal":"83149","population":2637,"superficie_km2":"3586.50","latitude_centre":"43.4723","longitude_centre":"5.9558","distance_km":12.62},{"id":0,"code_insee":"83102","nom_standard":"Régusse","nom_a":null,"nom_de":null,"slug_ville":"regusse","departement_id":0,"code_postal":"83630","population":2380,"superficie_km2":"3562.97","latitude_centre":"43.663","longitude_centre":"6.122","distance_km":13.18},{"id":33775,"code_insee":"83078","nom_standard":"Moissac-Bellevue","nom_a":null,"nom_de":null,"slug_ville":"moissac-bellevue","departement_id":0,"code_postal":"83630","population":306,"superficie_km2":"2069.43","latitude_centre":"43.6487","longitude_centre":"6.1666","distance_km":13.43},{"id":0,"code_insee":"83151","nom_standard":"Vins-sur-Caramy","nom_a":null,"nom_de":null,"slug_ville":"vins-sur-caramy","departement_id":0,"code_postal":"83170","population":936,"superficie_km2":"1634.19","latitude_centre":"43.432","longitude_centre":"6.1495","distance_km":14.74},{"id":33756,"code_insee":"83005","nom_standard":"Artignosc-sur-Verdon","nom_a":null,"nom_de":null,"slug_ville":"artignosc-sur-verdon","departement_id":0,"code_postal":"83630","population":311,"superficie_km2":"1892.19","latitude_centre":"43.6991","longitude_centre":"6.1087","distance_km":16.79},{"id":11262,"code_insee":"04158","nom_standard":"Quinson","nom_a":null,"nom_de":null,"slug_ville":"quinson","departement_id":0,"code_postal":"04500","population":368,"superficie_km2":"2851.66","latitude_centre":"43.7048","longitude_centre":"6.0236","distance_km":17.49},{"id":0,"code_insee":"83023","nom_standard":"Brignoles","nom_a":null,"nom_de":null,"slug_ville":"brignoles","departement_id":0,"code_postal":"83170","population":17850,"superficie_km2":"7081.51","latitude_centre":"43.3878","longitude_centre":"6.0759","distance_km":18.15}]}