{"ville":{"id":4376,"code_insee":"44133","nom_standard":"Port-Saint-Père","nom_a":null,"nom_de":null,"slug_ville":"port-saint-pere","departement_id":645,"code_postal":"44710","population":3013,"superficie_km2":"33.00","latitude_centre":"47.1409988","longitude_centre":"-1.7680000","dep_code":"44","dep_nom":"Loire-Atlantique","dep_slug":"loire-atlantique","reg_code":"17","reg_nom":"Pays de la Loire","reg_slug":"pays-de-la-loire"},"departement":{"code":"44","nom":"Loire-Atlantique","slug":"loire-atlantique"},"region":{"code":"17","nom":"Pays de la Loire","slug":"pays-de-la-loire"},"villes_proches":[{"id":4409,"code_insee":"44171","nom_standard":"Saint-Léger-les-Vignes","nom_a":null,"nom_de":null,"slug_ville":"saint-leger-les-vignes","departement_id":645,"code_postal":"44710","population":2056,"superficie_km2":"7.00","latitude_centre":"47.1430016","longitude_centre":"-1.7140000","distance_km":4.09},{"id":4285,"code_insee":"44024","nom_standard":"Brains","nom_a":null,"nom_de":null,"slug_ville":"brains","departement_id":645,"code_postal":"44830","population":2811,"superficie_km2":"15.00","latitude_centre":"47.1699982","longitude_centre":"-1.7260000","distance_km":4.53},{"id":4298,"code_insee":"44039","nom_standard":"Cheix-en-Retz","nom_a":null,"nom_de":null,"slug_ville":"cheix-en-retz","departement_id":645,"code_postal":"44640","population":1162,"superficie_km2":"8.00","latitude_centre":"47.1809998","longitude_centre":"-1.7980000","distance_km":4.99},{"id":4388,"code_insee":"44145","nom_standard":"Rouans","nom_a":null,"nom_de":null,"slug_ville":"rouans","departement_id":645,"code_postal":"44640","population":3203,"superficie_km2":"38.00","latitude_centre":"47.1759987","longitude_centre":"-1.8430001","distance_km":6.88},{"id":4415,"code_insee":"44178","nom_standard":"Saint-Mars-de-Coutais","nom_a":null,"nom_de":null,"slug_ville":"saint-mars-de-coutais","departement_id":645,"code_postal":"44680","population":2645,"superficie_km2":"35.00","latitude_centre":"47.0800018","longitude_centre":"-1.7520000","distance_km":6.89},{"id":4406,"code_insee":"44166","nom_standard":"Saint-Jean-de-Boiseau","nom_a":null,"nom_de":null,"slug_ville":"saint-jean-de-boiseau","departement_id":645,"code_postal":"44640","population":5982,"superficie_km2":"12.00","latitude_centre":"47.1940002","longitude_centre":"-1.7200000","distance_km":6.92},{"id":4279,"code_insee":"44018","nom_standard":"Bouaye","nom_a":null,"nom_de":null,"slug_ville":"bouaye","departement_id":645,"code_postal":"44830","population":8144,"superficie_km2":"14.00","latitude_centre":"47.1469994","longitude_centre":"-1.6720001","distance_km":7.29},{"id":4422,"code_insee":"44186","nom_standard":"Sainte-Pazanne","nom_a":null,"nom_de":null,"slug_ville":"sainte-pazanne","departement_id":645,"code_postal":"44680","population":7218,"superficie_km2":"42.00","latitude_centre":"47.0839996","longitude_centre":"-1.8180000","distance_km":7.38},{"id":4349,"code_insee":"44101","nom_standard":"La Montagne","nom_a":null,"nom_de":null,"slug_ville":"la-montagne","departement_id":645,"code_postal":"44620","population":6488,"superficie_km2":"4.00","latitude_centre":"47.1850014","longitude_centre":"-1.6849999","distance_km":7.96},{"id":4327,"code_insee":"44074","nom_standard":"Indre","nom_a":null,"nom_de":null,"slug_ville":"indre","departement_id":645,"code_postal":"44610","population":4130,"superficie_km2":"5.00","latitude_centre":"47.1980019","longitude_centre":"-1.6720001","distance_km":9.64},{"id":4404,"code_insee":"44164","nom_standard":"Saint-Hilaire-de-Chaléons","nom_a":null,"nom_de":null,"slug_ville":"saint-hilaire-de-chaleons","departement_id":645,"code_postal":"44680","population":2353,"superficie_km2":"35.00","latitude_centre":"47.0960007","longitude_centre":"-1.8800000","distance_km":9.84},{"id":4365,"code_insee":"44120","nom_standard":"Le Pellerin","nom_a":null,"nom_de":null,"slug_ville":"le-pellerin","departement_id":645,"code_postal":"44640","population":5358,"superficie_km2":"31.00","latitude_centre":"47.2229996","longitude_centre":"-1.8250000","distance_km":10.08},{"id":4304,"code_insee":"44047","nom_standard":"Couëron","nom_a":null,"nom_de":null,"slug_ville":"coueron","departement_id":645,"code_postal":"44220","population":23057,"superficie_km2":"49.00","latitude_centre":"47.2309990","longitude_centre":"-1.7290000","distance_km":10.43},{"id":4412,"code_insee":"44174","nom_standard":"Saint-Lumine-de-Coutais","nom_a":null,"nom_de":null,"slug_ville":"saint-lumine-de-coutais","departement_id":645,"code_postal":"44310","population":2357,"superficie_km2":"18.00","latitude_centre":"47.0519981","longitude_centre":"-1.7240000","distance_km":10.44},{"id":4391,"code_insee":"44150","nom_standard":"Saint-Aignan-Grandlieu","nom_a":null,"nom_de":null,"slug_ville":"saint-aignan-grandlieu","departement_id":645,"code_postal":"44860","population":3986,"superficie_km2":"18.00","latitude_centre":"47.1329994","longitude_centre":"-1.6230000","distance_km":11},{"id":4451,"code_insee":"44220","nom_standard":"Vue","nom_a":null,"nom_de":null,"slug_ville":"vue","departement_id":645,"code_postal":"44640","population":1673,"superficie_km2":"20.00","latitude_centre":"47.1940002","longitude_centre":"-1.9010000","distance_km":11.65},{"id":4281,"code_insee":"44020","nom_standard":"Bouguenais","nom_a":null,"nom_de":null,"slug_ville":"bouguenais","departement_id":645,"code_postal":"44340","population":20410,"superficie_km2":"31.00","latitude_centre":"47.1710014","longitude_centre":"-1.6170000","distance_km":11.89},{"id":4424,"code_insee":"44188","nom_standard":"Saint-Philbert-de-Grand-Lieu","nom_a":null,"nom_de":null,"slug_ville":"saint-philbert-de-grand-lieu","departement_id":645,"code_postal":"44310","population":9388,"superficie_km2":"98.00","latitude_centre":"47.0600014","longitude_centre":"-1.6569999","distance_km":12.32},{"id":4402,"code_insee":"44162","nom_standard":"Saint-Herblain","nom_a":null,"nom_de":null,"slug_ville":"saint-herblain","departement_id":645,"code_postal":"44800","population":49537,"superficie_km2":"30.00","latitude_centre":"47.2239990","longitude_centre":"-1.6339999","distance_km":13.7},{"id":4399,"code_insee":"44158","nom_standard":"Saint-Étienne-de-Montluc","nom_a":null,"nom_de":null,"slug_ville":"saint-etienne-de-montluc","departement_id":645,"code_postal":"44360","population":7658,"superficie_km2":"57.00","latitude_centre":"47.2649994","longitude_centre":"-1.7840000","distance_km":13.84}]}