{"ville":{"id":11681,"code_insee":"07179","nom_standard":"Pourchères","nom_a":null,"nom_de":null,"slug_ville":"pourcheres","departement_id":0,"code_postal":"07000","population":136,"superficie_km2":"786.41","latitude_centre":"44.7423","longitude_centre":"4.5051","dep_code":"07","dep_nom":"Ardèche","dep_slug":"ardeche","reg_code":"84","reg_nom":"Auvergne-Rhône-Alpes","reg_slug":"auvergne-rhone-alpes"},"departement":{"code":"07","nom":"Ardèche","slug":"ardeche"},"region":{"code":"84","nom":"Auvergne-Rhône-Alpes","slug":"auvergne-rhone-alpes"},"villes_proches":[{"id":11555,"code_insee":"07004","nom_standard":"Ajoux","nom_a":null,"nom_de":null,"slug_ville":"ajoux","departement_id":0,"code_postal":"07000","population":81,"superficie_km2":"1239.47","latitude_centre":"44.7541","longitude_centre":"4.4872","distance_km":1.93},{"id":11603,"code_insee":"07074","nom_standard":"Creysseilles","nom_a":null,"nom_de":null,"slug_ville":"creysseilles","departement_id":0,"code_postal":"07000","population":158,"superficie_km2":"1026.02","latitude_centre":"44.7645","longitude_centre":"4.5329","distance_km":3.3},{"id":11621,"code_insee":"07098","nom_standard":"Gourdon","nom_a":null,"nom_de":null,"slug_ville":"gourdon","departement_id":0,"code_postal":"07000","population":85,"superficie_km2":"1278.60","latitude_centre":"44.7328","longitude_centre":"4.4646","distance_km":3.37},{"id":0,"code_insee":"07340","nom_standard":"Veyras","nom_a":null,"nom_de":null,"slug_ville":"veyras","departement_id":0,"code_postal":"07000","population":1505,"superficie_km2":"779.61","latitude_centre":"44.7346","longitude_centre":"4.5541","distance_km":3.96},{"id":0,"code_insee":"07288","nom_standard":"Saint-Priest","nom_a":null,"nom_de":null,"slug_ville":"saint-priest","departement_id":0,"code_postal":"07000","population":1345,"superficie_km2":"1980.34","latitude_centre":"44.7148","longitude_centre":"4.5389","distance_km":4.06},{"id":0,"code_insee":"07230","nom_standard":"Saint-Étienne-de-Boulogne","nom_a":null,"nom_de":null,"slug_ville":"saint-etienne-de-boulogne","departement_id":0,"code_postal":"07200","population":399,"superficie_km2":"1513.93","latitude_centre":"44.7015","longitude_centre":"4.4709","distance_km":5.28},{"id":0,"code_insee":"07253","nom_standard":"Saint-Julien-du-Gua","nom_a":null,"nom_de":null,"slug_ville":"saint-julien-du-gua","departement_id":0,"code_postal":"07190","population":169,"superficie_km2":"1694.95","latitude_centre":"44.7702","longitude_centre":"4.4419","distance_km":5.88},{"id":11626,"code_insee":"07104","nom_standard":"Issamoulenc","nom_a":null,"nom_de":null,"slug_ville":"issamoulenc","departement_id":0,"code_postal":"07190","population":107,"superficie_km2":"1566.64","latitude_centre":"44.7887","longitude_centre":"4.4519","distance_km":6.65},{"id":0,"code_insee":"07233","nom_standard":"Saint-Étienne-de-Serre","nom_a":null,"nom_de":null,"slug_ville":"saint-etienne-de-serre","departement_id":0,"code_postal":"07190","population":230,"superficie_km2":"1661.64","latitude_centre":"44.8026","longitude_centre":"4.5216","distance_km":6.83},{"id":11615,"code_insee":"07092","nom_standard":"Freyssenet","nom_a":null,"nom_de":null,"slug_ville":"freyssenet","departement_id":0,"code_postal":"07000","population":48,"superficie_km2":"970.61","latitude_centre":"44.6881","longitude_centre":"4.5466","distance_km":6.86},{"id":0,"code_insee":"07251","nom_standard":"Saint-Joseph-des-Bancs","nom_a":null,"nom_de":null,"slug_ville":"saint-joseph-des-bancs","departement_id":0,"code_postal":"07530","population":200,"superficie_km2":"1292.03","latitude_centre":"44.7515","longitude_centre":"4.4147","distance_km":7.21},{"id":0,"code_insee":"07184","nom_standard":"Pranles","nom_a":null,"nom_de":null,"slug_ville":"pranles","departement_id":0,"code_postal":"07000","population":499,"superficie_km2":"2913.32","latitude_centre":"44.781","longitude_centre":"4.5818","distance_km":7.43},{"id":11654,"code_insee":"07146","nom_standard":"Lyas","nom_a":null,"nom_de":null,"slug_ville":"lyas","departement_id":0,"code_postal":"07000","population":592,"superficie_km2":"814.77","latitude_centre":"44.7545","longitude_centre":"4.5976","distance_km":7.43},{"id":0,"code_insee":"07186","nom_standard":"Privas","nom_a":null,"nom_de":null,"slug_ville":"privas","departement_id":0,"code_postal":"07000","population":8538,"superficie_km2":"1201.34","latitude_centre":"44.7214","longitude_centre":"4.5949","distance_km":7.46},{"id":0,"code_insee":"07277","nom_standard":"Saint-Michel-de-Boulogne","nom_a":null,"nom_de":null,"slug_ville":"saint-michel-de-boulogne","departement_id":0,"code_postal":"07200","population":149,"superficie_km2":"747.59","latitude_centre":"44.6993","longitude_centre":"4.4323","distance_km":7.48},{"id":0,"code_insee":"07263","nom_standard":"Saint-Laurent-sous-Coiron","nom_a":null,"nom_de":null,"slug_ville":"saint-laurent-sous-coiron","departement_id":0,"code_postal":"07170","population":122,"superficie_km2":"1559.22","latitude_centre":"44.6726","longitude_centre":"4.4838","distance_km":7.93},{"id":0,"code_insee":"07286","nom_standard":"Saint-Pierreville","nom_a":null,"nom_de":null,"slug_ville":"saint-pierreville","departement_id":0,"code_postal":"07190","population":510,"superficie_km2":"2052.33","latitude_centre":"44.8242","longitude_centre":"4.4845","distance_km":9.25},{"id":11605,"code_insee":"07077","nom_standard":"Darbres","nom_a":null,"nom_de":null,"slug_ville":"darbres","departement_id":0,"code_postal":"07170","population":272,"superficie_km2":"1634.90","latitude_centre":"44.6597","longitude_centre":"4.5216","distance_km":9.28},{"id":0,"code_insee":"07295","nom_standard":"Saint-Sauveur-de-Montagut","nom_a":null,"nom_de":null,"slug_ville":"saint-sauveur-de-montagut","departement_id":0,"code_postal":"07190","population":1115,"superficie_km2":"1170.36","latitude_centre":"44.8199","longitude_centre":"4.5772","distance_km":10.34},{"id":11619,"code_insee":"07096","nom_standard":"Gluiras","nom_a":null,"nom_de":null,"slug_ville":"gluiras","departement_id":0,"code_postal":"07190","population":366,"superficie_km2":"2465.99","latitude_centre":"44.8456","longitude_centre":"4.522","distance_km":11.56}]}