{"ville":{"id":19951,"code_insee":"34215","nom_standard":"Pouzols","nom_a":null,"nom_de":null,"slug_ville":"pouzols","departement_id":0,"code_postal":"34230","population":953,"superficie_km2":"296.84","latitude_centre":"43.6224","longitude_centre":"3.5083","dep_code":"34","dep_nom":"Hérault","dep_slug":"herault","reg_code":"76","reg_nom":"Occitanie","reg_slug":"occitanie"},"departement":{"code":"34","nom":"Hérault","slug":"herault"},"region":{"code":"76","nom":"Occitanie","slug":"occitanie"},"villes_proches":[{"id":19948,"code_insee":"34208","nom_standard":"Popian","nom_a":null,"nom_de":null,"slug_ville":"popian","departement_id":0,"code_postal":"34230","population":380,"superficie_km2":"587.90","latitude_centre":"43.6233","longitude_centre":"3.534","distance_km":2.07},{"id":0,"code_insee":"34239","nom_standard":"Saint-André-de-Sangonis","nom_a":null,"nom_de":null,"slug_ville":"saint-andre-de-sangonis","departement_id":0,"code_postal":"34725","population":6427,"superficie_km2":"1964.96","latitude_centre":"43.6492","longitude_centre":"3.5056","distance_km":2.99},{"id":19865,"code_insee":"34041","nom_standard":"Brignac","nom_a":null,"nom_de":null,"slug_ville":"brignac","departement_id":0,"code_postal":"34800","population":978,"superficie_km2":"469.53","latitude_centre":"43.6228","longitude_centre":"3.4704","distance_km":3.05},{"id":0,"code_insee":"34051","nom_standard":"Canet","nom_a":null,"nom_de":null,"slug_ville":"canet","departement_id":0,"code_postal":"34800","population":3619,"superficie_km2":"732.34","latitude_centre":"43.5992","longitude_centre":"3.4821","distance_km":3.33},{"id":0,"code_insee":"34210","nom_standard":"Le Pouget","nom_a":null,"nom_de":null,"slug_ville":"le-pouget","departement_id":0,"code_postal":"34230","population":2122,"superficie_km2":"1393.42","latitude_centre":"43.5919","longitude_centre":"3.5184","distance_km":3.49},{"id":0,"code_insee":"34241","nom_standard":"Saint-Bauzille-de-la-Sylve","nom_a":null,"nom_de":null,"slug_ville":"saint-bauzille-de-la-sylve","departement_id":0,"code_postal":"34230","population":947,"superficie_km2":"860.59","latitude_centre":"43.6129","longitude_centre":"3.5614","distance_km":4.4},{"id":0,"code_insee":"34076","nom_standard":"Ceyras","nom_a":null,"nom_de":null,"slug_ville":"ceyras","departement_id":0,"code_postal":"34800","population":1404,"superficie_km2":"703.01","latitude_centre":"43.6512","longitude_centre":"3.4628","distance_km":4.86},{"id":0,"code_insee":"34114","nom_standard":"Gignac","nom_a":null,"nom_de":null,"slug_ville":"gignac","departement_id":0,"code_postal":"34150","population":6651,"superficie_km2":"2988.72","latitude_centre":"43.6416","longitude_centre":"3.5661","distance_km":5.12},{"id":0,"code_insee":"34254","nom_standard":"Saint-Félix-de-Lodez","nom_a":null,"nom_de":null,"slug_ville":"saint-felix-de-lodez","departement_id":0,"code_postal":"34725","population":1135,"superficie_km2":"439.37","latitude_centre":"43.6595","longitude_centre":"3.4682","distance_km":5.24},{"id":0,"code_insee":"34313","nom_standard":"Tressan","nom_a":null,"nom_de":null,"slug_ville":"tressan","departement_id":0,"code_postal":"34230","population":683,"superficie_km2":"390.71","latitude_centre":"43.5718","longitude_centre":"3.487","distance_km":5.88},{"id":19914,"code_insee":"34125","nom_standard":"Lagamas","nom_a":null,"nom_de":null,"slug_ville":"lagamas","departement_id":0,"code_postal":"34150","population":111,"superficie_km2":"451.37","latitude_centre":"43.6755","longitude_centre":"3.5319","distance_km":6.2},{"id":0,"code_insee":"34328","nom_standard":"Vendémian","nom_a":null,"nom_de":null,"slug_ville":"vendemian","departement_id":0,"code_postal":"34230","population":1149,"superficie_km2":"1694.52","latitude_centre":"43.5808","longitude_centre":"3.5611","distance_km":6.28},{"id":19912,"code_insee":"34122","nom_standard":"Jonquières","nom_a":null,"nom_de":null,"slug_ville":"jonquieres","departement_id":0,"code_postal":"34725","population":590,"superficie_km2":"206.45","latitude_centre":"43.6747","longitude_centre":"3.4781","distance_km":6.3},{"id":0,"code_insee":"34222","nom_standard":"Puilacher","nom_a":null,"nom_de":null,"slug_ville":"puilacher","departement_id":0,"code_postal":"34230","population":657,"superficie_km2":"270.36","latitude_centre":"43.5655","longitude_centre":"3.5036","distance_km":6.34},{"id":0,"code_insee":"34180","nom_standard":"Nébian","nom_a":null,"nom_de":null,"slug_ville":"nebian","departement_id":0,"code_postal":"34800","population":1634,"superficie_km2":"989.35","latitude_centre":"43.5999","longitude_centre":"3.4357","distance_km":6.36},{"id":0,"code_insee":"34204","nom_standard":"Plaissan","nom_a":null,"nom_de":null,"slug_ville":"plaissan","departement_id":0,"code_postal":"34230","population":1718,"superficie_km2":"596.61","latitude_centre":"43.5597","longitude_centre":"3.5303","distance_km":7.19},{"id":19861,"code_insee":"34029","nom_standard":"Bélarga","nom_a":null,"nom_de":null,"slug_ville":"belarga","departement_id":0,"code_postal":"34230","population":664,"superficie_km2":"415.60","latitude_centre":"43.5547","longitude_centre":"3.5001","distance_km":7.56},{"id":0,"code_insee":"34013","nom_standard":"Aspiran","nom_a":null,"nom_de":null,"slug_ville":"aspiran","departement_id":0,"code_postal":"34800","population":1672,"superficie_km2":"1627.13","latitude_centre":"43.5654","longitude_centre":"3.4499","distance_km":7.89},{"id":0,"code_insee":"34262","nom_standard":"Saint-Guiraud","nom_a":null,"nom_de":null,"slug_ville":"saint-guiraud","departement_id":0,"code_postal":"34725","population":267,"superficie_km2":"607.93","latitude_centre":"43.6802","longitude_centre":"3.4508","distance_km":7.92},{"id":0,"code_insee":"34267","nom_standard":"Saint-Jean-de-Fos","nom_a":null,"nom_de":null,"slug_ville":"saint-jean-de-fos","departement_id":0,"code_postal":"34150","population":1745,"superficie_km2":"1415.16","latitude_centre":"43.6955","longitude_centre":"3.5463","distance_km":8.68}]}