{"ville":{"id":11682,"code_insee":"07183","nom_standard":"Pradons","nom_a":null,"nom_de":null,"slug_ville":"pradons","departement_id":0,"code_postal":"07120","population":545,"superficie_km2":"805.91","latitude_centre":"44.4725","longitude_centre":"4.3754","dep_code":"07","dep_nom":"Ardèche","dep_slug":"ardeche","reg_code":"84","reg_nom":"Auvergne-Rhône-Alpes","reg_slug":"auvergne-rhone-alpes"},"departement":{"code":"07","nom":"Ardèche","slug":"ardeche"},"region":{"code":"84","nom":"Auvergne-Rhône-Alpes","slug":"auvergne-rhone-alpes"},"villes_proches":[{"id":11594,"code_insee":"07061","nom_standard":"Chauzon","nom_a":null,"nom_de":null,"slug_ville":"chauzon","departement_id":0,"code_postal":"07120","population":422,"superficie_km2":"1081.74","latitude_centre":"44.4937","longitude_centre":"4.3467","distance_km":3.28},{"id":0,"code_insee":"07201","nom_standard":"Ruoms","nom_a":null,"nom_de":null,"slug_ville":"ruoms","departement_id":0,"code_postal":"07120","population":2311,"superficie_km2":"1240.51","latitude_centre":"44.4506","longitude_centre":"4.347","distance_km":3.32},{"id":11564,"code_insee":"07023","nom_standard":"Balazuc","nom_a":null,"nom_de":null,"slug_ville":"balazuc","departement_id":0,"code_postal":"07120","population":389,"superficie_km2":"1877.42","latitude_centre":"44.5123","longitude_centre":"4.3737","distance_km":4.43},{"id":0,"code_insee":"07126","nom_standard":"Lagorce","nom_a":null,"nom_de":null,"slug_ville":"lagorce","departement_id":0,"code_postal":"07150","population":1257,"superficie_km2":"6928.72","latitude_centre":"44.4469","longitude_centre":"4.4293","distance_km":5.14},{"id":11635,"code_insee":"07115","nom_standard":"Labeaume","nom_a":null,"nom_de":null,"slug_ville":"labeaume","departement_id":0,"code_postal":"07120","population":698,"superficie_km2":"1785.74","latitude_centre":"44.4682","longitude_centre":"4.3074","distance_km":5.42},{"id":0,"code_insee":"07272","nom_standard":"Saint-Maurice-d'Ardèche","nom_a":null,"nom_de":null,"slug_ville":"saint-maurice-d-ardeche","departement_id":0,"code_postal":"07200","population":375,"superficie_km2":"526.23","latitude_centre":"44.5198","longitude_centre":"4.4015","distance_km":5.65},{"id":0,"code_insee":"07327","nom_standard":"Uzer","nom_a":null,"nom_de":null,"slug_ville":"uzer","departement_id":0,"code_postal":"07110","population":421,"superficie_km2":"347.37","latitude_centre":"44.5177","longitude_centre":"4.3287","distance_km":6.24},{"id":11644,"code_insee":"07131","nom_standard":"Lanas","nom_a":null,"nom_de":null,"slug_ville":"lanas","departement_id":0,"code_postal":"07200","population":429,"superficie_km2":"1017.67","latitude_centre":"44.5339","longitude_centre":"4.3812","distance_km":6.84},{"id":0,"code_insee":"07306","nom_standard":"Sampzon","nom_a":null,"nom_de":null,"slug_ville":"sampzon","departement_id":0,"code_postal":"07120","population":241,"superficie_km2":"843.45","latitude_centre":"44.4119","longitude_centre":"4.3342","distance_km":7.49},{"id":0,"code_insee":"07207","nom_standard":"Saint-Alban-Auriolles","nom_a":null,"nom_de":null,"slug_ville":"saint-alban-auriolles","departement_id":0,"code_postal":"07120","population":1138,"superficie_km2":"1740.29","latitude_centre":"44.4324","longitude_centre":"4.2965","distance_km":7.69},{"id":11667,"code_insee":"07162","nom_standard":"Montréal","nom_a":null,"nom_de":null,"slug_ville":"montreal","departement_id":0,"code_postal":"07110","population":573,"superficie_km2":"614.57","latitude_centre":"44.5124","longitude_centre":"4.2937","distance_km":7.85},{"id":0,"code_insee":"07134","nom_standard":"Laurac-en-Vivarais","nom_a":null,"nom_de":null,"slug_ville":"laurac-en-vivarais","departement_id":0,"code_postal":"07110","population":1045,"superficie_km2":"906.40","latitude_centre":"44.5051","longitude_centre":"4.2875","distance_km":7.86},{"id":0,"code_insee":"07190","nom_standard":"Rochecolombe","nom_a":null,"nom_de":null,"slug_ville":"rochecolombe","departement_id":0,"code_postal":"07200","population":227,"superficie_km2":"2155.95","latitude_centre":"44.518","longitude_centre":"4.4519","distance_km":7.9},{"id":0,"code_insee":"07330","nom_standard":"Vallon-Pont-d'Arc","nom_a":null,"nom_de":null,"slug_ville":"vallon-pont-d-arc","departement_id":0,"code_postal":"07150","population":2403,"superficie_km2":"2910.97","latitude_centre":"44.3982","longitude_centre":"4.4024","distance_km":8.54},{"id":0,"code_insee":"07132","nom_standard":"Largentière","nom_a":null,"nom_de":null,"slug_ville":"largentiere","departement_id":0,"code_postal":"07110","population":1450,"superficie_km2":"736.30","latitude_centre":"44.5307","longitude_centre":"4.2984","distance_km":8.9},{"id":0,"code_insee":"07343","nom_standard":"Vinezac","nom_a":null,"nom_de":null,"slug_ville":"vinezac","departement_id":0,"code_postal":"07110","population":1378,"superficie_km2":"1105.96","latitude_centre":"44.5498","longitude_centre":"4.3332","distance_km":9.22},{"id":0,"code_insee":"07304","nom_standard":"Salavas","nom_a":null,"nom_de":null,"slug_ville":"salavas","departement_id":0,"code_postal":"07150","population":740,"superficie_km2":"1717.15","latitude_centre":"44.3882","longitude_centre":"4.3652","distance_km":9.41},{"id":0,"code_insee":"07348","nom_standard":"Vogüé","nom_a":null,"nom_de":null,"slug_ville":"vogue","departement_id":0,"code_postal":"07200","population":1040,"superficie_km2":"1192.02","latitude_centre":"44.5562","longitude_centre":"4.411","distance_km":9.73},{"id":0,"code_insee":"07122","nom_standard":"Lachapelle-sous-Aubenas","nom_a":null,"nom_de":null,"slug_ville":"lachapelle-sous-aubenas","departement_id":0,"code_postal":"07200","population":1911,"superficie_km2":"1023.37","latitude_centre":"44.5601","longitude_centre":"4.3552","distance_km":9.87},{"id":0,"code_insee":"07296","nom_standard":"Saint-Sernin","nom_a":null,"nom_de":null,"slug_ville":"saint-sernin","departement_id":0,"code_postal":"07200","population":1872,"superficie_km2":"582.85","latitude_centre":"44.5755","longitude_centre":"4.3762","distance_km":11.45}]}