{"ville":{"id":1623,"code_insee":"22254","nom_standard":"Prat","nom_a":null,"nom_de":null,"slug_ville":"prat","departement_id":623,"code_postal":"22140","population":1103,"superficie_km2":"22.00","latitude_centre":"48.6819992","longitude_centre":"-3.2980001","dep_code":"22","dep_nom":"Côtes-d'Armor","dep_slug":"cotes-d-armor","reg_code":"03","reg_nom":"Bretagne","reg_slug":"bretagne"},"departement":{"code":"22","nom":"Côtes-d'Armor","slug":"cotes-d-armor"},"region":{"code":"03","nom":"Bretagne","slug":"bretagne"},"villes_proches":[{"id":1516,"code_insee":"22034","nom_standard":"Cavan","nom_a":null,"nom_de":null,"slug_ville":"cavan","departement_id":623,"code_postal":"22140","population":1528,"superficie_km2":"17.00","latitude_centre":"48.6829987","longitude_centre":"-3.3529999","distance_km":4.04},{"id":1505,"code_insee":"22004","nom_standard":"Bégard","nom_a":null,"nom_de":null,"slug_ville":"begard","departement_id":623,"code_postal":"22140","population":4839,"superficie_km2":"36.00","latitude_centre":"48.6349983","longitude_centre":"-3.2920001","distance_km":5.24},{"id":1541,"code_insee":"22101","nom_standard":"Langoat","nom_a":null,"nom_de":null,"slug_ville":"langoat","departement_id":623,"code_postal":"22450","population":1152,"superficie_km2":"19.00","latitude_centre":"48.7350006","longitude_centre":"-3.2980001","distance_km":5.89},{"id":1649,"code_insee":"22340","nom_standard":"Tonquédec","nom_a":null,"nom_de":null,"slug_ville":"tonquedec","departement_id":623,"code_postal":"22140","population":1201,"superficie_km2":"18.00","latitude_centre":"48.6749992","longitude_centre":"-3.4000001","distance_km":7.53},{"id":1628,"code_insee":"22264","nom_standard":"La Roche-Jaudy","nom_a":null,"nom_de":null,"slug_ville":"la-roche-jaudy","departement_id":623,"code_postal":"22450","population":2657,"superficie_km2":"2.00","latitude_centre":"48.7459984","longitude_centre":"-3.2579999","distance_km":7.7},{"id":1597,"code_insee":"22212","nom_standard":"Plouëc-du-Trieux","nom_a":null,"nom_de":null,"slug_ville":"plouec-du-trieux","departement_id":623,"code_postal":"22260","population":1143,"superficie_km2":"19.00","latitude_centre":"48.6720009","longitude_centre":"-3.1880000","distance_km":8.15},{"id":1629,"code_insee":"22265","nom_standard":"Rospez","nom_a":null,"nom_de":null,"slug_ville":"rospez","departement_id":623,"code_postal":"22300","population":1787,"superficie_km2":"13.00","latitude_centre":"48.7360001","longitude_centre":"-3.3859999","distance_km":8.82},{"id":1590,"code_insee":"22204","nom_standard":"Ploëzal","nom_a":null,"nom_de":null,"slug_ville":"ploezal","departement_id":623,"code_postal":"22260","population":1224,"superficie_km2":"27.00","latitude_centre":"48.7169991","longitude_centre":"-3.1800001","distance_km":9.49},{"id":1558,"code_insee":"22152","nom_standard":"Minihy-Tréguier","nom_a":null,"nom_de":null,"slug_ville":"minihy-treguier","departement_id":623,"code_postal":"22220","population":1249,"superficie_km2":"13.00","latitude_centre":"48.7680016","longitude_centre":"-3.2579999","distance_km":10},{"id":1563,"code_insee":"22164","nom_standard":"Pédernec","nom_a":null,"nom_de":null,"slug_ville":"pedernec","departement_id":623,"code_postal":"22540","population":1874,"superficie_km2":"27.00","latitude_centre":"48.5880013","longitude_centre":"-3.2770000","distance_km":10.57},{"id":1596,"code_insee":"22211","nom_standard":"Ploubezre","nom_a":null,"nom_de":null,"slug_ville":"ploubezre","departement_id":623,"code_postal":"22300","population":3743,"superficie_km2":"31.00","latitude_centre":"48.6860008","longitude_centre":"-3.4480000","distance_km":11.02},{"id":1536,"code_insee":"22090","nom_standard":"Kermaria-Sulard","nom_a":null,"nom_de":null,"slug_ville":"kermaria-sulard","departement_id":623,"code_postal":"22450","population":1101,"superficie_km2":"9.00","latitude_centre":"48.7739983","longitude_centre":"-3.3720000","distance_km":11.58},{"id":1656,"code_insee":"22362","nom_standard":"Tréguier","nom_a":null,"nom_de":null,"slug_ville":"treguier","departement_id":623,"code_postal":"22220","population":2409,"superficie_km2":"2.00","latitude_centre":"48.7849999","longitude_centre":"-3.2320001","distance_km":12.43},{"id":1665,"code_insee":"22387","nom_standard":"Le Vieux-Marché","nom_a":null,"nom_de":null,"slug_ville":"le-vieux-marche","departement_id":623,"code_postal":"22420","population":1273,"superficie_km2":"22.00","latitude_centre":"48.6139984","longitude_centre":"-3.4380000","distance_km":12.77},{"id":1606,"code_insee":"22223","nom_standard":"Plouisy","nom_a":null,"nom_de":null,"slug_ville":"plouisy","departement_id":623,"code_postal":"22200","population":2006,"superficie_km2":"24.00","latitude_centre":"48.5839996","longitude_centre":"-3.1919999","distance_km":13.39},{"id":1545,"code_insee":"22113","nom_standard":"Lannion","nom_a":null,"nom_de":null,"slug_ville":"lannion","departement_id":623,"code_postal":"22300","population":20344,"superficie_km2":"48.00","latitude_centre":"48.7430000","longitude_centre":"-3.4619999","distance_km":13.81},{"id":1552,"code_insee":"22135","nom_standard":"Louargat","nom_a":null,"nom_de":null,"slug_ville":"louargat","departement_id":623,"code_postal":"22540","population":2338,"superficie_km2":"58.00","latitude_centre":"48.5610008","longitude_centre":"-3.3410001","distance_km":13.82},{"id":1651,"code_insee":"22347","nom_standard":"Trédarzec","nom_a":null,"nom_de":null,"slug_ville":"tredarzec","departement_id":623,"code_postal":"22220","population":1061,"superficie_km2":"12.00","latitude_centre":"48.7910004","longitude_centre":"-3.2019999","distance_km":14.02},{"id":1551,"code_insee":"22134","nom_standard":"Louannec","nom_a":null,"nom_de":null,"slug_ville":"louannec","departement_id":623,"code_postal":"22700","population":3085,"superficie_km2":"14.00","latitude_centre":"48.7840004","longitude_centre":"-3.4119999","distance_km":14.09},{"id":1624,"code_insee":"22256","nom_standard":"Quemper-Guézennec","nom_a":null,"nom_de":null,"slug_ville":"quemper-guezennec","departement_id":623,"code_postal":"22260","population":1057,"superficie_km2":"23.00","latitude_centre":"48.7010002","longitude_centre":"-3.1080000","distance_km":14.11}]}