{"ville":{"id":21098,"code_insee":"39443","nom_standard":"Présilly","nom_a":null,"nom_de":null,"slug_ville":"presilly","departement_id":0,"code_postal":"39270","population":111,"superficie_km2":"1130.41","latitude_centre":"46.5544","longitude_centre":"5.584","dep_code":"39","dep_nom":"Jura","dep_slug":"jura","reg_code":"27","reg_nom":"Bourgogne-Franche-Comté","reg_slug":"bourgogne-franche-comte"},"departement":{"code":"39","nom":"Jura","slug":"jura"},"region":{"code":"27","nom":"Bourgogne-Franche-Comté","slug":"bourgogne-franche-comte"},"villes_proches":[{"id":0,"code_insee":"39455","nom_standard":"Reithouse","nom_a":null,"nom_de":null,"slug_ville":"reithouse","departement_id":0,"code_postal":"39270","population":55,"superficie_km2":"480.44","latitude_centre":"46.5635","longitude_centre":"5.5528","distance_km":2.59},{"id":20916,"code_insee":"39200","nom_standard":"Dompierre-sur-Mont","nom_a":null,"nom_de":null,"slug_ville":"dompierre-sur-mont","departement_id":0,"code_postal":"39270","population":210,"superficie_km2":"731.58","latitude_centre":"46.5645","longitude_centre":"5.6148","distance_km":2.61},{"id":21049,"code_insee":"39375","nom_standard":"Moutonne","nom_a":null,"nom_de":null,"slug_ville":"moutonne","departement_id":0,"code_postal":"39270","population":129,"superficie_km2":"400.76","latitude_centre":"46.5313","longitude_centre":"5.569","distance_km":2.81},{"id":20768,"code_insee":"39007","nom_standard":"Alièze","nom_a":null,"nom_de":null,"slug_ville":"alieze","departement_id":0,"code_postal":"39270","population":149,"superficie_km2":"582.11","latitude_centre":"46.588","longitude_centre":"5.5851","distance_km":3.74},{"id":20797,"code_insee":"39045","nom_standard":"Beffia","nom_a":null,"nom_de":null,"slug_ville":"beffia","departement_id":0,"code_postal":"39270","population":86,"superficie_km2":"519.82","latitude_centre":"46.5306","longitude_centre":"5.5487","distance_km":3.78},{"id":21014,"code_insee":"39324","nom_standard":"Mérona","nom_a":null,"nom_de":null,"slug_ville":"merona","departement_id":0,"code_postal":"39270","population":9,"superficie_km2":"291.41","latitude_centre":"46.5561","longitude_centre":"5.6351","distance_km":3.91},{"id":21005,"code_insee":"39314","nom_standard":"Marnézia","nom_a":null,"nom_de":null,"slug_ville":"marnezia","departement_id":0,"code_postal":"39270","population":65,"superficie_km2":"498.27","latitude_centre":"46.576","longitude_centre":"5.635","distance_km":4.58},{"id":20894,"code_insee":"39168","nom_standard":"Courbette","nom_a":null,"nom_de":null,"slug_ville":"courbette","departement_id":0,"code_postal":"39570","population":44,"superficie_km2":"264.93","latitude_centre":"46.5992","longitude_centre":"5.5694","distance_km":5.1},{"id":21084,"code_insee":"39423","nom_standard":"Plaisia","nom_a":null,"nom_de":null,"slug_ville":"plaisia","departement_id":0,"code_postal":"39270","population":96,"superficie_km2":"532.68","latitude_centre":"46.5201","longitude_centre":"5.6367","distance_km":5.55},{"id":20778,"code_insee":"39021","nom_standard":"La Chailleuse","nom_a":null,"nom_de":null,"slug_ville":"la-chailleuse","departement_id":0,"code_postal":"39270","population":587,"superficie_km2":"2490.83","latitude_centre":"46.5822","longitude_centre":"5.5233","distance_km":5.58},{"id":21092,"code_insee":"39431","nom_standard":"Poids-de-Fiole","nom_a":null,"nom_de":null,"slug_ville":"poids-de-fiole","departement_id":0,"code_postal":"39570","population":323,"superficie_km2":"653.80","latitude_centre":"46.5982","longitude_centre":"5.6234","distance_km":5.73},{"id":0,"code_insee":"39397","nom_standard":"Orgelet","nom_a":null,"nom_de":null,"slug_ville":"orgelet","departement_id":0,"code_postal":"39270","population":1554,"superficie_km2":"2554.54","latitude_centre":"46.5064","longitude_centre":"5.6151","distance_km":5.84},{"id":0,"code_insee":"39492","nom_standard":"Saint-Maur","nom_a":null,"nom_de":null,"slug_ville":"saint-maur","departement_id":0,"code_postal":"39570","population":212,"superficie_km2":"640.48","latitude_centre":"46.6078","longitude_centre":"5.5969","distance_km":6.02},{"id":0,"code_insee":"39468","nom_standard":"Rothonay","nom_a":null,"nom_de":null,"slug_ville":"rothonay","departement_id":0,"code_postal":"39270","population":128,"superficie_km2":"1295.58","latitude_centre":"46.5138","longitude_centre":"5.5262","distance_km":6.32},{"id":20868,"code_insee":"39134","nom_standard":"Chavéria","nom_a":null,"nom_de":null,"slug_ville":"chaveria","departement_id":0,"code_postal":"39270","population":201,"superficie_km2":"1026.10","latitude_centre":"46.498","longitude_centre":"5.5589","distance_km":6.56},{"id":21061,"code_insee":"39390","nom_standard":"Nogna","nom_a":null,"nom_de":null,"slug_ville":"nogna","departement_id":0,"code_postal":"39570","population":308,"superficie_km2":"634.24","latitude_centre":"46.6013","longitude_centre":"5.6412","distance_km":6.81},{"id":20815,"code_insee":"39066","nom_standard":"Bornay","nom_a":null,"nom_de":null,"slug_ville":"bornay","departement_id":0,"code_postal":"39570","population":184,"superficie_km2":"672.07","latitude_centre":"46.6128","longitude_centre":"5.5545","distance_km":6.87},{"id":20923,"code_insee":"39207","nom_standard":"Écrille","nom_a":null,"nom_de":null,"slug_ville":"ecrille","departement_id":0,"code_postal":"39270","population":89,"superficie_km2":"524.73","latitude_centre":"46.4997","longitude_centre":"5.6322","distance_km":7.11},{"id":0,"code_insee":"39552","nom_standard":"Vernantois","nom_a":null,"nom_de":null,"slug_ville":"vernantois","departement_id":0,"code_postal":"39570","population":298,"superficie_km2":"688.19","latitude_centre":"46.623","longitude_centre":"5.5812","distance_km":7.63},{"id":0,"code_insee":"39458","nom_standard":"Revigny","nom_a":null,"nom_de":null,"slug_ville":"revigny","departement_id":0,"code_postal":"39570","population":234,"superficie_km2":"641.01","latitude_centre":"46.6225","longitude_centre":"5.6079","distance_km":7.79}]}