{"ville":{"id":33232,"code_insee":"80654","nom_standard":"Quesnoy-le-Montant","nom_a":null,"nom_de":null,"slug_ville":"quesnoy-le-montant","departement_id":0,"code_postal":"80132","population":514,"superficie_km2":"704.31","latitude_centre":"50.1064","longitude_centre":"1.688","dep_code":"80","dep_nom":"Somme","dep_slug":"somme","reg_code":"32","reg_nom":"Hauts-de-France","reg_slug":"hauts-de-france"},"departement":{"code":"80","nom":"Somme","slug":"somme"},"region":{"code":"32","nom":"Hauts-de-France","slug":"hauts-de-france"},"villes_proches":[{"id":33152,"code_insee":"80546","nom_standard":"Miannay","nom_a":null,"nom_de":null,"slug_ville":"miannay","departement_id":0,"code_postal":"80132","population":604,"superficie_km2":"879.34","latitude_centre":"50.0979","longitude_centre":"1.7107","distance_km":1.87},{"id":33160,"code_insee":"80556","nom_standard":"Mons-Boubert","nom_a":null,"nom_de":null,"slug_ville":"mons-boubert","departement_id":0,"code_postal":"80210","population":585,"superficie_km2":"955.88","latitude_centre":"50.1267","longitude_centre":"1.6641","distance_km":2.83},{"id":32986,"code_insee":"80345","nom_standard":"Franleu","nom_a":null,"nom_de":null,"slug_ville":"franleu","departement_id":0,"code_postal":"80210","population":501,"superficie_km2":"842.72","latitude_centre":"50.0994","longitude_centre":"1.646","distance_km":3.09},{"id":32836,"code_insee":"80161","nom_standard":"Cahon","nom_a":null,"nom_de":null,"slug_ville":"cahon","departement_id":0,"code_postal":"80132","population":222,"superficie_km2":"704.65","latitude_centre":"50.1217","longitude_centre":"1.7282","distance_km":3.33},{"id":0,"code_insee":"80691","nom_standard":"Saigneville","nom_a":null,"nom_de":null,"slug_ville":"saigneville","departement_id":0,"code_postal":"80230","population":344,"superficie_km2":"1268.75","latitude_centre":"50.1401","longitude_centre":"1.7192","distance_km":4.36},{"id":32700,"code_insee":"80004","nom_standard":"Acheux-en-Vimeu","nom_a":null,"nom_de":null,"slug_ville":"acheux-en-vimeu","departement_id":0,"code_postal":"80210","population":501,"superficie_km2":"1232.25","latitude_centre":"50.0668","longitude_centre":"1.6688","distance_km":4.61},{"id":0,"code_insee":"80775","nom_standard":"Valines","nom_a":null,"nom_de":null,"slug_ville":"valines","departement_id":0,"code_postal":"80210","population":655,"superficie_km2":"522.95","latitude_centre":"50.0805","longitude_centre":"1.6302","distance_km":5.03},{"id":0,"code_insee":"80190","nom_standard":"Chépy","nom_a":null,"nom_de":null,"slug_ville":"chepy","departement_id":0,"code_postal":"80210","population":1190,"superficie_km2":"731.94","latitude_centre":"50.0673","longitude_centre":"1.6443","distance_km":5.35},{"id":0,"code_insee":"80764","nom_standard":"Tœufles","nom_a":null,"nom_de":null,"slug_ville":"toeufles","departement_id":0,"code_postal":"80870","population":308,"superficie_km2":"885.98","latitude_centre":"50.0612","longitude_centre":"1.7142","distance_km":5.36},{"id":33197,"code_insee":"80603","nom_standard":"Ochancourt","nom_a":null,"nom_de":null,"slug_ville":"ochancourt","departement_id":0,"code_postal":"80210","population":322,"superficie_km2":"398.59","latitude_centre":"50.0999","longitude_centre":"1.611","distance_km":5.54},{"id":32717,"code_insee":"80029","nom_standard":"Arrest","nom_a":null,"nom_de":null,"slug_ville":"arrest","departement_id":0,"code_postal":"80820","population":820,"superficie_km2":"1113.19","latitude_centre":"50.1305","longitude_centre":"1.6194","distance_km":5.58},{"id":33178,"code_insee":"80578","nom_standard":"Moyenneville","nom_a":null,"nom_de":null,"slug_ville":"moyenneville","departement_id":0,"code_postal":"80870","population":693,"superficie_km2":"1410.75","latitude_centre":"50.0764","longitude_centre":"1.7521","distance_km":5.66},{"id":32838,"code_insee":"80163","nom_standard":"Cambron","nom_a":null,"nom_de":null,"slug_ville":"cambron","departement_id":0,"code_postal":"80132","population":740,"superficie_km2":"1279.81","latitude_centre":"50.1097","longitude_centre":"1.7673","distance_km":5.67},{"id":32789,"code_insee":"80110","nom_standard":"Boismont","nom_a":null,"nom_de":null,"slug_ville":"boismont","departement_id":0,"code_postal":"80230","population":441,"superficie_km2":"1574.83","latitude_centre":"50.1588","longitude_centre":"1.6742","distance_km":5.91},{"id":32937,"code_insee":"80287","nom_standard":"Estrébœuf","nom_a":null,"nom_de":null,"slug_ville":"estreboeuf","departement_id":0,"code_postal":"80230","population":244,"superficie_km2":"622.54","latitude_centre":"50.156","longitude_centre":"1.6236","distance_km":7.18},{"id":33219,"code_insee":"80637","nom_standard":"Port-le-Grand","nom_a":null,"nom_de":null,"slug_ville":"port-le-grand","departement_id":0,"code_postal":"80132","population":268,"superficie_km2":"1132.02","latitude_centre":"50.1549","longitude_centre":"1.7569","distance_km":7.29},{"id":32931,"code_insee":"80280","nom_standard":"Ercourt","nom_a":null,"nom_de":null,"slug_ville":"ercourt","departement_id":0,"code_postal":"80210","population":132,"superficie_km2":"420.79","latitude_centre":"50.0413","longitude_centre":"1.7231","distance_km":7.66},{"id":0,"code_insee":"80765","nom_standard":"Tours-en-Vimeu","nom_a":null,"nom_de":null,"slug_ville":"tours-en-vimeu","departement_id":0,"code_postal":"80210","population":805,"superficie_km2":"1338.84","latitude_centre":"50.0352","longitude_centre":"1.6818","distance_km":7.93},{"id":33194,"code_insee":"80600","nom_standard":"Noyelles-sur-Mer","nom_a":null,"nom_de":null,"slug_ville":"noyelles-sur-mer","departement_id":0,"code_postal":"80860","population":636,"superficie_km2":"1962.37","latitude_centre":"50.1847","longitude_centre":"1.7183","distance_km":8.97},{"id":33023,"code_insee":"80388","nom_standard":"Grébault-Mesnil","nom_a":null,"nom_de":null,"slug_ville":"grebault-mesnil","departement_id":0,"code_postal":"80140","population":204,"superficie_km2":"259.90","latitude_centre":"50.0237","longitude_centre":"1.7215","distance_km":9.5}]}