{"ville":{"id":10725,"code_insee":"02631","nom_standard":"Quierzy","nom_a":null,"nom_de":null,"slug_ville":"quierzy","departement_id":0,"code_postal":"02300","population":428,"superficie_km2":"825.66","latitude_centre":"49.5638","longitude_centre":"3.1466","dep_code":"02","dep_nom":"Aisne","dep_slug":"aisne","reg_code":"32","reg_nom":"Hauts-de-France","reg_slug":"hauts-de-france"},"departement":{"code":"02","nom":"Aisne","slug":"aisne"},"region":{"code":"32","nom":"Hauts-de-France","slug":"hauts-de-france"},"villes_proches":[{"id":10572,"code_insee":"02456","nom_standard":"Manicamp","nom_a":null,"nom_de":null,"slug_ville":"manicamp","departement_id":0,"code_postal":"02300","population":311,"superficie_km2":"1029.56","latitude_centre":"49.5653","longitude_centre":"3.1805","distance_km":2.45},{"id":0,"code_insee":"60105","nom_standard":"Brétigny","nom_a":null,"nom_de":null,"slug_ville":"bretigny","departement_id":0,"code_postal":"60400","population":435,"superficie_km2":"517.76","latitude_centre":"49.5575","longitude_centre":"3.1123","distance_km":2.57},{"id":10283,"code_insee":"02107","nom_standard":"Bourguignon-sous-Coucy","nom_a":null,"nom_de":null,"slug_ville":"bourguignon-sous-coucy","departement_id":0,"code_postal":"02300","population":104,"superficie_km2":"280.94","latitude_centre":"49.5417","longitude_centre":"3.1579","distance_km":2.59},{"id":0,"code_insee":"60021","nom_standard":"Appilly","nom_a":null,"nom_de":null,"slug_ville":"appilly","departement_id":0,"code_postal":"60400","population":498,"superficie_km2":"446.82","latitude_centre":"49.583","longitude_centre":"3.1225","distance_km":2.75},{"id":10577,"code_insee":"02461","nom_standard":"Marest-Dampcourt","nom_a":null,"nom_de":null,"slug_ville":"marest-dampcourt","departement_id":0,"code_postal":"02300","population":341,"superficie_km2":"836.22","latitude_centre":"49.5942","longitude_centre":"3.1488","distance_km":3.38},{"id":10259,"code_insee":"02078","nom_standard":"Besmé","nom_a":null,"nom_de":null,"slug_ville":"besme","departement_id":0,"code_postal":"02300","population":166,"superficie_km2":"270.12","latitude_centre":"49.5348","longitude_centre":"3.1657","distance_km":3.51},{"id":0,"code_insee":"02686","nom_standard":"Saint-Paul-aux-Bois","nom_a":null,"nom_de":null,"slug_ville":"saint-paul-aux-bois","departement_id":0,"code_postal":"02300","population":370,"superficie_km2":"1107.64","latitude_centre":"49.5463","longitude_centre":"3.2004","distance_km":4.34},{"id":0,"code_insee":"60037","nom_standard":"Babœuf","nom_a":null,"nom_de":null,"slug_ville":"baboeuf","departement_id":0,"code_postal":"60400","population":508,"superficie_km2":"722.58","latitude_centre":"49.5853","longitude_centre":"3.0915","distance_km":4.64},{"id":0,"code_insee":"60189","nom_standard":"Cuts","nom_a":null,"nom_de":null,"slug_ville":"cuts","departement_id":0,"code_postal":"60400","population":949,"superficie_km2":"1083.89","latitude_centre":"49.5352","longitude_centre":"3.0994","distance_km":4.66},{"id":10310,"code_insee":"02140","nom_standard":"Camelin","nom_a":null,"nom_de":null,"slug_ville":"camelin","departement_id":0,"code_postal":"02300","population":426,"superficie_km2":"918.43","latitude_centre":"49.5244","longitude_centre":"3.1243","distance_km":4.67},{"id":10193,"code_insee":"02001","nom_standard":"Abbécourt","nom_a":null,"nom_de":null,"slug_ville":"abbecourt","departement_id":0,"code_postal":"02300","population":518,"superficie_km2":"598.24","latitude_centre":"49.5997","longitude_centre":"3.1824","distance_km":4.75},{"id":0,"code_insee":"60410","nom_standard":"Mondescourt","nom_a":null,"nom_de":null,"slug_ville":"mondescourt","departement_id":0,"code_postal":"60400","population":247,"superficie_km2":"320.18","latitude_centre":"49.6018","longitude_centre":"3.1113","distance_km":4.93},{"id":0,"code_insee":"60655","nom_standard":"Varesnes","nom_a":null,"nom_de":null,"slug_ville":"varesnes","departement_id":0,"code_postal":"60400","population":367,"superficie_km2":"914.97","latitude_centre":"49.5553","longitude_centre":"3.0772","distance_km":5.09},{"id":10267,"code_insee":"02086","nom_standard":"Bichancourt","nom_a":null,"nom_de":null,"slug_ville":"bichancourt","departement_id":0,"code_postal":"02300","population":979,"superficie_km2":"778.07","latitude_centre":"49.5787","longitude_centre":"3.2135","distance_km":5.1},{"id":0,"code_insee":"02093","nom_standard":"Blérancourt","nom_a":null,"nom_de":null,"slug_ville":"blerancourt","departement_id":0,"code_postal":"02300","population":1162,"superficie_km2":"1080.78","latitude_centre":"49.51","longitude_centre":"3.149","distance_km":5.98},{"id":10649,"code_insee":"02542","nom_standard":"Neuflieux","nom_a":null,"nom_de":null,"slug_ville":"neuflieux","departement_id":0,"code_postal":"02300","population":80,"superficie_km2":"192.37","latitude_centre":"49.6173","longitude_centre":"3.1596","distance_km":6.02},{"id":10309,"code_insee":"02139","nom_standard":"Caillouël-Crépigny","nom_a":null,"nom_de":null,"slug_ville":"caillouel-crepigny","departement_id":0,"code_postal":"02300","population":459,"superficie_km2":"671.82","latitude_centre":"49.6174","longitude_centre":"3.1226","distance_km":6.21},{"id":0,"code_insee":"02566","nom_standard":"Ognes","nom_a":null,"nom_de":null,"slug_ville":"ognes","departement_id":0,"code_postal":"02300","population":1109,"superficie_km2":"617.78","latitude_centre":"49.616","longitude_centre":"3.1897","distance_km":6.58},{"id":0,"code_insee":"02671","nom_standard":"Saint-Aubin","nom_a":null,"nom_de":null,"slug_ville":"saint-aubin","departement_id":0,"code_postal":"02300","population":276,"superficie_km2":"841.81","latitude_centre":"49.5085","longitude_centre":"3.1891","distance_km":6.87},{"id":10262,"code_insee":"02081","nom_standard":"Béthancourt-en-Vaux","nom_a":null,"nom_de":null,"slug_ville":"bethancourt-en-vaux","departement_id":0,"code_postal":"02300","population":421,"superficie_km2":"430.27","latitude_centre":"49.6274","longitude_centre":"3.1376","distance_km":7.1}]}