{"ville":{"id":12416,"code_insee":"09240","nom_standard":"Quié","nom_a":null,"nom_de":null,"slug_ville":"quie","departement_id":0,"code_postal":"09400","population":297,"superficie_km2":"250.56","latitude_centre":"42.8416","longitude_centre":"1.5891","dep_code":"09","dep_nom":"Ariège","dep_slug":"ariege","reg_code":"76","reg_nom":"Occitanie","reg_slug":"occitanie"},"departement":{"code":"09","nom":"Ariège","slug":"ariege"},"region":{"code":"76","nom":"Occitanie","slug":"occitanie"},"villes_proches":[{"id":0,"code_insee":"09306","nom_standard":"Tarascon-sur-Ariège","nom_a":null,"nom_de":null,"slug_ville":"tarascon-sur-ariege","departement_id":0,"code_postal":"09400","population":3085,"superficie_km2":"859.09","latitude_centre":"42.8451","longitude_centre":"1.5977","distance_km":0.8},{"id":0,"code_insee":"09303","nom_standard":"Surba","nom_a":null,"nom_de":null,"slug_ville":"surba","departement_id":0,"code_postal":"09400","population":340,"superficie_km2":"220.89","latitude_centre":"42.8597","longitude_centre":"1.5817","distance_km":2.1},{"id":12322,"code_insee":"09133","nom_standard":"Génat","nom_a":null,"nom_de":null,"slug_ville":"genat","departement_id":0,"code_postal":"09400","population":24,"superficie_km2":"825.64","latitude_centre":"42.8273","longitude_centre":"1.5669","distance_km":2.41},{"id":12203,"code_insee":"09006","nom_standard":"Alliat","nom_a":null,"nom_de":null,"slug_ville":"alliat","departement_id":0,"code_postal":"09400","population":57,"superficie_km2":"343.91","latitude_centre":"42.8181","longitude_centre":"1.5778","distance_km":2.77},{"id":0,"code_insee":"09321","nom_standard":"Ussat","nom_a":null,"nom_de":null,"slug_ville":"ussat","departement_id":0,"code_postal":"09400","population":307,"superficie_km2":"434.62","latitude_centre":"42.8338","longitude_centre":"1.6228","distance_km":2.88},{"id":12394,"code_insee":"09217","nom_standard":"Niaux","nom_a":null,"nom_de":null,"slug_ville":"niaux","departement_id":0,"code_postal":"09400","population":150,"superficie_km2":"394.97","latitude_centre":"42.8152","longitude_centre":"1.6019","distance_km":3.12},{"id":12250,"code_insee":"09058","nom_standard":"Bompas","nom_a":null,"nom_de":null,"slug_ville":"bompas","departement_id":0,"code_postal":"09400","population":206,"superficie_km2":"278.89","latitude_centre":"42.8627","longitude_centre":"1.6189","distance_km":3.38},{"id":12211,"code_insee":"09015","nom_standard":"Arignac","nom_a":null,"nom_de":null,"slug_ville":"arignac","departement_id":0,"code_postal":"09400","population":719,"superficie_km2":"865.48","latitude_centre":"42.875","longitude_centre":"1.5984","distance_km":3.79},{"id":12238,"code_insee":"09045","nom_standard":"Bédeilhac-et-Aynat","nom_a":null,"nom_de":null,"slug_ville":"bedeilhac-et-aynat","departement_id":0,"code_postal":"09400","population":178,"superficie_km2":"658.67","latitude_centre":"42.8814","longitude_centre":"1.5664","distance_km":4.8},{"id":12212,"code_insee":"09016","nom_standard":"Arnave","nom_a":null,"nom_de":null,"slug_ville":"arnave","departement_id":0,"code_postal":"09400","population":208,"superficie_km2":"835.92","latitude_centre":"42.8518","longitude_centre":"1.648","distance_km":4.93},{"id":12398,"code_insee":"09221","nom_standard":"Ornolac-Ussat-les-Bains","nom_a":null,"nom_de":null,"slug_ville":"ornolac-ussat-les-bains","departement_id":0,"code_postal":"09400","population":247,"superficie_km2":"1209.60","latitude_centre":"42.8236","longitude_centre":"1.6463","distance_km":5.08},{"id":12339,"code_insee":"09152","nom_standard":"Lapège","nom_a":null,"nom_de":null,"slug_ville":"lapege","departement_id":0,"code_postal":"09400","population":17,"superficie_km2":"840.67","latitude_centre":"42.8026","longitude_centre":"1.5558","distance_km":5.12},{"id":12269,"code_insee":"09077","nom_standard":"Capoulet-et-Junac","nom_a":null,"nom_de":null,"slug_ville":"capoulet-et-junac","departement_id":0,"code_postal":"09400","population":191,"superficie_km2":"283.40","latitude_centre":"42.7925","longitude_centre":"1.5746","distance_km":5.59},{"id":12343,"code_insee":"09156","nom_standard":"Larnat","nom_a":null,"nom_de":null,"slug_ville":"larnat","departement_id":0,"code_postal":"09310","population":19,"superficie_km2":"560.70","latitude_centre":"42.7938","longitude_centre":"1.626","distance_km":6.11},{"id":12324,"code_insee":"09136","nom_standard":"Gourbit","nom_a":null,"nom_de":null,"slug_ville":"gourbit","departement_id":0,"code_postal":"09400","population":82,"superficie_km2":"1809.58","latitude_centre":"42.8297","longitude_centre":"1.5146","distance_km":6.22},{"id":12387,"code_insee":"09210","nom_standard":"Montoulieu","nom_a":null,"nom_de":null,"slug_ville":"montoulieu","departement_id":0,"code_postal":"09000","population":415,"superficie_km2":"1430.37","latitude_centre":"42.9015","longitude_centre":"1.6015","distance_km":6.74},{"id":12331,"code_insee":"09143","nom_standard":"Illier-et-Laramade","nom_a":null,"nom_de":null,"slug_ville":"illier-et-laramade","departement_id":0,"code_postal":"09220","population":39,"superficie_km2":"514.90","latitude_centre":"42.7905","longitude_centre":"1.5446","distance_km":6.74},{"id":0,"code_insee":"09188","nom_standard":"Mercus-Garrabet","nom_a":null,"nom_de":null,"slug_ville":"mercus-garrabet","departement_id":0,"code_postal":"09400","population":1238,"superficie_km2":"1505.08","latitude_centre":"42.8838","longitude_centre":"1.6502","distance_km":6.84},{"id":12372,"code_insee":"09192","nom_standard":"Miglos","nom_a":null,"nom_de":null,"slug_ville":"miglos","departement_id":0,"code_postal":"09400","population":142,"superficie_km2":"1877.19","latitude_centre":"42.7804","longitude_centre":"1.6018","distance_km":6.88},{"id":12256,"code_insee":"09064","nom_standard":"Bouan","nom_a":null,"nom_de":null,"slug_ville":"bouan","departement_id":0,"code_postal":"09310","population":41,"superficie_km2":"343.41","latitude_centre":"42.7914","longitude_centre":"1.643","distance_km":7.11}]}