{"ville":{"id":30877,"code_insee":"71366","nom_standard":"Ratenelle","nom_a":null,"nom_de":null,"slug_ville":"ratenelle","departement_id":0,"code_postal":"71290","population":363,"superficie_km2":"804.94","latitude_centre":"46.5247","longitude_centre":"5.0003","dep_code":"71","dep_nom":"Saône-et-Loire","dep_slug":"saone-et-loire","reg_code":"27","reg_nom":"Bourgogne-Franche-Comté","reg_slug":"bourgogne-franche-comte"},"departement":{"code":"71","nom":"Saône-et-Loire","slug":"saone-et-loire"},"region":{"code":"27","nom":"Bourgogne-Franche-Comté","slug":"bourgogne-franche-comte"},"villes_proches":[{"id":0,"code_insee":"71549","nom_standard":"La Truchère","nom_a":null,"nom_de":null,"slug_ville":"la-truchere","departement_id":0,"code_postal":"71290","population":200,"superficie_km2":"514.03","latitude_centre":"46.5134","longitude_centre":"4.9578","distance_km":3.49},{"id":0,"code_insee":"71158","nom_standard":"Cuisery","nom_a":null,"nom_de":null,"slug_ville":"cuisery","departement_id":0,"code_postal":"71290","population":1576,"superficie_km2":"1140.79","latitude_centre":"46.5562","longitude_centre":"4.9943","distance_km":3.53},{"id":10159,"code_insee":"01402","nom_standard":"Sermoyer","nom_a":null,"nom_de":null,"slug_ville":"sermoyer","departement_id":0,"code_postal":"01190","population":670,"superficie_km2":"1694.02","latitude_centre":"46.4987","longitude_centre":"4.9733","distance_km":3.55},{"id":30641,"code_insee":"71061","nom_standard":"Brienne","nom_a":null,"nom_de":null,"slug_ville":"brienne","departement_id":0,"code_postal":"71290","population":488,"superficie_km2":"570.48","latitude_centre":"46.5537","longitude_centre":"5.0265","distance_km":3.8},{"id":30871,"code_insee":"71359","nom_standard":"Préty","nom_a":null,"nom_de":null,"slug_ville":"prety","departement_id":0,"code_postal":"71290","population":582,"superficie_km2":"1240.30","latitude_centre":"46.5402","longitude_centre":"4.9544","distance_km":3.91},{"id":30755,"code_insee":"71213","nom_standard":"La Genête","nom_a":null,"nom_de":null,"slug_ville":"la-genete","departement_id":0,"code_postal":"71290","population":570,"superficie_km2":"1175.27","latitude_centre":"46.5498","longitude_centre":"5.0491","distance_km":4.66},{"id":9980,"code_insee":"01016","nom_standard":"Arbigny","nom_a":null,"nom_de":null,"slug_ville":"arbigny","departement_id":0,"code_postal":"01190","population":462,"superficie_km2":"1754.36","latitude_centre":"46.4808","longitude_centre":"4.9613","distance_km":5.72},{"id":10176,"code_insee":"01437","nom_standard":"Vescours","nom_a":null,"nom_de":null,"slug_ville":"vescours","departement_id":0,"code_postal":"01560","population":221,"superficie_km2":"1254.06","latitude_centre":"46.4743","longitude_centre":"5.0286","distance_km":6.01},{"id":0,"code_insee":"71576","nom_standard":"Le Villars","nom_a":null,"nom_de":null,"slug_ville":"le-villars","departement_id":0,"code_postal":"71700","population":274,"superficie_km2":"563.63","latitude_centre":"46.5302","longitude_centre":"4.9205","distance_km":6.14},{"id":30592,"code_insee":"71001","nom_standard":"L'Abergement-de-Cuisery","nom_a":null,"nom_de":null,"slug_ville":"l-abergement-de-cuisery","departement_id":0,"code_postal":"71290","population":810,"superficie_km2":"814.50","latitude_centre":"46.5753","longitude_centre":"4.9586","distance_km":6.47},{"id":0,"code_insee":"71373","nom_standard":"Romenay","nom_a":null,"nom_de":null,"slug_ville":"romenay","departement_id":0,"code_postal":"71470","population":1748,"superficie_km2":"4912.39","latitude_centre":"46.5152","longitude_centre":"5.0886","distance_km":6.84},{"id":30786,"code_insee":"71248","nom_standard":"Lacrost","nom_a":null,"nom_de":null,"slug_ville":"lacrost","departement_id":0,"code_postal":"71700","population":690,"superficie_km2":"1049.72","latitude_centre":"46.5723","longitude_centre":"4.9402","distance_km":7.01},{"id":30742,"code_insee":"71195","nom_standard":"Farges-lès-Mâcon","nom_a":null,"nom_de":null,"slug_ville":"farges-les-macon","departement_id":0,"code_postal":"71700","population":223,"superficie_km2":"576.89","latitude_centre":"46.5126","longitude_centre":"4.9101","distance_km":7.03},{"id":30782,"code_insee":"71244","nom_standard":"Jouvençon","nom_a":null,"nom_de":null,"slug_ville":"jouvencon","departement_id":0,"code_postal":"71290","population":461,"superficie_km2":"641.33","latitude_centre":"46.5786","longitude_centre":"5.0526","distance_km":7.21},{"id":30797,"code_insee":"71261","nom_standard":"Loisy","nom_a":null,"nom_de":null,"slug_ville":"loisy","departement_id":0,"code_postal":"71290","population":693,"superficie_km2":"1473.25","latitude_centre":"46.594","longitude_centre":"5.008","distance_km":7.73},{"id":0,"code_insee":"01337","nom_standard":"Saint-Bénigne","nom_a":null,"nom_de":null,"slug_ville":"saint-benigne","departement_id":0,"code_postal":"01190","population":1359,"superficie_km2":"1648.39","latitude_centre":"46.4517","longitude_centre":"4.952","distance_km":8.92},{"id":0,"code_insee":"01388","nom_standard":"Saint-Trivier-de-Courtes","nom_a":null,"nom_de":null,"slug_ville":"saint-trivier-de-courtes","departement_id":0,"code_postal":"01560","population":1125,"superficie_km2":"1650.32","latitude_centre":"46.458","longitude_centre":"5.0672","distance_km":9.01},{"id":10021,"code_insee":"01094","nom_standard":"Chavannes-sur-Reyssouze","nom_a":null,"nom_de":null,"slug_ville":"chavannes-sur-reyssouze","departement_id":0,"code_postal":"01190","population":726,"superficie_km2":"1650.70","latitude_centre":"46.4403","longitude_centre":"5.0069","distance_km":9.4},{"id":30773,"code_insee":"71234","nom_standard":"Huilly-sur-Seille","nom_a":null,"nom_de":null,"slug_ville":"huilly-sur-seille","departement_id":0,"code_postal":"71290","population":353,"superficie_km2":"1228.59","latitude_centre":"46.6041","longitude_centre":"5.0548","distance_km":9.76},{"id":0,"code_insee":"71522","nom_standard":"Simandre","nom_a":null,"nom_de":null,"slug_ville":"simandre","departement_id":0,"code_postal":"71290","population":1750,"superficie_km2":"2300.88","latitude_centre":"46.6124","longitude_centre":"4.9833","distance_km":9.84}]}