{"ville":{"id":22686,"code_insee":"47221","nom_standard":"Réaup-Lisse","nom_a":null,"nom_de":null,"slug_ville":"reaup-lisse","departement_id":0,"code_postal":"47170","population":591,"superficie_km2":"7104.38","latitude_centre":"44.0935","longitude_centre":"0.2109","dep_code":"47","dep_nom":"Lot-et-Garonne","dep_slug":"lot-et-garonne","reg_code":"75","reg_nom":"Nouvelle-Aquitaine","reg_slug":"nouvelle-aquitaine"},"departement":{"code":"47","nom":"Lot-et-Garonne","slug":"lot-et-garonne"},"region":{"code":"75","nom":"Nouvelle-Aquitaine","slug":"nouvelle-aquitaine"},"villes_proches":[{"id":0,"code_insee":"47167","nom_standard":"Mézin","nom_a":null,"nom_de":null,"slug_ville":"mezin","departement_id":0,"code_postal":"47170","population":1433,"superficie_km2":"3181.26","latitude_centre":"44.0569","longitude_centre":"0.2662","distance_km":6.01},{"id":22677,"code_insee":"47211","nom_standard":"Poudenas","nom_a":null,"nom_de":null,"slug_ville":"poudenas","departement_id":0,"code_postal":"47170","population":196,"superficie_km2":"1737.87","latitude_centre":"44.0395","longitude_centre":"0.199","distance_km":6.08},{"id":22528,"code_insee":"47009","nom_standard":"Andiran","nom_a":null,"nom_de":null,"slug_ville":"andiran","departement_id":0,"code_postal":"47170","population":260,"superficie_km2":"998.13","latitude_centre":"44.1042","longitude_centre":"0.2863","distance_km":6.14},{"id":0,"code_insee":"47302","nom_standard":"Sos","nom_a":null,"nom_de":null,"slug_ville":"sos","departement_id":0,"code_postal":"47170","population":657,"superficie_km2":"5322.15","latitude_centre":"44.0628","longitude_centre":"0.1303","distance_km":7.29},{"id":0,"code_insee":"47021","nom_standard":"Barbaste","nom_a":null,"nom_de":null,"slug_ville":"barbaste","departement_id":0,"code_postal":"47230","population":1488,"superficie_km2":"3886.36","latitude_centre":"44.1622","longitude_centre":"0.2382","distance_km":7.94},{"id":22583,"code_insee":"47085","nom_standard":"Durance","nom_a":null,"nom_de":null,"slug_ville":"durance","departement_id":0,"code_postal":"47420","population":255,"superficie_km2":"3882.17","latitude_centre":"44.1638","longitude_centre":"0.1697","distance_km":8.48},{"id":22622,"code_insee":"47134","nom_standard":"Lannes","nom_a":null,"nom_de":null,"slug_ville":"lannes","departement_id":0,"code_postal":"47170","population":359,"superficie_km2":"3271.95","latitude_centre":"44.0256","longitude_centre":"0.2774","distance_km":9.23},{"id":21216,"code_insee":"40015","nom_standard":"Arx","nom_a":null,"nom_de":null,"slug_ville":"arx","departement_id":0,"code_postal":"40310","population":57,"superficie_km2":"2436.24","latitude_centre":"44.1087","longitude_centre":"0.0843","distance_km":10.25},{"id":22596,"code_insee":"47103","nom_standard":"Fréchou","nom_a":null,"nom_de":null,"slug_ville":"frechou","departement_id":0,"code_postal":"47600","population":220,"superficie_km2":"1200.39","latitude_centre":"44.0824","longitude_centre":"0.3384","distance_km":10.26},{"id":0,"code_insee":"47258","nom_standard":"Sainte-Maure-de-Peyriac","nom_a":null,"nom_de":null,"slug_ville":"sainte-maure-de-peyriac","departement_id":0,"code_postal":"47170","population":305,"superficie_km2":"2322.88","latitude_centre":"44.0062","longitude_centre":"0.1568","distance_km":10.63},{"id":19236,"code_insee":"32133","nom_standard":"Fourcès","nom_a":null,"nom_de":null,"slug_ville":"fources","departement_id":0,"code_postal":"32250","population":260,"superficie_km2":"2373.57","latitude_centre":"43.9958","longitude_centre":"0.2305","distance_km":10.98},{"id":0,"code_insee":"47195","nom_standard":"Nérac","nom_a":null,"nom_de":null,"slug_ville":"nerac","departement_id":0,"code_postal":"47600","population":6992,"superficie_km2":"6276.40","latitude_centre":"44.1339","longitude_centre":"0.347","distance_km":11.76},{"id":22675,"code_insee":"47207","nom_standard":"Pompiey","nom_a":null,"nom_de":null,"slug_ville":"pompiey","departement_id":0,"code_postal":"47230","population":224,"superficie_km2":"1972.34","latitude_centre":"44.1994","longitude_centre":"0.2042","distance_km":11.79},{"id":0,"code_insee":"47143","nom_standard":"Lavardac","nom_a":null,"nom_de":null,"slug_ville":"lavardac","departement_id":0,"code_postal":"47230","population":2307,"superficie_km2":"1525.14","latitude_centre":"44.1821","longitude_centre":"0.3006","distance_km":12.18},{"id":0,"code_insee":"47327","nom_standard":"Xaintrailles","nom_a":null,"nom_de":null,"slug_ville":"xaintrailles","departement_id":0,"code_postal":"47230","population":378,"superficie_km2":"1034.97","latitude_centre":"44.2077","longitude_centre":"0.2547","distance_km":13.17},{"id":19292,"code_insee":"32197","nom_standard":"Larroque-sur-l'Osse","nom_a":null,"nom_de":null,"slug_ville":"larroque-sur-l-osse","departement_id":0,"code_postal":"32100","population":213,"superficie_km2":"1517.65","latitude_centre":"43.9752","longitude_centre":"0.281","distance_km":14.3},{"id":22649,"code_insee":"47176","nom_standard":"Montgaillard-en-Albret","nom_a":null,"nom_de":null,"slug_ville":"montgaillard-en-albret","departement_id":0,"code_postal":"47230","population":167,"superficie_km2":"859.12","latitude_centre":"44.2097","longitude_centre":"0.2982","distance_km":14.68},{"id":0,"code_insee":"32290","nom_standard":"Montréal","nom_a":null,"nom_de":null,"slug_ville":"montreal","departement_id":0,"code_postal":"32250","population":1171,"superficie_km2":"6340.55","latitude_centre":"43.961","longitude_centre":"0.2097","distance_km":14.73},{"id":22589,"code_insee":"47093","nom_standard":"Fargues-sur-Ourbise","nom_a":null,"nom_de":null,"slug_ville":"fargues-sur-ourbise","departement_id":0,"code_postal":"47700","population":338,"superficie_km2":"4452.57","latitude_centre":"44.2274","longitude_centre":"0.1637","distance_km":15.36},{"id":22527,"code_insee":"47008","nom_standard":"Ambrus","nom_a":null,"nom_de":null,"slug_ville":"ambrus","departement_id":0,"code_postal":"47160","population":110,"superficie_km2":"1229.85","latitude_centre":"44.2319","longitude_centre":"0.2455","distance_km":15.63}]}