{"ville":{"id":21558,"code_insee":"41187","nom_standard":"Renay","nom_a":null,"nom_de":null,"slug_ville":"renay","departement_id":0,"code_postal":"41100","population":174,"superficie_km2":"1208.61","latitude_centre":"47.8382","longitude_centre":"1.1781","dep_code":"41","dep_nom":"Loir-et-Cher","dep_slug":"loir-et-cher","reg_code":"24","reg_nom":"Centre-Val de Loire","reg_slug":"centre-val-de-loire"},"departement":{"code":"41","nom":"Loir-et-Cher","slug":"loir-et-cher"},"region":{"code":"24","nom":"Centre-Val de Loire","slug":"centre-val-de-loire"},"villes_proches":[{"id":21467,"code_insee":"41037","nom_standard":"La Chapelle-Enchérie","nom_a":null,"nom_de":null,"slug_ville":"la-chapelle-encherie","departement_id":0,"code_postal":"41290","population":212,"superficie_km2":"1081.15","latitude_centre":"47.8261","longitude_centre":"1.2103","distance_km":2.75},{"id":21517,"code_insee":"41115","nom_standard":"Lignières","nom_a":null,"nom_de":null,"slug_ville":"lignieres","departement_id":0,"code_postal":"41160","population":412,"superficie_km2":"1586.78","latitude_centre":"47.8655","longitude_centre":"1.1967","distance_km":3.34},{"id":0,"code_insee":"41190","nom_standard":"Rocé","nom_a":null,"nom_de":null,"slug_ville":"roce","departement_id":0,"code_postal":"41100","population":218,"superficie_km2":"1026.63","latitude_centre":"47.8119","longitude_centre":"1.1517","distance_km":3.53},{"id":21494,"code_insee":"41081","nom_standard":"Faye","nom_a":null,"nom_de":null,"slug_ville":"faye","departement_id":0,"code_postal":"41100","population":216,"superficie_km2":"881.85","latitude_centre":"47.8061","longitude_centre":"1.1887","distance_km":3.66},{"id":0,"code_insee":"41175","nom_standard":"Pezou","nom_a":null,"nom_de":null,"slug_ville":"pezou","departement_id":0,"code_postal":"41100","population":1101,"superficie_km2":"1407.91","latitude_centre":"47.8681","longitude_centre":"1.1477","distance_km":4.02},{"id":0,"code_insee":"41209","nom_standard":"Saint-Firmin-des-Prés","nom_a":null,"nom_de":null,"slug_ville":"saint-firmin-des-pres","departement_id":0,"code_postal":"41100","population":744,"superficie_km2":"1397.37","latitude_centre":"47.8441","longitude_centre":"1.1039","distance_km":5.58},{"id":0,"code_insee":"41095","nom_standard":"Fréteval","nom_a":null,"nom_de":null,"slug_ville":"freteval","departement_id":0,"code_postal":"41160","population":1063,"superficie_km2":"2059.36","latitude_centre":"47.8869","longitude_centre":"1.201","distance_km":5.68},{"id":21535,"code_insee":"41138","nom_standard":"Meslay","nom_a":null,"nom_de":null,"slug_ville":"meslay","departement_id":0,"code_postal":"41100","population":297,"superficie_km2":"715.08","latitude_centre":"47.8136","longitude_centre":"1.1097","distance_km":5.79},{"id":0,"code_insee":"41291","nom_standard":"Villetrun","nom_a":null,"nom_de":null,"slug_ville":"villetrun","departement_id":0,"code_postal":"41100","population":316,"superficie_km2":"684.20","latitude_centre":"47.786","longitude_centre":"1.1635","distance_km":5.91},{"id":21491,"code_insee":"41077","nom_standard":"Épiais","nom_a":null,"nom_de":null,"slug_ville":"epiais","departement_id":0,"code_postal":"41290","population":115,"superficie_km2":"868.92","latitude_centre":"47.812","longitude_centre":"1.2489","distance_km":6.04},{"id":21518,"code_insee":"41116","nom_standard":"Lisle","nom_a":null,"nom_de":null,"slug_ville":"lisle","departement_id":0,"code_postal":"41100","population":181,"superficie_km2":"664.56","latitude_centre":"47.8702","longitude_centre":"1.1078","distance_km":6.34},{"id":21483,"code_insee":"41065","nom_standard":"Coulommiers-la-Tour","nom_a":null,"nom_de":null,"slug_ville":"coulommiers-la-tour","departement_id":0,"code_postal":"41100","population":575,"superficie_km2":"1215.11","latitude_centre":"47.78","longitude_centre":"1.1356","distance_km":7.21},{"id":21446,"code_insee":"41003","nom_standard":"Areines","nom_a":null,"nom_de":null,"slug_ville":"areines","departement_id":0,"code_postal":"41100","population":572,"superficie_km2":"485.84","latitude_centre":"47.7976","longitude_centre":"1.1021","distance_km":7.25},{"id":21462,"code_insee":"41028","nom_standard":"Busloup","nom_a":null,"nom_de":null,"slug_ville":"busloup","departement_id":0,"code_postal":"41160","population":494,"superficie_km2":"1902.27","latitude_centre":"47.9033","longitude_centre":"1.139","distance_km":7.8},{"id":0,"code_insee":"41171","nom_standard":"Oucques La Nouvelle","nom_a":null,"nom_de":null,"slug_ville":"oucques-la-nouvelle","departement_id":0,"code_postal":"41290","population":1638,"superficie_km2":"4962.63","latitude_centre":"47.8104","longitude_centre":"1.2756","distance_km":7.91},{"id":0,"code_insee":"41226","nom_standard":"Saint-Ouen","nom_a":null,"nom_de":null,"slug_ville":"saint-ouen","departement_id":0,"code_postal":"41100","population":3041,"superficie_km2":"1119.35","latitude_centre":"47.8238","longitude_centre":"1.0673","distance_km":8.42},{"id":0,"code_insee":"41243","nom_standard":"Selommes","nom_a":null,"nom_de":null,"slug_ville":"selommes","departement_id":0,"code_postal":"41100","population":785,"superficie_km2":"2807.71","latitude_centre":"47.7652","longitude_centre":"1.2101","distance_km":8.46},{"id":21549,"code_insee":"41174","nom_standard":"Périgny","nom_a":null,"nom_de":null,"slug_ville":"perigny","departement_id":0,"code_postal":"41100","population":166,"superficie_km2":"1039.36","latitude_centre":"47.7523","longitude_centre":"1.1486","distance_km":9.8},{"id":0,"code_insee":"41154","nom_standard":"Morée","nom_a":null,"nom_de":null,"slug_ville":"moree","departement_id":0,"code_postal":"41160","population":1077,"superficie_km2":"2592.08","latitude_centre":"47.9143","longitude_centre":"1.2544","distance_km":10.2},{"id":0,"code_insee":"41214","nom_standard":"Saint-Hilaire-la-Gravelle","nom_a":null,"nom_de":null,"slug_ville":"saint-hilaire-la-gravelle","departement_id":0,"code_postal":"41160","population":652,"superficie_km2":"1750.90","latitude_centre":"47.9308","longitude_centre":"1.1785","distance_km":10.3}]}