{"ville":{"id":4140,"code_insee":"42182","nom_standard":"Renaison","nom_a":null,"nom_de":null,"slug_ville":"renaison","departement_id":643,"code_postal":"42370","population":3200,"superficie_km2":"23.00","latitude_centre":"46.0480003","longitude_centre":"3.9089999","dep_code":"42","dep_nom":"Loire","dep_slug":"loire","reg_code":"01","reg_nom":"Auvergne-Rhône-Alpes","reg_slug":"auvergne-rhone-alpes"},"departement":{"code":"42","nom":"Loire","slug":"loire"},"region":{"code":"01","nom":"Auvergne-Rhône-Alpes","slug":"auvergne-rhone-alpes"},"villes_proches":[{"id":4148,"code_insee":"42199","nom_standard":"Saint-André-d'Apchon","nom_a":null,"nom_de":null,"slug_ville":"saint-andre-d-apchon","departement_id":643,"code_postal":"42370","population":1912,"superficie_km2":"14.00","latitude_centre":"46.0270004","longitude_centre":"3.9349999","distance_km":3.08},{"id":4136,"code_insee":"42176","nom_standard":"Pouilly-les-Nonains","nom_a":null,"nom_de":null,"slug_ville":"pouilly-les-nonains","departement_id":643,"code_postal":"42155","population":2209,"superficie_km2":"10.00","latitude_centre":"46.0449982","longitude_centre":"3.9779999","distance_km":5.34},{"id":4071,"code_insee":"42003","nom_standard":"Ambierle","nom_a":null,"nom_de":null,"slug_ville":"ambierle","departement_id":643,"code_postal":"42820","population":1884,"superficie_km2":"31.00","latitude_centre":"46.1059990","longitude_centre":"3.8920000","distance_km":6.58},{"id":4174,"code_insee":"42253","nom_standard":"Saint-Léger-sur-Roanne","nom_a":null,"nom_de":null,"slug_ville":"saint-leger-sur-roanne","departement_id":643,"code_postal":"42155","population":1162,"superficie_km2":"5.00","latitude_centre":"46.0419998","longitude_centre":"4.0009999","distance_km":7.13},{"id":4201,"code_insee":"42331","nom_standard":"Villemontais","nom_a":null,"nom_de":null,"slug_ville":"villemontais","departement_id":643,"code_postal":"42155","population":1031,"superficie_km2":"13.00","latitude_centre":"45.9819984","longitude_centre":"3.9360001","distance_km":7.63},{"id":4185,"code_insee":"42284","nom_standard":"Saint-Romain-la-Motte","nom_a":null,"nom_de":null,"slug_ville":"saint-romain-la-motte","departement_id":643,"code_postal":"42640","population":1411,"superficie_km2":"28.00","latitude_centre":"46.0820007","longitude_centre":"3.9949999","distance_km":7.64},{"id":4127,"code_insee":"42162","nom_standard":"Ouches","nom_a":null,"nom_de":null,"slug_ville":"ouches","departement_id":643,"code_postal":"42155","population":1147,"superficie_km2":"10.00","latitude_centre":"46.0130005","longitude_centre":"3.9960001","distance_km":7.76},{"id":4166,"code_insee":"42231","nom_standard":"Saint-Germain-Lespinasse","nom_a":null,"nom_de":null,"slug_ville":"saint-germain-lespinasse","departement_id":643,"code_postal":"42640","population":1219,"superficie_km2":"15.00","latitude_centre":"46.1090012","longitude_centre":"3.9640000","distance_km":8},{"id":4112,"code_insee":"42120","nom_standard":"Lentigny","nom_a":null,"nom_de":null,"slug_ville":"lentigny","departement_id":643,"code_postal":"42155","population":1794,"superficie_km2":"11.00","latitude_centre":"45.9920006","longitude_centre":"3.9749999","distance_km":8.05},{"id":4142,"code_insee":"42184","nom_standard":"Riorges","nom_a":null,"nom_de":null,"slug_ville":"riorges","departement_id":643,"code_postal":"42153","population":11045,"superficie_km2":"16.00","latitude_centre":"46.0429993","longitude_centre":"4.0339999","distance_km":9.66},{"id":4202,"code_insee":"42332","nom_standard":"Villerest","nom_a":null,"nom_de":null,"slug_ville":"villerest","departement_id":643,"code_postal":"42300","population":5170,"superficie_km2":"14.00","latitude_centre":"45.9980011","longitude_centre":"4.0279999","distance_km":10.74},{"id":4169,"code_insee":"42239","nom_standard":"Saint-Jean-Saint-Maurice-sur-Loire","nom_a":null,"nom_de":null,"slug_ville":"saint-jean-saint-maurice-sur-loire","departement_id":643,"code_postal":"42155","population":1155,"superficie_km2":"24.00","latitude_centre":"45.9580002","longitude_centre":"3.9860001","distance_km":11.64},{"id":4116,"code_insee":"42127","nom_standard":"Mably","nom_a":null,"nom_de":null,"slug_ville":"mably","departement_id":643,"code_postal":"42300","population":7382,"superficie_km2":"33.00","latitude_centre":"46.0919991","longitude_centre":"4.0630002","distance_km":12.85},{"id":4096,"code_insee":"42069","nom_standard":"Commelle-Vernay","nom_a":null,"nom_de":null,"slug_ville":"commelle-vernay","departement_id":643,"code_postal":"42120","population":3029,"superficie_km2":"13.00","latitude_centre":"45.9949989","longitude_centre":"4.0599999","distance_km":13.06},{"id":4144,"code_insee":"42187","nom_standard":"Roanne","nom_a":null,"nom_de":null,"slug_ville":"roanne","departement_id":643,"code_postal":"42300","population":34762,"superficie_km2":"16.00","latitude_centre":"46.0449982","longitude_centre":"4.0799999","distance_km":13.2},{"id":4097,"code_insee":"42071","nom_standard":"Le Coteau","nom_a":null,"nom_de":null,"slug_ville":"le-coteau","departement_id":643,"code_postal":"42120","population":6889,"superficie_km2":"5.00","latitude_centre":"46.0169983","longitude_centre":"4.0910001","distance_km":14.47},{"id":4172,"code_insee":"42248","nom_standard":"Saint-Just-en-Chevalet","nom_a":null,"nom_de":null,"slug_ville":"saint-just-en-chevalet","departement_id":643,"code_postal":"42430","population":1123,"superficie_km2":"29.00","latitude_centre":"45.9239998","longitude_centre":"3.8429999","distance_km":14.7},{"id":4128,"code_insee":"42163","nom_standard":"La Pacaudière","nom_a":null,"nom_de":null,"slug_ville":"la-pacaudiere","departement_id":643,"code_postal":"42310","population":1050,"superficie_km2":"21.00","latitude_centre":"46.1850014","longitude_centre":"3.8800001","distance_km":15.4},{"id":4082,"code_insee":"42026","nom_standard":"Briennon","nom_a":null,"nom_de":null,"slug_ville":"briennon","departement_id":643,"code_postal":"42720","population":1724,"superficie_km2":"22.00","latitude_centre":"46.1469994","longitude_centre":"4.0770001","distance_km":17},{"id":4204,"code_insee":"42338","nom_standard":"Vougy","nom_a":null,"nom_de":null,"slug_ville":"vougy","departement_id":643,"code_postal":"42720","population":1506,"superficie_km2":"21.00","latitude_centre":"46.0929985","longitude_centre":"4.1240001","distance_km":17.32}]}