{"ville":{"id":17664,"code_insee":"27488","nom_standard":"Renneville","nom_a":null,"nom_de":null,"slug_ville":"renneville","departement_id":0,"code_postal":"27910","population":208,"superficie_km2":"628.74","latitude_centre":"49.3935","longitude_centre":"1.3286","dep_code":"27","dep_nom":"Eure","dep_slug":"eure","reg_code":"28","reg_nom":"Normandie","reg_slug":"normandie"},"departement":{"code":"27","nom":"Eure","slug":"eure"},"region":{"code":"28","nom":"Normandie","slug":"normandie"},"villes_proches":[{"id":0,"code_insee":"27670","nom_standard":"Vandrimare","nom_a":null,"nom_de":null,"slug_ville":"vandrimare","departement_id":0,"code_postal":"27380","population":969,"superficie_km2":"649.13","latitude_centre":"49.3849","longitude_centre":"1.3497","distance_km":1.8},{"id":17413,"code_insee":"27104","nom_standard":"Bourg-Beaudouin","nom_a":null,"nom_de":null,"slug_ville":"bourg-beaudouin","departement_id":0,"code_postal":"27380","population":741,"superficie_km2":"530.04","latitude_centre":"49.3821","longitude_centre":"1.3058","distance_km":2.08},{"id":17575,"code_insee":"27366","nom_standard":"Letteguives","nom_a":null,"nom_de":null,"slug_ville":"letteguives","departement_id":0,"code_postal":"27910","population":209,"superficie_km2":"408.88","latitude_centre":"49.4206","longitude_centre":"1.3297","distance_km":3.01},{"id":0,"code_insee":"76285","nom_standard":"Fresne-le-Plan","nom_a":null,"nom_de":null,"slug_ville":"fresne-le-plan","departement_id":0,"code_postal":"76520","population":554,"superficie_km2":"696.57","latitude_centre":"49.4115","longitude_centre":"1.2931","distance_km":3.26},{"id":0,"code_insee":"27453","nom_standard":"Perriers-sur-Andelle","nom_a":null,"nom_de":null,"slug_ville":"perriers-sur-andelle","departement_id":0,"code_postal":"27910","population":1784,"superficie_km2":"1127.38","latitude_centre":"49.4054","longitude_centre":"1.3697","distance_km":3.26},{"id":0,"code_insee":"27246","nom_standard":"Fleury-sur-Andelle","nom_a":null,"nom_de":null,"slug_ville":"fleury-sur-andelle","departement_id":0,"code_postal":"27380","population":1801,"superficie_km2":"377.24","latitude_centre":"49.3646","longitude_centre":"1.3516","distance_km":3.62},{"id":0,"code_insee":"76434","nom_standard":"Mesnil-Raoul","nom_a":null,"nom_de":null,"slug_ville":"mesnil-raoul","departement_id":0,"code_postal":"76520","population":1245,"superficie_km2":"661.16","latitude_centre":"49.3979","longitude_centre":"1.2736","distance_km":4.01},{"id":17663,"code_insee":"27487","nom_standard":"Radepont","nom_a":null,"nom_de":null,"slug_ville":"radepont","departement_id":0,"code_postal":"27380","population":639,"superficie_km2":"1578.82","latitude_centre":"49.3518","longitude_centre":"1.3215","distance_km":4.67},{"id":0,"code_insee":"27151","nom_standard":"Charleval","nom_a":null,"nom_de":null,"slug_ville":"charleval","departement_id":0,"code_postal":"27380","population":1701,"superficie_km2":"1412.14","latitude_centre":"49.3789","longitude_centre":"1.3937","distance_km":4.98},{"id":17638,"code_insee":"27454","nom_standard":"Perruel","nom_a":null,"nom_de":null,"slug_ville":"perruel","departement_id":0,"code_postal":"27910","population":465,"superficie_km2":"536.31","latitude_centre":"49.4342","longitude_centre":"1.3601","distance_km":5.07},{"id":0,"code_insee":"76046","nom_standard":"Auzouville-sur-Ry","nom_a":null,"nom_de":null,"slug_ville":"auzouville-sur-ry","departement_id":0,"code_postal":"76116","population":683,"superficie_km2":"792.45","latitude_centre":"49.4387","longitude_centre":"1.3071","distance_km":5.26},{"id":0,"code_insee":"76106","nom_standard":"Bois-d'Ennebourg","nom_a":null,"nom_de":null,"slug_ville":"bois-d-ennebourg","departement_id":0,"code_postal":"76160","population":583,"superficie_km2":"709.22","latitude_centre":"49.4259","longitude_centre":"1.2575","distance_km":6.28},{"id":0,"code_insee":"27470","nom_standard":"Pont-Saint-Pierre","nom_a":null,"nom_de":null,"slug_ville":"pont-saint-pierre","departement_id":0,"code_postal":"27360","population":1155,"superficie_km2":"696.31","latitude_centre":"49.3414","longitude_centre":"1.2892","distance_km":6.46},{"id":0,"code_insee":"76412","nom_standard":"Martainville-Épreville","nom_a":null,"nom_de":null,"slug_ville":"martainville-epreville","departement_id":0,"code_postal":"76116","population":746,"superficie_km2":"760.86","latitude_centre":"49.4505","longitude_centre":"1.2987","distance_km":6.7},{"id":17475,"code_insee":"27205","nom_standard":"Douville-sur-Andelle","nom_a":null,"nom_de":null,"slug_ville":"douville-sur-andelle","departement_id":0,"code_postal":"27380","population":413,"superficie_km2":"454.83","latitude_centre":"49.3339","longitude_centre":"1.3107","distance_km":6.75},{"id":0,"code_insee":"27672","nom_standard":"Vascœuil","nom_a":null,"nom_de":null,"slug_ville":"vascoeuil","departement_id":0,"code_postal":"27910","population":306,"superficie_km2":"746.29","latitude_centre":"49.4485","longitude_centre":"1.3793","distance_km":7.13},{"id":17529,"code_insee":"27294","nom_standard":"Val d'Orger","nom_a":null,"nom_de":null,"slug_ville":"val-d-orger","departement_id":0,"code_postal":"27380","population":986,"superficie_km2":"1098.20","latitude_centre":"49.3389","longitude_centre":"1.3864","distance_km":7.37},{"id":0,"code_insee":"76573","nom_standard":"Saint-Denis-le-Thiboult","nom_a":null,"nom_de":null,"slug_ville":"saint-denis-le-thiboult","departement_id":0,"code_postal":"76116","population":502,"superficie_km2":"1037.63","latitude_centre":"49.4601","longitude_centre":"1.3545","distance_km":7.64},{"id":17369,"code_insee":"27034","nom_standard":"Bacqueville","nom_a":null,"nom_de":null,"slug_ville":"bacqueville","departement_id":0,"code_postal":"27440","population":614,"superficie_km2":"1096.09","latitude_centre":"49.3238","longitude_centre":"1.3657","distance_km":8.2},{"id":0,"code_insee":"76548","nom_standard":"Ry","nom_a":null,"nom_de":null,"slug_ville":"ry","departement_id":0,"code_postal":"76116","population":787,"superficie_km2":"574.61","latitude_centre":"49.4736","longitude_centre":"1.3357","distance_km":8.92}]}