{"ville":{"id":12077,"code_insee":"08360","nom_standard":"Renneville","nom_a":null,"nom_de":null,"slug_ville":"renneville","departement_id":0,"code_postal":"08220","population":187,"superficie_km2":"991.19","latitude_centre":"49.6529","longitude_centre":"4.14","dep_code":"08","dep_nom":"Ardennes","dep_slug":"ardennes","reg_code":"44","reg_nom":"Grand Est","reg_slug":"grand-est"},"departement":{"code":"08","nom":"Ardennes","slug":"ardennes"},"region":{"code":"44","nom":"Grand Est","slug":"grand-est"},"villes_proches":[{"id":10251,"code_insee":"02069","nom_standard":"Berlise","nom_a":null,"nom_de":null,"slug_ville":"berlise","departement_id":0,"code_postal":"02340","population":104,"superficie_km2":"667.65","latitude_centre":"49.6628","longitude_centre":"4.1104","distance_km":2.4},{"id":11935,"code_insee":"08178","nom_standard":"Fraillicourt","nom_a":null,"nom_de":null,"slug_ville":"fraillicourt","departement_id":0,"code_postal":"08220","population":164,"superficie_km2":"1439.64","latitude_centre":"49.6661","longitude_centre":"4.1725","distance_km":2.76},{"id":10660,"code_insee":"02556","nom_standard":"Noircourt","nom_a":null,"nom_de":null,"slug_ville":"noircourt","departement_id":0,"code_postal":"02340","population":68,"superficie_km2":"548.20","latitude_centre":"49.6691","longitude_centre":"4.0948","distance_km":3.72},{"id":10821,"code_insee":"02743","nom_standard":"Le Thuel","nom_a":null,"nom_de":null,"slug_ville":"le-thuel","departement_id":0,"code_postal":"02340","population":158,"superficie_km2":"711.50","latitude_centre":"49.643","longitude_centre":"4.0834","distance_km":4.22},{"id":0,"code_insee":"08465","nom_standard":"Vaux-lès-Rubigny","nom_a":null,"nom_de":null,"slug_ville":"vaux-les-rubigny","departement_id":0,"code_postal":"08220","population":45,"superficie_km2":"394.29","latitude_centre":"49.6881","longitude_centre":"4.1835","distance_km":5.01},{"id":0,"code_insee":"08413","nom_standard":"Seraincourt","nom_a":null,"nom_de":null,"slug_ville":"seraincourt","departement_id":0,"code_postal":"08220","population":254,"superficie_km2":"1628.61","latitude_centre":"49.6184","longitude_centre":"4.1849","distance_km":5.02},{"id":11961,"code_insee":"08210","nom_standard":"Hannogne-Saint-Rémy","nom_a":null,"nom_de":null,"slug_ville":"hannogne-saint-remy","departement_id":0,"code_postal":"08220","population":110,"superficie_km2":"1809.07","latitude_centre":"49.6053","longitude_centre":"4.1421","distance_km":5.3},{"id":10628,"code_insee":"02519","nom_standard":"Montloué","nom_a":null,"nom_de":null,"slug_ville":"montloue","departement_id":0,"code_postal":"02340","population":193,"superficie_km2":"1563.18","latitude_centre":"49.6644","longitude_centre":"4.0652","distance_km":5.53},{"id":0,"code_insee":"08418","nom_standard":"Sévigny-Waleppe","nom_a":null,"nom_de":null,"slug_ville":"sevigny-waleppe","departement_id":0,"code_postal":"08220","population":218,"superficie_km2":"2422.29","latitude_centre":"49.6162","longitude_centre":"4.086","distance_km":5.64},{"id":10758,"code_insee":"02666","nom_standard":"Rozoy-sur-Serre","nom_a":null,"nom_de":null,"slug_ville":"rozoy-sur-serre","departement_id":0,"code_postal":"02360","population":917,"superficie_km2":"1668.25","latitude_centre":"49.7036","longitude_centre":"4.1348","distance_km":5.65},{"id":10728,"code_insee":"02634","nom_standard":"Raillimont","nom_a":null,"nom_de":null,"slug_ville":"raillimont","departement_id":0,"code_postal":"02360","population":89,"superficie_km2":"492.88","latitude_centre":"49.7028","longitude_centre":"4.1612","distance_km":5.75},{"id":0,"code_insee":"08372","nom_standard":"Rubigny","nom_a":null,"nom_de":null,"slug_ville":"rubigny","departement_id":0,"code_postal":"08220","population":55,"superficie_km2":"506.73","latitude_centre":"49.6891","longitude_centre":"4.2058","distance_km":6.21},{"id":10803,"code_insee":"02723","nom_standard":"Soize","nom_a":null,"nom_de":null,"slug_ville":"soize","departement_id":0,"code_postal":"02340","population":95,"superficie_km2":"600.42","latitude_centre":"49.6973","longitude_centre":"4.0826","distance_km":6.44},{"id":10752,"code_insee":"02660","nom_standard":"Rouvroy-sur-Serre","nom_a":null,"nom_de":null,"slug_ville":"rouvroy-sur-serre","departement_id":0,"code_postal":"02360","population":45,"superficie_km2":"390.16","latitude_centre":"49.7163","longitude_centre":"4.1776","distance_km":7.55},{"id":10344,"code_insee":"02181","nom_standard":"Chéry-lès-Rozoy","nom_a":null,"nom_de":null,"slug_ville":"chery-les-rozoy","departement_id":0,"code_postal":"02360","population":98,"superficie_km2":"501.72","latitude_centre":"49.7245","longitude_centre":"4.1026","distance_km":8.4},{"id":0,"code_insee":"08396","nom_standard":"Saint-Quentin-le-Petit","nom_a":null,"nom_de":null,"slug_ville":"saint-quentin-le-petit","departement_id":0,"code_postal":"08220","population":126,"superficie_km2":"895.18","latitude_centre":"49.5868","longitude_centre":"4.0817","distance_km":8.47},{"id":11833,"code_insee":"08046","nom_standard":"Banogne-Recouvrance","nom_a":null,"nom_de":null,"slug_ville":"banogne-recouvrance","departement_id":0,"code_postal":"08220","population":162,"superficie_km2":"1908.77","latitude_centre":"49.5711","longitude_centre":"4.1329","distance_km":9.11},{"id":10485,"code_insee":"02354","nom_standard":"Grandrieux","nom_a":null,"nom_de":null,"slug_ville":"grandrieux","departement_id":0,"code_postal":"02360","population":80,"superficie_km2":"437.79","latitude_centre":"49.7312","longitude_centre":"4.1862","distance_km":9.32},{"id":10418,"code_insee":"02266","nom_standard":"Dolignon","nom_a":null,"nom_de":null,"slug_ville":"dolignon","departement_id":0,"code_postal":"02360","population":30,"superficie_km2":"317.59","latitude_centre":"49.7295","longitude_centre":"4.0873","distance_km":9.32},{"id":10686,"code_insee":"02586","nom_standard":"Parfondeval","nom_a":null,"nom_de":null,"slug_ville":"parfondeval","departement_id":0,"code_postal":"02360","population":143,"superficie_km2":"1027.30","latitude_centre":"49.7431","longitude_centre":"4.1624","distance_km":10.16}]}