{"ville":{"id":6140,"code_insee":"60533","nom_standard":"Ressons-sur-Matz","nom_a":null,"nom_de":null,"slug_ville":"ressons-sur-matz","departement_id":661,"code_postal":"60490","population":1733,"superficie_km2":"9.00","latitude_centre":"49.5340004","longitude_centre":"2.7330000","dep_code":"60","dep_nom":"Oise","dep_slug":"oise","reg_code":"09","reg_nom":"Hauts-de-France","reg_slug":"hauts-de-france"},"departement":{"code":"60","nom":"Oise","slug":"oise"},"region":{"code":"09","nom":"Hauts-de-France","slug":"hauts-de-france"},"villes_proches":[{"id":6183,"code_insee":"60689","nom_standard":"Villers-sur-Coudun","nom_a":null,"nom_de":null,"slug_ville":"villers-sur-coudun","departement_id":661,"code_postal":"60150","population":1409,"superficie_km2":"7.00","latitude_centre":"49.4860001","longitude_centre":"2.8050001","distance_km":7.45},{"id":6067,"code_insee":"60166","nom_standard":"Coudun","nom_a":null,"nom_de":null,"slug_ville":"coudun","departement_id":661,"code_postal":"60150","population":1059,"superficie_km2":"11.00","latitude_centre":"49.4580002","longitude_centre":"2.8000000","distance_km":9.74},{"id":6097,"code_insee":"60350","nom_standard":"Lassigny","nom_a":null,"nom_de":null,"slug_ville":"lassigny","departement_id":661,"code_postal":"60310","population":1403,"superficie_km2":"17.00","latitude_centre":"49.5999985","longitude_centre":"2.8440001","distance_km":10.86},{"id":6170,"code_insee":"60643","nom_standard":"Tricot","nom_a":null,"nom_de":null,"slug_ville":"tricot","departement_id":661,"code_postal":"60420","population":1365,"superficie_km2":"12.00","latitude_centre":"49.5629997","longitude_centre":"2.5850000","distance_km":11.15},{"id":6139,"code_insee":"60531","nom_standard":"Remy","nom_a":null,"nom_de":null,"slug_ville":"remy","departement_id":661,"code_postal":"60190","population":1973,"superficie_km2":"20.00","latitude_centre":"49.4350014","longitude_centre":"2.7030001","distance_km":11.22},{"id":6101,"code_insee":"60368","nom_standard":"Longueil-Annel","nom_a":null,"nom_de":null,"slug_ville":"longueil-annel","departement_id":661,"code_postal":"60150","population":2595,"superficie_km2":"6.00","latitude_centre":"49.4669991","longitude_centre":"2.8540001","distance_km":11.48},{"id":6048,"code_insee":"60119","nom_standard":"Cambronne-lès-Ribécourt","nom_a":null,"nom_de":null,"slug_ville":"cambronne-les-ribecourt","departement_id":661,"code_postal":"60170","population":1898,"superficie_km2":"7.00","latitude_centre":"49.5060005","longitude_centre":"2.8980000","distance_km":12.31},{"id":6166,"code_insee":"60636","nom_standard":"Thourotte","nom_a":null,"nom_de":null,"slug_ville":"thourotte","departement_id":661,"code_postal":"60150","population":4456,"superficie_km2":"4.00","latitude_centre":"49.4790001","longitude_centre":"2.8810000","distance_km":12.31},{"id":6106,"code_insee":"60382","nom_standard":"Margny-lès-Compiègne","nom_a":null,"nom_de":null,"slug_ville":"margny-les-compiegne","departement_id":661,"code_postal":"60280","population":8716,"superficie_km2":"7.00","latitude_centre":"49.4329987","longitude_centre":"2.8060000","distance_km":12.41},{"id":6064,"code_insee":"60156","nom_standard":"Clairoix","nom_a":null,"nom_de":null,"slug_ville":"clairoix","departement_id":661,"code_postal":"60280","population":2232,"superficie_km2":"5.00","latitude_centre":"49.4410019","longitude_centre":"2.8450000","distance_km":13.13},{"id":6175,"code_insee":"60665","nom_standard":"Venette","nom_a":null,"nom_de":null,"slug_ville":"venette","departement_id":661,"code_postal":"60280","population":2808,"superficie_km2":"9.00","latitude_centre":"49.4199982","longitude_centre":"2.7839999","distance_km":13.2},{"id":6141,"code_insee":"60537","nom_standard":"Ribécourt-Dreslincourt","nom_a":null,"nom_de":null,"slug_ville":"ribecourt-dreslincourt","departement_id":661,"code_postal":"60170","population":3746,"superficie_km2":"13.00","latitude_centre":"49.5219994","longitude_centre":"2.9189999","distance_km":13.49},{"id":6077,"code_insee":"60223","nom_standard":"Estrées-Saint-Denis","nom_a":null,"nom_de":null,"slug_ville":"estrees-saint-denis","departement_id":661,"code_postal":"60190","population":3693,"superficie_km2":"8.00","latitude_centre":"49.4259987","longitude_centre":"2.6300001","distance_km":14.13},{"id":6116,"code_insee":"60423","nom_standard":"Montmacq","nom_a":null,"nom_de":null,"slug_ville":"montmacq","departement_id":661,"code_postal":"60150","population":1158,"superficie_km2":"7.00","latitude_centre":"49.4819984","longitude_centre":"2.9150000","distance_km":14.36},{"id":6132,"code_insee":"60501","nom_standard":"Le Plessis-Brion","nom_a":null,"nom_de":null,"slug_ville":"le-plessis-brion","departement_id":661,"code_postal":"60150","population":1316,"superficie_km2":"7.00","latitude_centre":"49.4620018","longitude_centre":"2.9080000","distance_km":14.96},{"id":6089,"code_insee":"60325","nom_standard":"Jaux","nom_a":null,"nom_de":null,"slug_ville":"jaux","departement_id":661,"code_postal":"60880","population":2264,"superficie_km2":"9.00","latitude_centre":"49.3959999","longitude_centre":"2.7670000","distance_km":15.54},{"id":6061,"code_insee":"60151","nom_standard":"Choisy-au-Bac","nom_a":null,"nom_de":null,"slug_ville":"choisy-au-bac","departement_id":661,"code_postal":"60750","population":3322,"superficie_km2":"16.00","latitude_centre":"49.4420013","longitude_centre":"2.8959999","distance_km":15.6},{"id":6104,"code_insee":"60374","nom_standard":"Maignelay-Montigny","nom_a":null,"nom_de":null,"slug_ville":"maignelay-montigny","departement_id":661,"code_postal":"60420","population":2555,"superficie_km2":"19.00","latitude_centre":"49.5480003","longitude_centre":"2.5130000","distance_km":15.95},{"id":6138,"code_insee":"60526","nom_standard":"Ravenel","nom_a":null,"nom_de":null,"slug_ville":"ravenel","departement_id":661,"code_postal":"60130","population":1054,"superficie_km2":"11.00","latitude_centre":"49.5139999","longitude_centre":"2.4990001","distance_km":17.04},{"id":6060,"code_insee":"60150","nom_standard":"Chiry-Ourscamp","nom_a":null,"nom_de":null,"slug_ville":"chiry-ourscamp","departement_id":661,"code_postal":"60138","population":1143,"superficie_km2":"13.00","latitude_centre":"49.5299988","longitude_centre":"2.9710000","distance_km":17.18}]}