{"ville":{"id":123,"code_insee":"01322","nom_standard":"Reyrieux","nom_a":null,"nom_de":null,"slug_ville":"reyrieux","departement_id":601,"code_postal":"01600","population":5098,"superficie_km2":"16.00","latitude_centre":"45.9370003","longitude_centre":"4.8280001","dep_code":"01","dep_nom":"Ain","dep_slug":"ain","reg_code":"01","reg_nom":"Auvergne-Rhône-Alpes","reg_slug":"auvergne-rhone-alpes"},"departement":{"code":"01","nom":"Ain","slug":"ain"},"region":{"code":"01","nom":"Auvergne-Rhône-Alpes","slug":"auvergne-rhone-alpes"},"villes_proches":[{"id":111,"code_insee":"01285","nom_standard":"Parcieux","nom_a":null,"nom_de":null,"slug_ville":"parcieux","departement_id":601,"code_postal":"01600","population":1319,"superficie_km2":"3.00","latitude_centre":"45.9179993","longitude_centre":"4.8280001","distance_km":2.11},{"id":168,"code_insee":"01423","nom_standard":"Toussieux","nom_a":null,"nom_de":null,"slug_ville":"toussieux","departement_id":601,"code_postal":"01600","population":1198,"superficie_km2":"5.00","latitude_centre":"45.9599991","longitude_centre":"4.8290000","distance_km":2.56},{"id":89,"code_insee":"01238","nom_standard":"Massieux","nom_a":null,"nom_de":null,"slug_ville":"massieux","departement_id":601,"code_postal":"01600","population":2721,"superficie_km2":"3.00","latitude_centre":"45.9090004","longitude_centre":"4.8280001","distance_km":3.11},{"id":138,"code_insee":"01353","nom_standard":"Sainte-Euphémie","nom_a":null,"nom_de":null,"slug_ville":"sainte-euphemie","departement_id":601,"code_postal":"01600","population":1730,"superficie_km2":"5.00","latitude_centre":"45.9669991","longitude_centre":"4.7950001","distance_km":4.2},{"id":134,"code_insee":"01347","nom_standard":"Saint-Didier-de-Formans","nom_a":null,"nom_de":null,"slug_ville":"saint-didier-de-formans","departement_id":601,"code_postal":"01600","population":2141,"superficie_km2":"7.00","latitude_centre":"45.9560013","longitude_centre":"4.7779999","distance_km":4.41},{"id":7347,"code_insee":"69278","nom_standard":"Genay","nom_a":null,"nom_de":null,"slug_ville":"genay","departement_id":670,"code_postal":"69730","population":5520,"superficie_km2":"9.00","latitude_centre":"45.8979988","longitude_centre":"4.8390002","distance_km":4.42},{"id":171,"code_insee":"01427","nom_standard":"Trévoux","nom_a":null,"nom_de":null,"slug_ville":"trevoux","departement_id":601,"code_postal":"01600","population":6947,"superficie_km2":"6.00","latitude_centre":"45.9410019","longitude_centre":"4.7709999","distance_km":4.43},{"id":96,"code_insee":"01250","nom_standard":"Misérieux","nom_a":null,"nom_de":null,"slug_ville":"miserieux","departement_id":601,"code_postal":"01600","population":1994,"superficie_km2":"7.00","latitude_centre":"45.9760017","longitude_centre":"4.8099999","distance_km":4.55},{"id":42,"code_insee":"01105","nom_standard":"Civrieux","nom_a":null,"nom_de":null,"slug_ville":"civrieux","departement_id":601,"code_postal":"01390","population":1916,"superficie_km2":"20.00","latitude_centre":"45.9220009","longitude_centre":"4.8860002","distance_km":4.79},{"id":7288,"code_insee":"69163","nom_standard":"Quincieux","nom_a":null,"nom_de":null,"slug_ville":"quincieux","departement_id":670,"code_postal":"69650","population":3549,"superficie_km2":"18.00","latitude_centre":"45.9140015","longitude_centre":"4.7740002","distance_km":4.9},{"id":7276,"code_insee":"69143","nom_standard":"Neuville-sur-Saône","nom_a":null,"nom_de":null,"slug_ville":"neuville-sur-saone","departement_id":670,"code_postal":"69250","population":7721,"superficie_km2":"5.00","latitude_centre":"45.8829994","longitude_centre":"4.8439999","distance_km":6.13},{"id":10,"code_insee":"01021","nom_standard":"Ars-sur-Formans","nom_a":null,"nom_de":null,"slug_ville":"ars-sur-formans","departement_id":601,"code_postal":"01480","population":1498,"superficie_km2":"6.00","latitude_centre":"45.9939995","longitude_centre":"4.8220000","distance_km":6.35},{"id":7310,"code_insee":"69207","nom_standard":"Saint-Germain-au-Mont-d'Or","nom_a":null,"nom_de":null,"slug_ville":"saint-germain-au-mont-d-or","departement_id":670,"code_postal":"69650","population":2978,"superficie_km2":"5.00","latitude_centre":"45.8820000","longitude_centre":"4.8010001","distance_km":6.46},{"id":130,"code_insee":"01339","nom_standard":"Saint-Bernard","nom_a":null,"nom_de":null,"slug_ville":"saint-bernard","departement_id":601,"code_postal":"01600","population":1497,"superficie_km2":"3.00","latitude_centre":"45.9490013","longitude_centre":"4.7430000","distance_km":6.71},{"id":74,"code_insee":"01194","nom_standard":"Jassans-Riottier","nom_a":null,"nom_de":null,"slug_ville":"jassans-riottier","departement_id":601,"code_postal":"01480","population":6355,"superficie_km2":"5.00","latitude_centre":"45.9780006","longitude_centre":"4.7600002","distance_km":6.96},{"id":157,"code_insee":"01398","nom_standard":"Savigneux","nom_a":null,"nom_de":null,"slug_ville":"savigneux","departement_id":601,"code_postal":"01480","population":1449,"superficie_km2":"15.00","latitude_centre":"45.9970017","longitude_centre":"4.8579998","distance_km":7.06},{"id":65,"code_insee":"01166","nom_standard":"Frans","nom_a":null,"nom_de":null,"slug_ville":"frans","departement_id":601,"code_postal":"01480","population":2482,"superficie_km2":"8.00","latitude_centre":"45.9939995","longitude_centre":"4.7800002","distance_km":7.34},{"id":7353,"code_insee":"69284","nom_standard":"Montanay","nom_a":null,"nom_de":null,"slug_ville":"montanay","departement_id":670,"code_postal":"69250","population":3249,"superficie_km2":"7.00","latitude_centre":"45.8769989","longitude_centre":"4.8680000","distance_km":7.35},{"id":7233,"code_insee":"69071","nom_standard":"Curis-au-Mont-d'Or","nom_a":null,"nom_de":null,"slug_ville":"curis-au-mont-d-or","departement_id":670,"code_postal":"69250","population":1179,"superficie_km2":"3.00","latitude_centre":"45.8689995","longitude_centre":"4.8179998","distance_km":7.6},{"id":7192,"code_insee":"69003","nom_standard":"Albigny-sur-Saône","nom_a":null,"nom_de":null,"slug_ville":"albigny-sur-saone","departement_id":670,"code_postal":"69250","population":2991,"superficie_km2":"3.00","latitude_centre":"45.8639984","longitude_centre":"4.8309999","distance_km":8.12}]}