{"ville":{"id":18241,"code_insee":"2A259","nom_standard":"Rezza","nom_a":null,"nom_de":null,"slug_ville":"rezza","departement_id":0,"code_postal":"20121","population":61,"superficie_km2":"1363.75","latitude_centre":"42.1255","longitude_centre":"8.9557","dep_code":"2A","dep_nom":"Corse-du-Sud","dep_slug":"corse-du-sud","reg_code":"94","reg_nom":"Corse","reg_slug":"corse"},"departement":{"code":"2A","nom":"Corse-du-Sud","slug":"corse-du-sud"},"region":{"code":"94","nom":"Corse","slug":"corse"},"villes_proches":[{"id":18182,"code_insee":"2A027","nom_standard":"Azzana","nom_a":null,"nom_de":null,"slug_ville":"azzana","departement_id":0,"code_postal":"20121","population":49,"superficie_km2":"1190.79","latitude_centre":"42.1172","longitude_centre":"8.9331","distance_km":2.08},{"id":0,"code_insee":"2A266","nom_standard":"Salice","nom_a":null,"nom_de":null,"slug_ville":"salice","departement_id":0,"code_postal":"20121","population":102,"superficie_km2":"2203.40","latitude_centre":"42.1071","longitude_centre":"8.9003","distance_km":5.01},{"id":18232,"code_insee":"2A204","nom_standard":"Pastricciola","nom_a":null,"nom_de":null,"slug_ville":"pastricciola","departement_id":0,"code_postal":"20121","population":90,"superficie_km2":"4637.72","latitude_centre":"42.1444","longitude_centre":"9.0148","distance_km":5.31},{"id":18212,"code_insee":"2A131","nom_standard":"Guagno","nom_a":null,"nom_de":null,"slug_ville":"guagno","departement_id":0,"code_postal":"20160","population":145,"superficie_km2":"4278.75","latitude_centre":"42.1772","longitude_centre":"8.9813","distance_km":6.12},{"id":18237,"code_insee":"2A240","nom_standard":"Poggiolo","nom_a":null,"nom_de":null,"slug_ville":"poggiolo","departement_id":0,"code_postal":"20125","population":104,"superficie_km2":"1216.35","latitude_centre":"42.1616","longitude_centre":"8.8985","distance_km":6.19},{"id":0,"code_insee":"2A262","nom_standard":"Rosazia","nom_a":null,"nom_de":null,"slug_ville":"rosazia","departement_id":0,"code_postal":"20121","population":53,"superficie_km2":"1970.63","latitude_centre":"42.1235","longitude_centre":"8.8581","distance_km":8.05},{"id":18227,"code_insee":"2A196","nom_standard":"Orto","nom_a":null,"nom_de":null,"slug_ville":"orto","departement_id":0,"code_postal":"20125","population":81,"superficie_km2":"1603.55","latitude_centre":"42.1983","longitude_centre":"8.9626","distance_km":8.11},{"id":0,"code_insee":"2A345","nom_standard":"Vero","nom_a":null,"nom_de":null,"slug_ville":"vero","departement_id":0,"code_postal":"20172","population":640,"superficie_km2":"2365.74","latitude_centre":"42.0576","longitude_centre":"8.9198","distance_km":8.11},{"id":0,"code_insee":"2A324","nom_standard":"Tavera","nom_a":null,"nom_de":null,"slug_ville":"tavera","departement_id":0,"code_postal":"20163","population":453,"superficie_km2":"3244.47","latitude_centre":"42.0729","longitude_centre":"9.0296","distance_km":8.45},{"id":0,"code_insee":"2A330","nom_standard":"Ucciani","nom_a":null,"nom_de":null,"slug_ville":"ucciani","departement_id":0,"code_postal":"20133","population":504,"superficie_km2":"2862.42","latitude_centre":"42.0514","longitude_centre":"8.9853","distance_km":8.59},{"id":0,"code_insee":"2A282","nom_standard":"Soccia","nom_a":null,"nom_de":null,"slug_ville":"soccia","departement_id":0,"code_postal":"20125","population":160,"superficie_km2":"2790.99","latitude_centre":"42.2065","longitude_centre":"8.9309","distance_km":9.24},{"id":18217,"code_insee":"2A144","nom_standard":"Lopigna","nom_a":null,"nom_de":null,"slug_ville":"lopigna","departement_id":0,"code_postal":"20139","population":113,"superficie_km2":"1964.02","latitude_centre":"42.0888","longitude_centre":"8.8531","distance_km":9.4},{"id":18223,"code_insee":"2A174","nom_standard":"Murzo","nom_a":null,"nom_de":null,"slug_ville":"murzo","departement_id":0,"code_postal":"20160","population":98,"superficie_km2":"2145.96","latitude_centre":"42.1556","longitude_centre":"8.8491","distance_km":9.4},{"id":18187,"code_insee":"2A040","nom_standard":"Bocognano","nom_a":null,"nom_de":null,"slug_ville":"bocognano","departement_id":0,"code_postal":"20136","population":419,"superficie_km2":"7123.61","latitude_centre":"42.0871","longitude_centre":"9.0646","distance_km":9.95},{"id":18192,"code_insee":"2A062","nom_standard":"Carbuccia","nom_a":null,"nom_de":null,"slug_ville":"carbuccia","departement_id":0,"code_postal":"20133","population":379,"superficie_km2":"1444.14","latitude_centre":"42.0343","longitude_centre":"8.9302","distance_km":10.36},{"id":0,"code_insee":"2A323","nom_standard":"Tavaco","nom_a":null,"nom_de":null,"slug_ville":"tavaco","departement_id":0,"code_postal":"20167","population":414,"superficie_km2":"1091.06","latitude_centre":"42.0327","longitude_centre":"8.8873","distance_km":11.76},{"id":0,"code_insee":"2A270","nom_standard":"Sari-d'Orcino","nom_a":null,"nom_de":null,"slug_ville":"sari-d-orcino","departement_id":0,"code_postal":"20151","population":351,"superficie_km2":"2215.87","latitude_centre":"42.064","longitude_centre":"8.8369","distance_km":11.95},{"id":18215,"code_insee":"2A141","nom_standard":"Letia","nom_a":null,"nom_de":null,"slug_ville":"letia","departement_id":0,"code_postal":"20160","population":111,"superficie_km2":"3661.52","latitude_centre":"42.2166","longitude_centre":"8.8759","distance_km":12.08},{"id":0,"code_insee":"2A209","nom_standard":"Peri","nom_a":null,"nom_de":null,"slug_ville":"peri","departement_id":0,"code_postal":"20167","population":2044,"superficie_km2":"2404.25","latitude_centre":"42.0015","longitude_centre":"8.9099","distance_km":14.3},{"id":18203,"code_insee":"2A100","nom_standard":"Cristinacce","nom_a":null,"nom_de":null,"slug_ville":"cristinacce","departement_id":0,"code_postal":"20126","population":77,"superficie_km2":"2059.91","latitude_centre":"42.2458","longitude_centre":"8.8575","distance_km":15.63}]}