{"ville":{"id":14860,"code_insee":"18194","nom_standard":"Rians","nom_a":null,"nom_de":null,"slug_ville":"rians","departement_id":0,"code_postal":"18220","population":950,"superficie_km2":"3282.43","latitude_centre":"47.1864","longitude_centre":"2.6203","dep_code":"18","dep_nom":"Cher","dep_slug":"cher","reg_code":"24","reg_nom":"Centre-Val de Loire","reg_slug":"centre-val-de-loire"},"departement":{"code":"18","nom":"Cher","slug":"cher"},"region":{"code":"24","nom":"Centre-Val de Loire","slug":"centre-val-de-loire"},"villes_proches":[{"id":0,"code_insee":"18202","nom_standard":"Saint-Céols","nom_a":null,"nom_de":null,"slug_ville":"saint-ceols","departement_id":0,"code_postal":"18220","population":16,"superficie_km2":"336.04","latitude_centre":"47.2185","longitude_centre":"2.6373","distance_km":3.79},{"id":14718,"code_insee":"18016","nom_standard":"Aubinges","nom_a":null,"nom_de":null,"slug_ville":"aubinges","departement_id":0,"code_postal":"18220","population":401,"superficie_km2":"1090.91","latitude_centre":"47.2202","longitude_centre":"2.5893","distance_km":4.43},{"id":0,"code_insee":"18003","nom_standard":"Les Aix-d'Angillon","nom_a":null,"nom_de":null,"slug_ville":"les-aix-d-angillon","departement_id":0,"code_postal":"18220","population":1877,"superficie_km2":"1470.67","latitude_centre":"47.193","longitude_centre":"2.5625","distance_km":4.43},{"id":0,"code_insee":"18035","nom_standard":"Brécy","nom_a":null,"nom_de":null,"slug_ville":"brecy","departement_id":0,"code_postal":"18220","population":927,"superficie_km2":"4013.43","latitude_centre":"47.1292","longitude_centre":"2.6316","distance_km":6.42},{"id":14720,"code_insee":"18019","nom_standard":"Azy","nom_a":null,"nom_de":null,"slug_ville":"azy","departement_id":0,"code_postal":"18220","population":450,"superficie_km2":"2799.72","latitude_centre":"47.1937","longitude_centre":"2.7099","distance_km":6.82},{"id":14821,"code_insee":"18151","nom_standard":"Montigny","nom_a":null,"nom_de":null,"slug_ville":"montigny","departement_id":0,"code_postal":"18250","population":316,"superficie_km2":"2912.93","latitude_centre":"47.231","longitude_centre":"2.6871","distance_km":7.08},{"id":0,"code_insee":"18235","nom_standard":"Sainte-Solange","nom_a":null,"nom_de":null,"slug_ville":"sainte-solange","departement_id":0,"code_postal":"18220","population":1111,"superficie_km2":"3180.95","latitude_centre":"47.1427","longitude_centre":"2.5516","distance_km":7.11},{"id":14778,"code_insee":"18090","nom_standard":"Étréchy","nom_a":null,"nom_de":null,"slug_ville":"etrechy","departement_id":0,"code_postal":"18800","population":408,"superficie_km2":"3247.38","latitude_centre":"47.1621","longitude_centre":"2.7098","distance_km":7.28},{"id":14826,"code_insee":"18156","nom_standard":"Morogues","nom_a":null,"nom_de":null,"slug_ville":"morogues","departement_id":0,"code_postal":"18220","population":424,"superficie_km2":"3099.88","latitude_centre":"47.255","longitude_centre":"2.5953","distance_km":7.86},{"id":0,"code_insee":"18253","nom_standard":"Soulangis","nom_a":null,"nom_de":null,"slug_ville":"soulangis","departement_id":0,"code_postal":"18220","population":454,"superficie_km2":"1404.46","latitude_centre":"47.1788","longitude_centre":"2.5162","distance_km":7.91},{"id":14843,"code_insee":"18176","nom_standard":"Parassy","nom_a":null,"nom_de":null,"slug_ville":"parassy","departement_id":0,"code_postal":"18220","population":415,"superficie_km2":"2666.31","latitude_centre":"47.2399","longitude_centre":"2.539","distance_km":8.55},{"id":14793,"code_insee":"18111","nom_standard":"Humbligny","nom_a":null,"nom_de":null,"slug_ville":"humbligny","departement_id":0,"code_postal":"18250","population":175,"superficie_km2":"2108.19","latitude_centre":"47.2637","longitude_centre":"2.6457","distance_km":8.81},{"id":0,"code_insee":"18282","nom_standard":"Villabon","nom_a":null,"nom_de":null,"slug_ville":"villabon","departement_id":0,"code_postal":"18800","population":559,"superficie_km2":"1843.25","latitude_centre":"47.108","longitude_centre":"2.68","distance_km":9.82},{"id":14834,"code_insee":"18166","nom_standard":"Nohant-en-Goût","nom_a":null,"nom_de":null,"slug_ville":"nohant-en-gout","departement_id":0,"code_postal":"18390","population":548,"superficie_km2":"2500.90","latitude_centre":"47.0902","longitude_centre":"2.5838","distance_km":11.05},{"id":14832,"code_insee":"18163","nom_standard":"Neuvy-Deux-Clochers","nom_a":null,"nom_de":null,"slug_ville":"neuvy-deux-clochers","departement_id":0,"code_postal":"18250","population":247,"superficie_km2":"1674.88","latitude_centre":"47.2813","longitude_centre":"2.6721","distance_km":11.25},{"id":14789,"code_insee":"18105","nom_standard":"Gron","nom_a":null,"nom_de":null,"slug_ville":"gron","departement_id":0,"code_postal":"18800","population":470,"superficie_km2":"2678.65","latitude_centre":"47.1178","longitude_centre":"2.7375","distance_km":11.69},{"id":14828,"code_insee":"18158","nom_standard":"Moulins-sur-Yèvre","nom_a":null,"nom_de":null,"slug_ville":"moulins-sur-yevre","departement_id":0,"code_postal":"18390","population":850,"superficie_km2":"1536.24","latitude_centre":"47.0958","longitude_centre":"2.5259","distance_km":12.35},{"id":0,"code_insee":"18092","nom_standard":"Farges-en-Septaine","nom_a":null,"nom_de":null,"slug_ville":"farges-en-septaine","departement_id":0,"code_postal":"18800","population":1023,"superficie_km2":"2498.80","latitude_centre":"47.0682","longitude_centre":"2.639","distance_km":13.22},{"id":14831,"code_insee":"18162","nom_standard":"Neuilly-en-Sancerre","nom_a":null,"nom_de":null,"slug_ville":"neuilly-en-sancerre","departement_id":0,"code_postal":"18250","population":244,"superficie_km2":"2623.24","latitude_centre":"47.3086","longitude_centre":"2.6571","distance_km":13.87},{"id":0,"code_insee":"18109","nom_standard":"Henrichemont","nom_a":null,"nom_de":null,"slug_ville":"henrichemont","departement_id":0,"code_postal":"18250","population":1721,"superficie_km2":"2592.78","latitude_centre":"47.3","longitude_centre":"2.5376","distance_km":14.09}]}