{"ville":{"id":11686,"code_insee":"07189","nom_standard":"Ribes","nom_a":null,"nom_de":null,"slug_ville":"ribes","departement_id":0,"code_postal":"07260","population":331,"superficie_km2":"692.37","latitude_centre":"44.5035","longitude_centre":"4.1969","dep_code":"07","dep_nom":"Ardèche","dep_slug":"ardeche","reg_code":"84","reg_nom":"Auvergne-Rhône-Alpes","reg_slug":"auvergne-rhone-alpes"},"departement":{"code":"07","nom":"Ardèche","slug":"ardeche"},"region":{"code":"84","nom":"Auvergne-Rhône-Alpes","slug":"auvergne-rhone-alpes"},"villes_proches":[{"id":0,"code_insee":"07336","nom_standard":"Vernon","nom_a":null,"nom_de":null,"slug_ville":"vernon","departement_id":0,"code_postal":"07260","population":235,"superficie_km2":"380.55","latitude_centre":"44.5074","longitude_centre":"4.2251","distance_km":2.28},{"id":0,"code_insee":"07213","nom_standard":"Saint-André-Lachamp","nom_a":null,"nom_de":null,"slug_ville":"saint-andre-lachamp","departement_id":0,"code_postal":"07230","population":167,"superficie_km2":"1668.30","latitude_centre":"44.5057","longitude_centre":"4.155","distance_km":3.33},{"id":11678,"code_insee":"07176","nom_standard":"Planzolles","nom_a":null,"nom_de":null,"slug_ville":"planzolles","departement_id":0,"code_postal":"07230","population":164,"superficie_km2":"534.95","latitude_centre":"44.4845","longitude_centre":"4.1576","distance_km":3.77},{"id":0,"code_insee":"07307","nom_standard":"Sanilhac","nom_a":null,"nom_de":null,"slug_ville":"sanilhac","departement_id":0,"code_postal":"07110","population":437,"superficie_km2":"2107.65","latitude_centre":"44.5309","longitude_centre":"4.2343","distance_km":4.25},{"id":11613,"code_insee":"07088","nom_standard":"Faugères","nom_a":null,"nom_de":null,"slug_ville":"faugeres","departement_id":0,"code_postal":"07230","population":123,"superficie_km2":"581.73","latitude_centre":"44.4828","longitude_centre":"4.1436","distance_km":4.81},{"id":11569,"code_insee":"07029","nom_standard":"Beaumont","nom_a":null,"nom_de":null,"slug_ville":"beaumont","departement_id":0,"code_postal":"07110","population":262,"superficie_km2":"1925.68","latitude_centre":"44.5437","longitude_centre":"4.1709","distance_km":4.92},{"id":0,"code_insee":"07117","nom_standard":"Lablachère","nom_a":null,"nom_de":null,"slug_ville":"lablachere","departement_id":0,"code_postal":"07230","population":2193,"superficie_km2":"2674.28","latitude_centre":"44.4611","longitude_centre":"4.2159","distance_km":4.95},{"id":0,"code_insee":"07199","nom_standard":"Rosières","nom_a":null,"nom_de":null,"slug_ville":"rosieres","departement_id":0,"code_postal":"07260","population":1319,"superficie_km2":"1645.70","latitude_centre":"44.4878","longitude_centre":"4.2607","distance_km":5.35},{"id":0,"code_insee":"07110","nom_standard":"Joyeuse","nom_a":null,"nom_de":null,"slug_ville":"joyeuse","departement_id":0,"code_postal":"07260","population":1811,"superficie_km2":"1292.20","latitude_centre":"44.4713","longitude_centre":"4.2499","distance_km":5.52},{"id":0,"code_insee":"07238","nom_standard":"Saint-Genest-de-Beauzon","nom_a":null,"nom_de":null,"slug_ville":"saint-genest-de-beauzon","departement_id":0,"code_postal":"07230","population":332,"superficie_km2":"535.51","latitude_centre":"44.4459","longitude_centre":"4.1951","distance_km":6.41},{"id":11674,"code_insee":"07171","nom_standard":"Payzac","nom_a":null,"nom_de":null,"slug_ville":"payzac","departement_id":0,"code_postal":"07230","population":539,"superficie_km2":"1320.95","latitude_centre":"44.4543","longitude_centre":"4.1474","distance_km":6.73},{"id":0,"code_insee":"07275","nom_standard":"Saint-Mélany","nom_a":null,"nom_de":null,"slug_ville":"saint-melany","departement_id":0,"code_postal":"07260","population":118,"superficie_km2":"1062.49","latitude_centre":"44.5391","longitude_centre":"4.1276","distance_km":6.77},{"id":0,"code_insee":"07134","nom_standard":"Laurac-en-Vivarais","nom_a":null,"nom_de":null,"slug_ville":"laurac-en-vivarais","departement_id":0,"code_postal":"07110","population":1045,"superficie_km2":"906.40","latitude_centre":"44.5051","longitude_centre":"4.2875","distance_km":7.19},{"id":0,"code_insee":"07196","nom_standard":"Rocles","nom_a":null,"nom_de":null,"slug_ville":"rocles","departement_id":0,"code_postal":"07110","population":261,"superficie_km2":"1670.07","latitude_centre":"44.5709","longitude_centre":"4.2085","distance_km":7.55},{"id":11667,"code_insee":"07162","nom_standard":"Montréal","nom_a":null,"nom_de":null,"slug_ville":"montreal","departement_id":0,"code_postal":"07110","population":573,"superficie_km2":"614.57","latitude_centre":"44.5124","longitude_centre":"4.2937","distance_km":7.74},{"id":0,"code_insee":"07318","nom_standard":"Tauriers","nom_a":null,"nom_de":null,"slug_ville":"tauriers","departement_id":0,"code_postal":"07110","population":203,"superficie_km2":"450.96","latitude_centre":"44.5518","longitude_centre":"4.271","distance_km":7.96},{"id":11561,"code_insee":"07017","nom_standard":"Les Assions","nom_a":null,"nom_de":null,"slug_ville":"les-assions","departement_id":0,"code_postal":"07140","population":767,"superficie_km2":"1399.90","latitude_centre":"44.4243","longitude_centre":"4.1882","distance_km":8.83},{"id":11630,"code_insee":"07109","nom_standard":"Joannas","nom_a":null,"nom_de":null,"slug_ville":"joannas","departement_id":0,"code_postal":"07110","population":328,"superficie_km2":"1210.16","latitude_centre":"44.5737","longitude_centre":"4.2498","distance_km":8.86},{"id":11636,"code_insee":"07118","nom_standard":"Laboule","nom_a":null,"nom_de":null,"slug_ville":"laboule","departement_id":0,"code_postal":"07110","population":146,"superficie_km2":"1753.54","latitude_centre":"44.5928","longitude_centre":"4.1718","distance_km":10.13},{"id":11589,"code_insee":"07053","nom_standard":"Chandolas","nom_a":null,"nom_de":null,"slug_ville":"chandolas","departement_id":0,"code_postal":"07230","population":547,"superficie_km2":"1190.69","latitude_centre":"44.4151","longitude_centre":"4.245","distance_km":10.54}]}