{"ville":{"id":15080,"code_insee":"19172","nom_standard":"Rilhac-Treignac","nom_a":null,"nom_de":null,"slug_ville":"rilhac-treignac","departement_id":0,"code_postal":"19260","population":117,"superficie_km2":"960.57","latitude_centre":"45.5285","longitude_centre":"1.6912","dep_code":"19","dep_nom":"Corrèze","dep_slug":"correze","reg_code":"75","reg_nom":"Nouvelle-Aquitaine","reg_slug":"nouvelle-aquitaine"},"departement":{"code":"19","nom":"Corrèze","slug":"correze"},"region":{"code":"75","nom":"Nouvelle-Aquitaine","slug":"nouvelle-aquitaine"},"villes_proches":[{"id":15073,"code_insee":"19165","nom_standard":"Peyrissac","nom_a":null,"nom_de":null,"slug_ville":"peyrissac","departement_id":0,"code_postal":"19260","population":133,"superficie_km2":"610.27","latitude_centre":"45.5035","longitude_centre":"1.6932","distance_km":2.78},{"id":0,"code_insee":"19262","nom_standard":"Soudaine-Lavinadière","nom_a":null,"nom_de":null,"slug_ville":"soudaine-lavinadiere","departement_id":0,"code_postal":"19370","population":143,"superficie_km2":"2221.95","latitude_centre":"45.5426","longitude_centre":"1.7243","distance_km":3.02},{"id":15045,"code_insee":"19131","nom_standard":"Meilhards","nom_a":null,"nom_de":null,"slug_ville":"meilhards","departement_id":0,"code_postal":"19510","population":545,"superficie_km2":"4520.55","latitude_centre":"45.5489","longitude_centre":"1.6358","distance_km":4.87},{"id":14942,"code_insee":"19001","nom_standard":"Affieux","nom_a":null,"nom_de":null,"slug_ville":"affieux","departement_id":0,"code_postal":"19260","population":385,"superficie_km2":"3067.09","latitude_centre":"45.5111","longitude_centre":"1.7619","distance_km":5.84},{"id":15036,"code_insee":"19118","nom_standard":"Le Lonzac","nom_a":null,"nom_de":null,"slug_ville":"le-lonzac","departement_id":0,"code_postal":"19470","population":823,"superficie_km2":"3663.56","latitude_centre":"45.4705","longitude_centre":"1.7274","distance_km":7.04},{"id":15003,"code_insee":"19079","nom_standard":"Eyburie","nom_a":null,"nom_de":null,"slug_ville":"eyburie","departement_id":0,"code_postal":"19140","population":486,"superficie_km2":"2964.09","latitude_centre":"45.4686","longitude_centre":"1.6443","distance_km":7.6},{"id":0,"code_insee":"19036","nom_standard":"Chamberet","nom_a":null,"nom_de":null,"slug_ville":"chamberet","departement_id":0,"code_postal":"19370","population":1433,"superficie_km2":"7051.56","latitude_centre":"45.6038","longitude_centre":"1.7177","distance_km":8.62},{"id":15023,"code_insee":"19104","nom_standard":"Lamongerie","nom_a":null,"nom_de":null,"slug_ville":"lamongerie","departement_id":0,"code_postal":"19510","population":124,"superficie_km2":"1220.56","latitude_centre":"45.5384","longitude_centre":"1.5789","distance_km":8.82},{"id":14990,"code_insee":"19060","nom_standard":"Condat-sur-Ganaveix","nom_a":null,"nom_de":null,"slug_ville":"condat-sur-ganaveix","departement_id":0,"code_postal":"19140","population":643,"superficie_km2":"3776.50","latitude_centre":"45.481","longitude_centre":"1.5981","distance_km":8.97},{"id":0,"code_insee":"19269","nom_standard":"Treignac","nom_a":null,"nom_de":null,"slug_ville":"treignac","departement_id":0,"code_postal":"19260","population":1256,"superficie_km2":"3815.49","latitude_centre":"45.5534","longitude_centre":"1.803","distance_km":9.14},{"id":0,"code_insee":"87193","nom_standard":"Surdoux","nom_a":null,"nom_de":null,"slug_ville":"surdoux","departement_id":0,"code_postal":"87130","population":59,"superficie_km2":"390.21","latitude_centre":"45.6048","longitude_centre":"1.6429","distance_km":9.28},{"id":15039,"code_insee":"19122","nom_standard":"Madranges","nom_a":null,"nom_de":null,"slug_ville":"madranges","departement_id":0,"code_postal":"19470","population":166,"superficie_km2":"1309.80","latitude_centre":"45.4633","longitude_centre":"1.8016","distance_km":11.25},{"id":0,"code_insee":"87147","nom_standard":"Saint-Gilles-les-Forêts","nom_a":null,"nom_de":null,"slug_ville":"saint-gilles-les-forets","departement_id":0,"code_postal":"87130","population":46,"superficie_km2":"844.33","latitude_centre":"45.6286","longitude_centre":"1.6682","distance_km":11.27},{"id":0,"code_insee":"19037","nom_standard":"Chamboulive","nom_a":null,"nom_de":null,"slug_ville":"chamboulive","departement_id":0,"code_postal":"19450","population":1155,"superficie_km2":"4721.55","latitude_centre":"45.4276","longitude_centre":"1.7159","distance_km":11.38},{"id":15074,"code_insee":"19166","nom_standard":"Pierrefitte","nom_a":null,"nom_de":null,"slug_ville":"pierrefitte","departement_id":0,"code_postal":"19450","population":93,"superficie_km2":"997.52","latitude_centre":"45.4297","longitude_centre":"1.6433","distance_km":11.6},{"id":0,"code_insee":"87051","nom_standard":"La Croisille-sur-Briance","nom_a":null,"nom_de":null,"slug_ville":"la-croisille-sur-briance","departement_id":0,"code_postal":"87130","population":728,"superficie_km2":"4413.17","latitude_centre":"45.6196","longitude_centre":"1.6011","distance_km":12.32},{"id":14957,"code_insee":"19020","nom_standard":"Beaumont","nom_a":null,"nom_de":null,"slug_ville":"beaumont","departement_id":0,"code_postal":"19390","population":114,"superficie_km2":"1112.90","latitude_centre":"45.4226","longitude_centre":"1.7904","distance_km":14.09},{"id":0,"code_insee":"87058","nom_standard":"Domps","nom_a":null,"nom_de":null,"slug_ville":"domps","departement_id":0,"code_postal":"87120","population":98,"superficie_km2":"1369.10","latitude_centre":"45.6558","longitude_centre":"1.7148","distance_km":14.27},{"id":0,"code_insee":"87194","nom_standard":"Sussac","nom_a":null,"nom_de":null,"slug_ville":"sussac","departement_id":0,"code_postal":"87130","population":372,"superficie_km2":"2550.16","latitude_centre":"45.6567","longitude_centre":"1.6532","distance_km":14.56},{"id":0,"code_insee":"19213","nom_standard":"Saint-Jal","nom_a":null,"nom_de":null,"slug_ville":"saint-jal","departement_id":0,"code_postal":"19700","population":594,"superficie_km2":"2686.01","latitude_centre":"45.3946","longitude_centre":"1.6529","distance_km":15.19}]}