{"ville":{"id":4239,"code_insee":"43163","nom_standard":"Riotord","nom_a":null,"nom_de":null,"slug_ville":"riotord","departement_id":644,"code_postal":"43220","population":1184,"superficie_km2":"52.00","latitude_centre":"45.2350006","longitude_centre":"4.4219999","dep_code":"43","dep_nom":"Haute-Loire","dep_slug":"haute-loire","reg_code":"01","reg_nom":"Auvergne-Rhône-Alpes","reg_slug":"auvergne-rhone-alpes"},"departement":{"code":"43","nom":"Haute-Loire","slug":"haute-loire"},"region":{"code":"01","nom":"Auvergne-Rhône-Alpes","slug":"auvergne-rhone-alpes"},"villes_proches":[{"id":4222,"code_insee":"43087","nom_standard":"Dunières","nom_a":null,"nom_de":null,"slug_ville":"dunieres","departement_id":644,"code_postal":"43220","population":2631,"superficie_km2":"35.00","latitude_centre":"45.2150002","longitude_centre":"4.3460002","distance_km":6.35},{"id":4119,"code_insee":"42139","nom_standard":"Marlhes","nom_a":null,"nom_de":null,"slug_ville":"marlhes","departement_id":643,"code_postal":"42660","population":1338,"superficie_km2":"33.00","latitude_centre":"45.2929993","longitude_centre":"4.3969998","distance_km":6.74},{"id":4252,"code_insee":"43223","nom_standard":"Saint-Romain-Lachalm","nom_a":null,"nom_de":null,"slug_ville":"saint-romain-lachalm","departement_id":644,"code_postal":"43620","population":1109,"superficie_km2":"20.00","latitude_centre":"45.2649994","longitude_centre":"4.3400002","distance_km":7.23},{"id":4187,"code_insee":"42287","nom_standard":"Saint-Sauveur-en-Rue","nom_a":null,"nom_de":null,"slug_ville":"saint-sauveur-en-rue","departement_id":643,"code_postal":"42220","population":1085,"superficie_km2":"31.00","latitude_centre":"45.2709999","longitude_centre":"4.5009999","distance_km":7.37},{"id":4234,"code_insee":"43141","nom_standard":"Montfaucon-en-Velay","nom_a":null,"nom_de":null,"slug_ville":"montfaucon-en-velay","departement_id":644,"code_postal":"43290","population":1143,"superficie_km2":"5.00","latitude_centre":"45.1839981","longitude_centre":"4.3230000","distance_km":9.61},{"id":4111,"code_insee":"42115","nom_standard":"Jonzieux","nom_a":null,"nom_de":null,"slug_ville":"jonzieux","departement_id":643,"code_postal":"42660","population":1228,"superficie_km2":"10.00","latitude_centre":"45.3199997","longitude_centre":"4.3620000","distance_km":10.55},{"id":4249,"code_insee":"43213","nom_standard":"Saint-Pal-de-Mons","nom_a":null,"nom_de":null,"slug_ville":"saint-pal-de-mons","departement_id":644,"code_postal":"43620","population":2291,"superficie_km2":"27.00","latitude_centre":"45.2420006","longitude_centre":"4.2830000","distance_km":10.91},{"id":4162,"code_insee":"42224","nom_standard":"Saint-Genest-Malifaux","nom_a":null,"nom_de":null,"slug_ville":"saint-genest-malifaux","departement_id":643,"code_postal":"42660","population":2917,"superficie_km2":"47.00","latitude_centre":"45.3470001","longitude_centre":"4.4310002","distance_km":12.47},{"id":567,"code_insee":"07342","nom_standard":"Villevocance","nom_a":null,"nom_de":null,"slug_ville":"villevocance","departement_id":607,"code_postal":"07690","population":1182,"superficie_km2":"10.00","latitude_centre":"45.2260017","longitude_centre":"4.5949998","distance_km":13.58},{"id":4241,"code_insee":"43177","nom_standard":"Saint-Didier-en-Velay","nom_a":null,"nom_de":null,"slug_ville":"saint-didier-en-velay","departement_id":644,"code_postal":"43140","population":3480,"superficie_km2":"26.00","latitude_centre":"45.3100014","longitude_centre":"4.2849998","distance_km":13.58},{"id":4081,"code_insee":"42023","nom_standard":"Bourg-Argental","nom_a":null,"nom_de":null,"slug_ville":"bourg-argental","departement_id":643,"code_postal":"42220","population":2949,"superficie_km2":"20.00","latitude_centre":"45.3040009","longitude_centre":"4.5660000","distance_km":13.63},{"id":4246,"code_insee":"43205","nom_standard":"Saint-Just-Malmont","nom_a":null,"nom_de":null,"slug_ville":"saint-just-malmont","departement_id":644,"code_postal":"43240","population":4217,"superficie_km2":"24.00","latitude_centre":"45.3460007","longitude_centre":"4.3220000","distance_km":14.61},{"id":4257,"code_insee":"43236","nom_standard":"La Séauve-sur-Semène","nom_a":null,"nom_de":null,"slug_ville":"la-seauve-sur-semene","departement_id":644,"code_postal":"43140","population":1481,"superficie_km2":"8.00","latitude_centre":"45.2949982","longitude_centre":"4.2500000","distance_km":15.02},{"id":4253,"code_insee":"43224","nom_standard":"Sainte-Sigolène","nom_a":null,"nom_de":null,"slug_ville":"sainte-sigolene","departement_id":644,"code_postal":"43600","population":6023,"superficie_km2":"31.00","latitude_centre":"45.2470017","longitude_centre":"4.2280002","distance_km":15.25},{"id":4227,"code_insee":"43114","nom_standard":"Lapte","nom_a":null,"nom_de":null,"slug_ville":"lapte","departement_id":644,"code_postal":"43200","population":1740,"superficie_km2":"31.00","latitude_centre":"45.1800003","longitude_centre":"4.2350001","distance_km":15.88},{"id":4259,"code_insee":"43244","nom_standard":"Tence","nom_a":null,"nom_de":null,"slug_ville":"tence","departement_id":644,"code_postal":"43190","population":3123,"superficie_km2":"52.00","latitude_centre":"45.1129990","longitude_centre":"4.3000002","distance_km":16.6},{"id":550,"code_insee":"07309","nom_standard":"Satillieu","nom_a":null,"nom_de":null,"slug_ville":"satillieu","departement_id":607,"code_postal":"07290","population":1500,"superficie_km2":"33.00","latitude_centre":"45.1419983","longitude_centre":"4.5879998","distance_km":16.62},{"id":4133,"code_insee":"42172","nom_standard":"Planfoy","nom_a":null,"nom_de":null,"slug_ville":"planfoy","departement_id":643,"code_postal":"42660","population":1070,"superficie_km2":"13.00","latitude_centre":"45.3860016","longitude_centre":"4.4310002","distance_km":16.81},{"id":528,"code_insee":"07205","nom_standard":"Saint-Alban-d'Ay","nom_a":null,"nom_de":null,"slug_ville":"saint-alban-d-ay","departement_id":607,"code_postal":"07790","population":1408,"superficie_km2":"24.00","latitude_centre":"45.1860008","longitude_centre":"4.6320000","distance_km":17.33},{"id":540,"code_insee":"07265","nom_standard":"Saint-Marcel-lès-Annonay","nom_a":null,"nom_de":null,"slug_ville":"saint-marcel-les-annonay","departement_id":607,"code_postal":"07100","population":1381,"superficie_km2":"17.00","latitude_centre":"45.2890015","longitude_centre":"4.6300001","distance_km":17.35}]}