{"ville":{"id":4816,"code_insee":"49377","nom_standard":"Rives-du-Loir-en-Anjou","nom_a":null,"nom_de":null,"slug_ville":"rives-du-loir-en-anjou","departement_id":650,"code_postal":"49140","population":5641,"superficie_km2":"29.00","latitude_centre":"47.5489998","longitude_centre":"-0.4470000","dep_code":"49","dep_nom":"Maine-et-Loire","dep_slug":"maine-et-loire","reg_code":"17","reg_nom":"Pays de la Loire","reg_slug":"pays-de-la-loire"},"departement":{"code":"49","nom":"Maine-et-Loire","slug":"maine-et-loire"},"region":{"code":"17","nom":"Pays de la Loire","slug":"pays-de-la-loire"},"villes_proches":[{"id":4791,"code_insee":"49323","nom_standard":"Verrières-en-Anjou","nom_a":null,"nom_de":null,"slug_ville":"verrieres-en-anjou","departement_id":650,"code_postal":"49480","population":7775,"superficie_km2":"22.00","latitude_centre":"47.5120010","longitude_centre":"-0.4760000","distance_km":4.65},{"id":4714,"code_insee":"49048","nom_standard":"Briollay","nom_a":null,"nom_de":null,"slug_ville":"briollay","departement_id":650,"code_postal":"49125","population":3151,"superficie_km2":"14.00","latitude_centre":"47.5760002","longitude_centre":"-0.4980000","distance_km":4.86},{"id":4734,"code_insee":"49129","nom_standard":"Écouflant","nom_a":null,"nom_de":null,"slug_ville":"ecouflant","departement_id":650,"code_postal":"49000","population":4475,"superficie_km2":"18.00","latitude_centre":"47.5289993","longitude_centre":"-0.5180000","distance_km":5.78},{"id":4729,"code_insee":"49110","nom_standard":"Corzé","nom_a":null,"nom_de":null,"slug_ville":"corze","departement_id":650,"code_postal":"49140","population":1954,"superficie_km2":"31.00","latitude_centre":"47.5419998","longitude_centre":"-0.3690000","distance_km":5.91},{"id":4764,"code_insee":"49241","nom_standard":"Le Plessis-Grammoire","nom_a":null,"nom_de":null,"slug_ville":"le-plessis-grammoire","departement_id":650,"code_postal":"49124","population":2622,"superficie_km2":"9.00","latitude_centre":"47.4920006","longitude_centre":"-0.4360000","distance_km":6.39},{"id":4799,"code_insee":"49339","nom_standard":"Soulaire-et-Bourg","nom_a":null,"nom_de":null,"slug_ville":"soulaire-et-bourg","departement_id":650,"code_postal":"49460","population":1489,"superficie_km2":"18.00","latitude_centre":"47.5800018","longitude_centre":"-0.5430000","distance_km":7.99},{"id":4803,"code_insee":"49347","nom_standard":"Tiercé","nom_a":null,"nom_de":null,"slug_ville":"tierce","departement_id":650,"code_postal":"49125","population":4487,"superficie_km2":"34.00","latitude_centre":"47.6250000","longitude_centre":"-0.4430000","distance_km":8.46},{"id":4775,"code_insee":"49267","nom_standard":"Saint-Barthélemy-d'Anjou","nom_a":null,"nom_de":null,"slug_ville":"saint-barthelemy-d-anjou","departement_id":650,"code_postal":"49124","population":9460,"superficie_km2":"15.00","latitude_centre":"47.4739990","longitude_centre":"-0.4860000","distance_km":8.84},{"id":4797,"code_insee":"49333","nom_standard":"Seiches-sur-le-Loir","nom_a":null,"nom_de":null,"slug_ville":"seiches-sur-le-loir","departement_id":650,"code_postal":"49140","population":2866,"superficie_km2":"29.00","latitude_centre":"47.6040001","longitude_centre":"-0.3590000","distance_km":9},{"id":4717,"code_insee":"49055","nom_standard":"Cantenay-Épinard","nom_a":null,"nom_de":null,"slug_ville":"cantenay-epinard","departement_id":650,"code_postal":"49460","population":2380,"superficie_km2":"17.00","latitude_centre":"47.5379982","longitude_centre":"-0.5660000","distance_km":9.02},{"id":4725,"code_insee":"49090","nom_standard":"Cheffes","nom_a":null,"nom_de":null,"slug_ville":"cheffes","departement_id":650,"code_postal":"49125","population":1015,"superficie_km2":"18.00","latitude_centre":"47.6250000","longitude_centre":"-0.5200000","distance_km":10.07},{"id":4805,"code_insee":"49353","nom_standard":"Trélazé","nom_a":null,"nom_de":null,"slug_ville":"trelaze","departement_id":650,"code_postal":"49800","population":15358,"superficie_km2":"12.00","latitude_centre":"47.4510002","longitude_centre":"-0.4740000","distance_km":11.08},{"id":4702,"code_insee":"49007","nom_standard":"Angers","nom_a":null,"nom_de":null,"slug_ville":"angers","departement_id":650,"code_postal":"49000","population":157175,"superficie_km2":"44.00","latitude_centre":"47.4770012","longitude_centre":"-0.5560000","distance_km":11.45},{"id":4736,"code_insee":"49135","nom_standard":"Feneu","nom_a":null,"nom_de":null,"slug_ville":"feneu","departement_id":650,"code_postal":"49460","population":2202,"superficie_km2":"26.00","latitude_centre":"47.5839996","longitude_centre":"-0.6010000","distance_km":12.19},{"id":4735,"code_insee":"49132","nom_standard":"Étriché","nom_a":null,"nom_de":null,"slug_ville":"etriche","departement_id":650,"code_postal":"49330","population":1541,"superficie_km2":"20.00","latitude_centre":"47.6599999","longitude_centre":"-0.4520000","distance_km":12.35},{"id":4703,"code_insee":"49015","nom_standard":"Avrillé","nom_a":null,"nom_de":null,"slug_ville":"avrille","departement_id":650,"code_postal":"49240","population":14938,"superficie_km2":"16.00","latitude_centre":"47.5060005","longitude_centre":"-0.6010000","distance_km":12.51},{"id":4755,"code_insee":"49214","nom_standard":"Montreuil-Juigné","nom_a":null,"nom_de":null,"slug_ville":"montreuil-juigne","departement_id":650,"code_postal":"49460","population":7842,"superficie_km2":"14.00","latitude_centre":"47.5410004","longitude_centre":"-0.6160000","distance_km":12.72},{"id":4766,"code_insee":"49246","nom_standard":"Les Ponts-de-Cé","nom_a":null,"nom_de":null,"slug_ville":"les-ponts-de-ce","departement_id":650,"code_postal":"49130","population":12725,"superficie_km2":"19.00","latitude_centre":"47.4269981","longitude_centre":"-0.5130000","distance_km":14.44},{"id":4743,"code_insee":"49174","nom_standard":"Huillé-Lézigné","nom_a":null,"nom_de":null,"slug_ville":"huille-lezigne","departement_id":650,"code_postal":"49430","population":1311,"superficie_km2":"9.00","latitude_centre":"47.6370010","longitude_centre":"-0.2930000","distance_km":15.14},{"id":4794,"code_insee":"49330","nom_standard":"Sceaux-d'Anjou","nom_a":null,"nom_de":null,"slug_ville":"sceaux-d-anjou","departement_id":650,"code_postal":"49330","population":1166,"superficie_km2":"17.00","latitude_centre":"47.6310005","longitude_centre":"-0.6100000","distance_km":15.25}]}