{"ville":{"id":11069,"code_insee":"03214","nom_standard":"Rocles","nom_a":null,"nom_de":null,"slug_ville":"rocles","departement_id":0,"code_postal":"03240","population":326,"superficie_km2":"2165.73","latitude_centre":"46.4418","longitude_centre":"3.0314","dep_code":"03","dep_nom":"Allier","dep_slug":"allier","reg_code":"84","reg_nom":"Auvergne-Rhône-Alpes","reg_slug":"auvergne-rhone-alpes"},"departement":{"code":"03","nom":"Allier","slug":"allier"},"region":{"code":"84","nom":"Auvergne-Rhône-Alpes","slug":"auvergne-rhone-alpes"},"villes_proches":[{"id":0,"code_insee":"03260","nom_standard":"Saint-Sornin","nom_a":null,"nom_de":null,"slug_ville":"saint-sornin","departement_id":0,"code_postal":"03240","population":220,"superficie_km2":"1950.64","latitude_centre":"46.4129","longitude_centre":"3.0083","distance_km":3.67},{"id":11047,"code_insee":"03183","nom_standard":"Le Montet","nom_a":null,"nom_de":null,"slug_ville":"le-montet","departement_id":0,"code_postal":"03240","population":472,"superficie_km2":"188.11","latitude_centre":"46.407","longitude_centre":"3.0532","distance_km":4.21},{"id":0,"code_insee":"03292","nom_standard":"Tronget","nom_a":null,"nom_de":null,"slug_ville":"tronget","departement_id":0,"code_postal":"03240","population":925,"superficie_km2":"3133.54","latitude_centre":"46.4232","longitude_centre":"3.0865","distance_km":4.7},{"id":0,"code_insee":"03238","nom_standard":"Saint-Hilaire","nom_a":null,"nom_de":null,"slug_ville":"saint-hilaire","departement_id":0,"code_postal":"03440","population":503,"superficie_km2":"2094.71","latitude_centre":"46.4835","longitude_centre":"3.0183","distance_km":4.74},{"id":10960,"code_insee":"03070","nom_standard":"Chavenon","nom_a":null,"nom_de":null,"slug_ville":"chavenon","departement_id":0,"code_postal":"03440","population":140,"superficie_km2":"1755.80","latitude_centre":"46.4218","longitude_centre":"2.9539","distance_km":6.34},{"id":0,"code_insee":"03046","nom_standard":"Buxières-les-Mines","nom_a":null,"nom_de":null,"slug_ville":"buxieres-les-mines","departement_id":0,"code_postal":"03440","population":994,"superficie_km2":"4771.83","latitude_centre":"46.4715","longitude_centre":"2.945","distance_km":7.4},{"id":10983,"code_insee":"03099","nom_standard":"Deux-Chaises","nom_a":null,"nom_de":null,"slug_ville":"deux-chaises","departement_id":0,"code_postal":"03240","population":377,"superficie_km2":"4134.42","latitude_centre":"46.3751","longitude_centre":"3.0385","distance_km":7.44},{"id":10959,"code_insee":"03069","nom_standard":"Châtillon","nom_a":null,"nom_de":null,"slug_ville":"chatillon","departement_id":0,"code_postal":"03210","population":317,"superficie_km2":"1285.34","latitude_centre":"46.4643","longitude_centre":"3.1228","distance_km":7.44},{"id":10997,"code_insee":"03122","nom_standard":"Gipcy","nom_a":null,"nom_de":null,"slug_ville":"gipcy","departement_id":0,"code_postal":"03210","population":235,"superficie_km2":"2756.09","latitude_centre":"46.5085","longitude_centre":"3.0496","distance_km":7.55},{"id":11059,"code_insee":"03202","nom_standard":"Noyant-d'Allier","nom_a":null,"nom_de":null,"slug_ville":"noyant-d-allier","departement_id":0,"code_postal":"03210","population":602,"superficie_km2":"2111.14","latitude_centre":"46.4783","longitude_centre":"3.1261","distance_km":8.31},{"id":10949,"code_insee":"03058","nom_standard":"Chappes","nom_a":null,"nom_de":null,"slug_ville":"chappes","departement_id":0,"code_postal":"03390","population":220,"superficie_km2":"1862.85","latitude_centre":"46.3831","longitude_centre":"2.9426","distance_km":9.43},{"id":11035,"code_insee":"03170","nom_standard":"Meillers","nom_a":null,"nom_de":null,"slug_ville":"meillers","departement_id":0,"code_postal":"03210","population":129,"superficie_km2":"2377.66","latitude_centre":"46.5172","longitude_centre":"3.1095","distance_km":10.3},{"id":10980,"code_insee":"03092","nom_standard":"Cressanges","nom_a":null,"nom_de":null,"slug_ville":"cressanges","departement_id":0,"code_postal":"03240","population":644,"superficie_km2":"4213.61","latitude_centre":"46.4493","longitude_centre":"3.1666","distance_km":10.39},{"id":0,"code_insee":"03218","nom_standard":"Saint-Aubin-le-Monial","nom_a":null,"nom_de":null,"slug_ville":"saint-aubin-le-monial","departement_id":0,"code_postal":"03160","population":262,"superficie_km2":"2194.32","latitude_centre":"46.5341","longitude_centre":"3.0063","distance_km":10.44},{"id":11052,"code_insee":"03191","nom_standard":"Murat","nom_a":null,"nom_de":null,"slug_ville":"murat","departement_id":0,"code_postal":"03390","population":264,"superficie_km2":"2029.60","latitude_centre":"46.414","longitude_centre":"2.8993","distance_km":10.59},{"id":0,"code_insee":"03270","nom_standard":"Sazeret","nom_a":null,"nom_de":null,"slug_ville":"sazeret","departement_id":0,"code_postal":"03390","population":140,"superficie_km2":"1808.77","latitude_centre":"46.3471","longitude_centre":"2.9719","distance_km":11.48},{"id":0,"code_insee":"03281","nom_standard":"Le Theil","nom_a":null,"nom_de":null,"slug_ville":"le-theil","departement_id":0,"code_postal":"03240","population":387,"superficie_km2":"2917.88","latitude_centre":"46.3538","longitude_centre":"3.1237","distance_km":12.08},{"id":0,"code_insee":"03319","nom_standard":"Voussac","nom_a":null,"nom_de":null,"slug_ville":"voussac","departement_id":0,"code_postal":"03140","population":494,"superficie_km2":"3490.13","latitude_centre":"46.3268","longitude_centre":"3.0769","distance_km":13.26},{"id":10915,"code_insee":"03012","nom_standard":"Autry-Issards","nom_a":null,"nom_de":null,"slug_ville":"autry-issards","departement_id":0,"code_postal":"03210","population":313,"superficie_km2":"1944.32","latitude_centre":"46.5444","longitude_centre":"3.1202","distance_km":13.28},{"id":0,"code_insee":"03243","nom_standard":"Saint-Marcel-en-Murat","nom_a":null,"nom_de":null,"slug_ville":"saint-marcel-en-murat","departement_id":0,"code_postal":"03390","population":128,"superficie_km2":"1694.12","latitude_centre":"46.3222","longitude_centre":"3.0044","distance_km":13.46}]}