{"ville":{"id":680,"code_insee":"10323","nom_standard":"Romilly-sur-Seine","nom_a":null,"nom_de":null,"slug_ville":"romilly-sur-seine","departement_id":610,"code_postal":"10100","population":14766,"superficie_km2":"25.00","latitude_centre":"48.5190010","longitude_centre":"3.7219999","dep_code":"10","dep_nom":"Aube","dep_slug":"aube","reg_code":"06","reg_nom":"Grand Est","reg_slug":"grand-est"},"departement":{"code":"10","nom":"Aube","slug":"aube"},"region":{"code":"06","nom":"Grand Est","slug":"grand-est"},"villes_proches":[{"id":4971,"code_insee":"51492","nom_standard":"Saint-Just-Sauvage","nom_a":null,"nom_de":null,"slug_ville":"saint-just-sauvage","departement_id":652,"code_postal":"51260","population":1396,"superficie_km2":"18.00","latitude_centre":"48.5480003","longitude_centre":"3.7720001","distance_km":4.89},{"id":669,"code_insee":"10220","nom_standard":"Maizières-la-Grande-Paroisse","nom_a":null,"nom_de":null,"slug_ville":"maizieres-la-grande-paroisse","departement_id":610,"code_postal":"10510","population":1513,"superficie_km2":"20.00","latitude_centre":"48.5040016","longitude_centre":"3.7890000","distance_km":5.21},{"id":677,"code_insee":"10298","nom_standard":"Pont-sur-Seine","nom_a":null,"nom_de":null,"slug_ville":"pont-sur-seine","departement_id":610,"code_postal":"10400","population":1156,"superficie_km2":"16.00","latitude_centre":"48.5089989","longitude_centre":"3.5969999","distance_km":9.27},{"id":670,"code_insee":"10224","nom_standard":"Marigny-le-Châtel","nom_a":null,"nom_de":null,"slug_ville":"marigny-le-chatel","departement_id":610,"code_postal":"10350","population":1756,"superficie_km2":"20.00","latitude_centre":"48.4020004","longitude_centre":"3.7210000","distance_km":13.01},{"id":671,"code_insee":"10233","nom_standard":"Méry-sur-Seine","nom_a":null,"nom_de":null,"slug_ville":"mery-sur-seine","departement_id":610,"code_postal":"10170","population":1465,"superficie_km2":"12.00","latitude_centre":"48.5089989","longitude_centre":"3.8989999","distance_km":13.09},{"id":696,"code_insee":"10420","nom_standard":"Villenauxe-la-Grande","nom_a":null,"nom_de":null,"slug_ville":"villenauxe-la-grande","departement_id":610,"code_postal":"10370","population":2645,"superficie_km2":"18.00","latitude_centre":"48.5950012","longitude_centre":"3.5480001","distance_km":15.34},{"id":673,"code_insee":"10268","nom_standard":"Nogent-sur-Seine","nom_a":null,"nom_de":null,"slug_ville":"nogent-sur-seine","departement_id":610,"code_postal":"10400","population":5809,"superficie_km2":"20.00","latitude_centre":"48.4959984","longitude_centre":"3.5000000","distance_km":16.55},{"id":690,"code_insee":"10368","nom_standard":"Savières","nom_a":null,"nom_de":null,"slug_ville":"savieres","departement_id":610,"code_postal":"10600","population":1050,"superficie_km2":"18.00","latitude_centre":"48.4059982","longitude_centre":"3.9349999","distance_km":20.11},{"id":692,"code_insee":"10382","nom_standard":"Traînel","nom_a":null,"nom_de":null,"slug_ville":"trainel","departement_id":610,"code_postal":"10400","population":1024,"superficie_km2":"20.00","latitude_centre":"48.4140015","longitude_centre":"3.4570000","distance_km":22.76},{"id":4976,"code_insee":"51535","nom_standard":"Sézanne","nom_a":null,"nom_de":null,"slug_ville":"sezanne","departement_id":652,"code_postal":"51120","population":4783,"superficie_km2":"23.00","latitude_centre":"48.7239990","longitude_centre":"3.7240000","distance_km":22.8},{"id":674,"code_insee":"10282","nom_standard":"Payns","nom_a":null,"nom_de":null,"slug_ville":"payns","departement_id":610,"code_postal":"10600","population":1384,"superficie_km2":"17.00","latitude_centre":"48.3750000","longitude_centre":"3.9579999","distance_km":23.65},{"id":4945,"code_insee":"51237","nom_standard":"Esternay","nom_a":null,"nom_de":null,"slug_ville":"esternay","departement_id":652,"code_postal":"51310","population":1808,"superficie_km2":"32.00","latitude_centre":"48.7260017","longitude_centre":"3.5760000","distance_km":25.4},{"id":8288,"code_insee":"77459","nom_standard":"Sourdun","nom_a":null,"nom_de":null,"slug_ville":"sourdun","departement_id":678,"code_postal":"77171","population":1517,"superficie_km2":"23.00","latitude_centre":"48.5369988","longitude_centre":"3.3629999","distance_km":26.51},{"id":685,"code_insee":"10349","nom_standard":"Saint-Lyé","nom_a":null,"nom_de":null,"slug_ville":"saint-lye","departement_id":610,"code_postal":"10180","population":2870,"superficie_km2":"33.00","latitude_centre":"48.3440018","longitude_centre":"3.9809999","distance_km":27.27},{"id":8311,"code_insee":"77519","nom_standard":"Villiers-Saint-Georges","nom_a":null,"nom_de":null,"slug_ville":"villiers-saint-georges","departement_id":678,"code_postal":"77560","population":1165,"superficie_km2":"33.00","latitude_centre":"48.6520004","longitude_centre":"3.4080000","distance_km":27.43},{"id":4936,"code_insee":"51165","nom_standard":"Connantre","nom_a":null,"nom_de":null,"slug_ville":"connantre","departement_id":652,"code_postal":"51230","population":1017,"superficie_km2":"28.00","latitude_centre":"48.7379990","longitude_centre":"3.9119999","distance_km":28.07},{"id":666,"code_insee":"10142","nom_standard":"Estissac","nom_a":null,"nom_de":null,"slug_ville":"estissac","departement_id":610,"code_postal":"10190","population":1830,"superficie_km2":"26.00","latitude_centre":"48.2560005","longitude_centre":"3.8110001","distance_km":29.97},{"id":653,"code_insee":"10030","nom_standard":"Barberey-Saint-Sulpice","nom_a":null,"nom_de":null,"slug_ville":"barberey-saint-sulpice","departement_id":610,"code_postal":"10600","population":1563,"superficie_km2":"10.00","latitude_centre":"48.3269997","longitude_centre":"4.0159998","distance_km":30.44},{"id":652,"code_insee":"10006","nom_standard":"Arcis-sur-Aube","nom_a":null,"nom_de":null,"slug_ville":"arcis-sur-aube","departement_id":610,"code_postal":"10700","population":2759,"superficie_km2":"9.00","latitude_centre":"48.5279999","longitude_centre":"4.1420002","distance_km":30.95},{"id":686,"code_insee":"10352","nom_standard":"Sainte-Maure","nom_a":null,"nom_de":null,"slug_ville":"sainte-maure","departement_id":610,"code_postal":"10150","population":1766,"superficie_km2":"21.00","latitude_centre":"48.3569984","longitude_centre":"4.0720000","distance_km":31.48}]}