{"ville":{"id":1159,"code_insee":"16286","nom_standard":"Rouillac","nom_a":null,"nom_de":null,"slug_ville":"rouillac","departement_id":616,"code_postal":"16170","population":2925,"superficie_km2":"29.00","latitude_centre":"45.7820015","longitude_centre":"-0.0740000","dep_code":"16","dep_nom":"Charente","dep_slug":"charente","reg_code":"15","reg_nom":"Nouvelle-Aquitaine","reg_slug":"nouvelle-aquitaine"},"departement":{"code":"16","nom":"Charente","slug":"charente"},"region":{"code":"15","nom":"Nouvelle-Aquitaine","slug":"nouvelle-aquitaine"},"villes_proches":[{"id":1110,"code_insee":"16019","nom_standard":"Asnières-sur-Nouère","nom_a":null,"nom_de":null,"slug_ville":"asnieres-sur-nouere","departement_id":616,"code_postal":"16290","population":1283,"superficie_km2":"21.00","latitude_centre":"45.7080002","longitude_centre":"0.0490000","distance_km":12.6},{"id":1141,"code_insee":"16167","nom_standard":"Jarnac","nom_a":null,"nom_de":null,"slug_ville":"jarnac","departement_id":616,"code_postal":"16200","population":4470,"superficie_km2":"12.00","latitude_centre":"45.6860008","longitude_centre":"-0.1650000","distance_km":12.8},{"id":1122,"code_insee":"16088","nom_standard":"Chassors","nom_a":null,"nom_de":null,"slug_ville":"chassors","departement_id":616,"code_postal":"16200","population":1086,"superficie_km2":"13.00","latitude_centre":"45.7099991","longitude_centre":"-0.2070000","distance_km":13.06},{"id":1108,"code_insee":"16005","nom_standard":"Aigre","nom_a":null,"nom_de":null,"slug_ville":"aigre","departement_id":616,"code_postal":"16140","population":1597,"superficie_km2":"7.00","latitude_centre":"45.8889999","longitude_centre":"0.0000000","distance_km":13.21},{"id":1139,"code_insee":"16163","nom_standard":"Hiersac","nom_a":null,"nom_de":null,"slug_ville":"hiersac","departement_id":616,"code_postal":"16290","population":1160,"superficie_km2":"7.00","latitude_centre":"45.6759987","longitude_centre":"0.0080000","distance_km":13.4},{"id":1137,"code_insee":"16153","nom_standard":"Mainxe-Gondeville","nom_a":null,"nom_de":null,"slug_ville":"mainxe-gondeville","departement_id":616,"code_postal":"16200","population":1174,"superficie_km2":"5.00","latitude_centre":"45.6679993","longitude_centre":"-0.1560000","distance_km":14.18},{"id":1168,"code_insee":"16348","nom_standard":"Saint-Saturnin","nom_a":null,"nom_de":null,"slug_ville":"saint-saturnin","departement_id":616,"code_postal":"16290","population":1281,"superficie_km2":"13.00","latitude_centre":"45.6679993","longitude_centre":"0.0400000","distance_km":15.46},{"id":1177,"code_insee":"16415","nom_standard":"Vindelle","nom_a":null,"nom_de":null,"slug_ville":"vindelle","departement_id":616,"code_postal":"16430","population":1062,"superficie_km2":"11.00","latitude_centre":"45.7210007","longitude_centre":"0.1080000","distance_km":15.67},{"id":1166,"code_insee":"16340","nom_standard":"Saint-Même-les-Carrières","nom_a":null,"nom_de":null,"slug_ville":"saint-meme-les-carrieres","departement_id":616,"code_postal":"16720","population":1024,"superficie_km2":"15.00","latitude_centre":"45.6450005","longitude_centre":"-0.1430000","distance_km":16.15},{"id":1176,"code_insee":"16393","nom_standard":"Vars","nom_a":null,"nom_de":null,"slug_ville":"vars","departement_id":616,"code_postal":"16330","population":2165,"superficie_km2":"28.00","latitude_centre":"45.7560005","longitude_centre":"0.1360000","distance_km":16.54},{"id":1154,"code_insee":"16243","nom_standard":"Nercillac","nom_a":null,"nom_de":null,"slug_ville":"nercillac","departement_id":616,"code_postal":"16200","population":1038,"superficie_km2":"16.00","latitude_centre":"45.7239990","longitude_centre":"-0.2710000","distance_km":16.59},{"id":1163,"code_insee":"16295","nom_standard":"Saint-Amant-de-Boixe","nom_a":null,"nom_de":null,"slug_ville":"saint-amant-de-boixe","departement_id":616,"code_postal":"16330","population":1314,"superficie_km2":"23.00","latitude_centre":"45.8019981","longitude_centre":"0.1400000","distance_km":16.74},{"id":1134,"code_insee":"16138","nom_standard":"Fléac","nom_a":null,"nom_de":null,"slug_ville":"fleac","departement_id":616,"code_postal":"16730","population":3842,"superficie_km2":"13.00","latitude_centre":"45.6759987","longitude_centre":"0.0880000","distance_km":17.24},{"id":1112,"code_insee":"16026","nom_standard":"Balzac","nom_a":null,"nom_de":null,"slug_ville":"balzac","departement_id":616,"code_postal":"16430","population":1378,"superficie_km2":"10.00","latitude_centre":"45.7130013","longitude_centre":"0.1340000","distance_km":17.87},{"id":1143,"code_insee":"16187","nom_standard":"Linars","nom_a":null,"nom_de":null,"slug_ville":"linars","departement_id":616,"code_postal":"16730","population":2096,"superficie_km2":"6.00","latitude_centre":"45.6539993","longitude_centre":"0.0740000","distance_km":18.29},{"id":1115,"code_insee":"16058","nom_standard":"Boutiers-Saint-Trojan","nom_a":null,"nom_de":null,"slug_ville":"boutiers-saint-trojan","departement_id":616,"code_postal":"16100","population":1399,"superficie_km2":"7.00","latitude_centre":"45.7109985","longitude_centre":"-0.2970000","distance_km":19.02},{"id":1169,"code_insee":"16358","nom_standard":"Saint-Yrieix-sur-Charente","nom_a":null,"nom_de":null,"slug_ville":"saint-yrieix-sur-charente","departement_id":616,"code_postal":"16710","population":7525,"superficie_km2":"15.00","latitude_centre":"45.6819992","longitude_centre":"0.1280000","distance_km":19.22},{"id":1172,"code_insee":"16370","nom_standard":"Sireuil","nom_a":null,"nom_de":null,"slug_ville":"sireuil","departement_id":616,"code_postal":"16440","population":1167,"superficie_km2":"10.00","latitude_centre":"45.6199989","longitude_centre":"0.0200000","distance_km":19.44},{"id":1155,"code_insee":"16244","nom_standard":"Nersac","nom_a":null,"nom_de":null,"slug_ville":"nersac","departement_id":616,"code_postal":"16440","population":2289,"superficie_km2":"9.00","latitude_centre":"45.6250000","longitude_centre":"0.0620000","distance_km":20.4},{"id":1136,"code_insee":"16150","nom_standard":"Gensac-la-Pallue","nom_a":null,"nom_de":null,"slug_ville":"gensac-la-pallue","departement_id":616,"code_postal":"16130","population":1601,"superficie_km2":"19.00","latitude_centre":"45.6570015","longitude_centre":"-0.2690000","distance_km":20.55}]}