{"ville":{"id":1161,"code_insee":"16291","nom_standard":"Ruelle-sur-Touvre","nom_a":null,"nom_de":null,"slug_ville":"ruelle-sur-touvre","departement_id":616,"code_postal":"16600","population":7356,"superficie_km2":"11.00","latitude_centre":"45.6839981","longitude_centre":"0.2310000","dep_code":"16","dep_nom":"Charente","dep_slug":"charente","reg_code":"15","reg_nom":"Nouvelle-Aquitaine","reg_slug":"nouvelle-aquitaine"},"departement":{"code":"16","nom":"Charente","slug":"charente"},"region":{"code":"15","nom":"Nouvelle-Aquitaine","slug":"nouvelle-aquitaine"},"villes_proches":[{"id":1145,"code_insee":"16199","nom_standard":"Magnac-sur-Touvre","nom_a":null,"nom_de":null,"slug_ville":"magnac-sur-touvre","departement_id":616,"code_postal":"16600","population":3248,"superficie_km2":"8.00","latitude_centre":"45.6559982","longitude_centre":"0.2360000","distance_km":3.14},{"id":1140,"code_insee":"16166","nom_standard":"L'Isle-d'Espagnac","nom_a":null,"nom_de":null,"slug_ville":"l-isle-d-espagnac","departement_id":616,"code_postal":"16340","population":5662,"superficie_km2":"6.00","latitude_centre":"45.6640015","longitude_centre":"0.1990000","distance_km":3.34},{"id":1175,"code_insee":"16385","nom_standard":"Touvre","nom_a":null,"nom_de":null,"slug_ville":"touvre","departement_id":616,"code_postal":"16600","population":1141,"superficie_km2":"9.00","latitude_centre":"45.6580010","longitude_centre":"0.2680000","distance_km":4.08},{"id":1120,"code_insee":"16078","nom_standard":"Champniers","nom_a":null,"nom_de":null,"slug_ville":"champniers","departement_id":616,"code_postal":"16430","population":5193,"superficie_km2":"45.00","latitude_centre":"45.7169991","longitude_centre":"0.1960000","distance_km":4.57},{"id":1151,"code_insee":"16232","nom_standard":"Mornac","nom_a":null,"nom_de":null,"slug_ville":"mornac","departement_id":616,"code_postal":"16600","population":2123,"superficie_km2":"23.00","latitude_centre":"45.6850014","longitude_centre":"0.2930000","distance_km":4.82},{"id":1138,"code_insee":"16154","nom_standard":"Gond-Pontouvre","nom_a":null,"nom_de":null,"slug_ville":"gond-pontouvre","departement_id":616,"code_postal":"16160","population":5950,"superficie_km2":"7.00","latitude_centre":"45.6800003","longitude_centre":"0.1660000","distance_km":5.07},{"id":1173,"code_insee":"16374","nom_standard":"Soyaux","nom_a":null,"nom_de":null,"slug_ville":"soyaux","departement_id":616,"code_postal":"16800","population":9995,"superficie_km2":"13.00","latitude_centre":"45.6399994","longitude_centre":"0.2070000","distance_km":5.24},{"id":1116,"code_insee":"16061","nom_standard":"Brie","nom_a":null,"nom_de":null,"slug_ville":"brie","departement_id":616,"code_postal":"16590","population":4188,"superficie_km2":"34.00","latitude_centre":"45.7340012","longitude_centre":"0.2670000","distance_km":6.22},{"id":1135,"code_insee":"16146","nom_standard":"Garat","nom_a":null,"nom_de":null,"slug_ville":"garat","departement_id":616,"code_postal":"16410","population":2118,"superficie_km2":"19.00","latitude_centre":"45.6259995","longitude_centre":"0.2670000","distance_km":7.03},{"id":1109,"code_insee":"16015","nom_standard":"Angoulême","nom_a":null,"nom_de":null,"slug_ville":"angouleme","departement_id":616,"code_postal":"16000","population":41086,"superficie_km2":"22.00","latitude_centre":"45.6469994","longitude_centre":"0.1450000","distance_km":7.85},{"id":1169,"code_insee":"16358","nom_standard":"Saint-Yrieix-sur-Charente","nom_a":null,"nom_de":null,"slug_ville":"saint-yrieix-sur-charente","departement_id":616,"code_postal":"16710","population":7525,"superficie_km2":"15.00","latitude_centre":"45.6819992","longitude_centre":"0.1280000","distance_km":8},{"id":1112,"code_insee":"16026","nom_standard":"Balzac","nom_a":null,"nom_de":null,"slug_ville":"balzac","departement_id":616,"code_postal":"16430","population":1378,"superficie_km2":"10.00","latitude_centre":"45.7130013","longitude_centre":"0.1340000","distance_km":8.19},{"id":1156,"code_insee":"16271","nom_standard":"Puymoyen","nom_a":null,"nom_de":null,"slug_ville":"puymoyen","departement_id":616,"code_postal":"16400","population":2388,"superficie_km2":"7.00","latitude_centre":"45.6160011","longitude_centre":"0.1730000","distance_km":8.8},{"id":1132,"code_insee":"16120","nom_standard":"Dirac","nom_a":null,"nom_de":null,"slug_ville":"dirac","departement_id":616,"code_postal":"16410","population":1519,"superficie_km2":"30.00","latitude_centre":"45.5989990","longitude_centre":"0.2420000","distance_km":9.49},{"id":1177,"code_insee":"16415","nom_standard":"Vindelle","nom_a":null,"nom_de":null,"slug_ville":"vindelle","departement_id":616,"code_postal":"16430","population":1062,"superficie_km2":"11.00","latitude_centre":"45.7210007","longitude_centre":"0.1080000","distance_km":10.4},{"id":1167,"code_insee":"16341","nom_standard":"Saint-Michel","nom_a":null,"nom_de":null,"slug_ville":"saint-michel","departement_id":616,"code_postal":"16470","population":3224,"superficie_km2":"2.00","latitude_centre":"45.6399994","longitude_centre":"0.1100000","distance_km":10.6},{"id":1176,"code_insee":"16393","nom_standard":"Vars","nom_a":null,"nom_de":null,"slug_ville":"vars","departement_id":616,"code_postal":"16330","population":2165,"superficie_km2":"28.00","latitude_centre":"45.7560005","longitude_centre":"0.1360000","distance_km":10.89},{"id":1134,"code_insee":"16138","nom_standard":"Fléac","nom_a":null,"nom_de":null,"slug_ville":"fleac","departement_id":616,"code_postal":"16730","population":3842,"superficie_km2":"13.00","latitude_centre":"45.6759987","longitude_centre":"0.0880000","distance_km":11.14},{"id":1125,"code_insee":"16093","nom_standard":"Chazelles","nom_a":null,"nom_de":null,"slug_ville":"chazelles","departement_id":616,"code_postal":"16380","population":1563,"superficie_km2":"26.00","latitude_centre":"45.6450005","longitude_centre":"0.3650000","distance_km":11.28},{"id":1178,"code_insee":"16418","nom_standard":"Vœuil-et-Giget","nom_a":null,"nom_de":null,"slug_ville":"voeuil-et-giget","departement_id":616,"code_postal":"16400","population":1567,"superficie_km2":"8.00","latitude_centre":"45.5929985","longitude_centre":"0.1590000","distance_km":11.56}]}