{"ville":{"id":33835,"code_insee":"84103","nom_standard":"Rustrel","nom_a":null,"nom_de":null,"slug_ville":"rustrel","departement_id":0,"code_postal":"84400","population":672,"superficie_km2":"2879.34","latitude_centre":"43.9315","longitude_centre":"5.4759","dep_code":"84","dep_nom":"Vaucluse","dep_slug":"vaucluse","reg_code":"93","reg_nom":"Provence-Alpes-Côte d'Azur","reg_slug":"provence-alpes-cote-d-azur"},"departement":{"code":"84","nom":"Vaucluse","slug":"vaucluse"},"region":{"code":"93","nom":"Provence-Alpes-Côte d'Azur","slug":"provence-alpes-cote-d-azur"},"villes_proches":[{"id":33812,"code_insee":"84048","nom_standard":"Gignac","nom_a":null,"nom_de":null,"slug_ville":"gignac","departement_id":0,"code_postal":"84400","population":73,"superficie_km2":"814.65","latitude_centre":"43.9283","longitude_centre":"5.526","distance_km":4.03},{"id":0,"code_insee":"84145","nom_standard":"Villars","nom_a":null,"nom_de":null,"slug_ville":"villars","departement_id":0,"code_postal":"84400","population":783,"superficie_km2":"3029.10","latitude_centre":"43.9573","longitude_centre":"5.434","distance_km":4.41},{"id":33806,"code_insee":"84032","nom_standard":"Caseneuve","nom_a":null,"nom_de":null,"slug_ville":"caseneuve","departement_id":0,"code_postal":"84750","population":527,"superficie_km2":"1809.47","latitude_centre":"43.8859","longitude_centre":"5.4833","distance_km":5.11},{"id":33817,"code_insee":"84060","nom_standard":"Lagarde-d'Apt","nom_a":null,"nom_de":null,"slug_ville":"lagarde-d-apt","departement_id":0,"code_postal":"84400","population":30,"superficie_km2":"2219.98","latitude_centre":"43.9842","longitude_centre":"5.4769","distance_km":5.86},{"id":0,"code_insee":"84144","nom_standard":"Viens","nom_a":null,"nom_de":null,"slug_ville":"viens","departement_id":0,"code_postal":"84750","population":626,"superficie_km2":"3515.76","latitude_centre":"43.9","longitude_centre":"5.5595","distance_km":7.56},{"id":0,"code_insee":"84105","nom_standard":"Saignon","nom_a":null,"nom_de":null,"slug_ville":"saignon","departement_id":0,"code_postal":"84400","population":912,"superficie_km2":"1978.46","latitude_centre":"43.868","longitude_centre":"5.4405","distance_km":7.61},{"id":0,"code_insee":"84112","nom_standard":"Saint-Martin-de-Castillon","nom_a":null,"nom_de":null,"slug_ville":"saint-martin-de-castillon","departement_id":0,"code_postal":"84750","population":689,"superficie_km2":"3836.92","latitude_centre":"43.8557","longitude_centre":"5.5141","distance_km":8.97},{"id":11253,"code_insee":"04142","nom_standard":"Oppedette","nom_a":null,"nom_de":null,"slug_ville":"oppedette","departement_id":0,"code_postal":"04110","population":43,"superficie_km2":"859.41","latitude_centre":"43.9304","longitude_centre":"5.5906","distance_km":9.19},{"id":0,"code_insee":"84003","nom_standard":"Apt","nom_a":null,"nom_de":null,"slug_ville":"apt","departement_id":0,"code_postal":"84400","population":10143,"superficie_km2":"4517.33","latitude_centre":"43.8815","longitude_centre":"5.3814","distance_km":9.39},{"id":0,"code_insee":"84107","nom_standard":"Saint-Christol","nom_a":null,"nom_de":null,"slug_ville":"saint-christol","departement_id":0,"code_postal":"84390","population":1409,"superficie_km2":"4642.95","latitude_centre":"44.0216","longitude_centre":"5.4923","distance_km":10.1},{"id":0,"code_insee":"84118","nom_standard":"Saint-Saturnin-lès-Apt","nom_a":null,"nom_de":null,"slug_ville":"saint-saturnin-les-apt","departement_id":0,"code_postal":"84490","population":3004,"superficie_km2":"7682.46","latitude_centre":"43.961","longitude_centre":"5.3566","distance_km":10.1},{"id":11300,"code_insee":"04208","nom_standard":"Simiane-la-Rotonde","nom_a":null,"nom_de":null,"slug_ville":"simiane-la-rotonde","departement_id":0,"code_postal":"04150","population":609,"superficie_km2":"6811.01","latitude_centre":"44.0047","longitude_centre":"5.5659","distance_km":10.87},{"id":33807,"code_insee":"84033","nom_standard":"Castellet-en-Luberon","nom_a":null,"nom_de":null,"slug_ville":"castellet-en-luberon","departement_id":0,"code_postal":"84400","population":113,"superficie_km2":"955.08","latitude_centre":"43.8336","longitude_centre":"5.4876","distance_km":10.93},{"id":0,"code_insee":"84047","nom_standard":"Gargas","nom_a":null,"nom_de":null,"slug_ville":"gargas","departement_id":0,"code_postal":"84400","population":3035,"superficie_km2":"1488.00","latitude_centre":"43.8939","longitude_centre":"5.3435","distance_km":11.4},{"id":11274,"code_insee":"04175","nom_standard":"Sainte-Croix-à-Lauze","nom_a":null,"nom_de":null,"slug_ville":"sainte-croix-a-lauze","departement_id":0,"code_postal":"04110","population":87,"superficie_km2":"868.84","latitude_centre":"43.9054","longitude_centre":"5.6152","distance_km":11.53},{"id":33795,"code_insee":"84006","nom_standard":"Auribeau","nom_a":null,"nom_de":null,"slug_ville":"auribeau","departement_id":0,"code_postal":"84400","population":68,"superficie_km2":"752.98","latitude_centre":"43.8275","longitude_centre":"5.4444","distance_km":11.84},{"id":0,"code_insee":"04045","nom_standard":"Céreste-en-Luberon","nom_a":null,"nom_de":null,"slug_ville":"cereste-en-luberon","departement_id":0,"code_postal":"04280","population":1219,"superficie_km2":"3260.42","latitude_centre":"43.853","longitude_centre":"5.5883","distance_km":12.54},{"id":0,"code_insee":"84128","nom_standard":"Sivergues","nom_a":null,"nom_de":null,"slug_ville":"sivergues","departement_id":0,"code_postal":"84400","population":39,"superficie_km2":"943.50","latitude_centre":"43.8231","longitude_centre":"5.418","distance_km":12.92},{"id":11243,"code_insee":"04132","nom_standard":"Montsalier","nom_a":null,"nom_de":null,"slug_ville":"montsalier","departement_id":0,"code_postal":"04150","population":167,"superficie_km2":"2395.64","latitude_centre":"44.0232","longitude_centre":"5.5896","distance_km":13.67},{"id":33805,"code_insee":"84024","nom_standard":"Cabrières-d'Aigues","nom_a":null,"nom_de":null,"slug_ville":"cabrieres-d-aigues","departement_id":0,"code_postal":"84240","population":946,"superficie_km2":"1891.54","latitude_centre":"43.7882","longitude_centre":"5.4891","distance_km":15.97}]}