{"ville":{"id":13148,"code_insee":"11330","nom_standard":"Rustiques","nom_a":null,"nom_de":null,"slug_ville":"rustiques","departement_id":0,"code_postal":"11800","population":538,"superficie_km2":"657.83","latitude_centre":"43.2174","longitude_centre":"2.4784","dep_code":"11","dep_nom":"Aude","dep_slug":"aude","reg_code":"76","reg_nom":"Occitanie","reg_slug":"occitanie"},"departement":{"code":"11","nom":"Aude","slug":"aude"},"region":{"code":"76","nom":"Occitanie","slug":"occitanie"},"villes_proches":[{"id":0,"code_insee":"11397","nom_standard":"Trèbes","nom_a":null,"nom_de":null,"slug_ville":"trebes","departement_id":0,"code_postal":"11800","population":5361,"superficie_km2":"1791.02","latitude_centre":"43.209","longitude_centre":"2.4653","distance_km":1.41},{"id":12899,"code_insee":"11023","nom_standard":"Badens","nom_a":null,"nom_de":null,"slug_ville":"badens","departement_id":0,"code_postal":"11800","population":749,"superficie_km2":"993.00","latitude_centre":"43.2229","longitude_centre":"2.5073","distance_km":2.42},{"id":12916,"code_insee":"11043","nom_standard":"Bouilhonnac","nom_a":null,"nom_de":null,"slug_ville":"bouilhonnac","departement_id":0,"code_postal":"11800","population":226,"superficie_km2":"611.66","latitude_centre":"43.233","longitude_centre":"2.4462","distance_km":3.13},{"id":13004,"code_insee":"11151","nom_standard":"Fontiès-d'Aude","nom_a":null,"nom_de":null,"slug_ville":"fonties-d-aude","departement_id":0,"code_postal":"11800","population":560,"superficie_km2":"612.69","latitude_centre":"43.188","longitude_centre":"2.4561","distance_km":3.74},{"id":13057,"code_insee":"11215","nom_standard":"Malves-en-Minervois","nom_a":null,"nom_de":null,"slug_ville":"malves-en-minervois","departement_id":0,"code_postal":"11600","population":888,"superficie_km2":"506.69","latitude_centre":"43.2496","longitude_centre":"2.4512","distance_km":4.2},{"id":12999,"code_insee":"11146","nom_standard":"Floure","nom_a":null,"nom_de":null,"slug_ville":"floure","departement_id":0,"code_postal":"11800","population":405,"superficie_km2":"463.74","latitude_centre":"43.176","longitude_centre":"2.484","distance_km":4.63},{"id":12883,"code_insee":"11001","nom_standard":"Aigues-Vives","nom_a":null,"nom_de":null,"slug_ville":"aigues-vives","departement_id":0,"code_postal":"11800","population":532,"superficie_km2":"1051.61","latitude_centre":"43.234","longitude_centre":"2.5359","distance_km":5.01},{"id":0,"code_insee":"11422","nom_standard":"Villedubert","nom_a":null,"nom_de":null,"slug_ville":"villedubert","departement_id":0,"code_postal":"11800","population":349,"superficie_km2":"321.94","latitude_centre":"43.2306","longitude_centre":"2.4175","distance_km":5.15},{"id":13061,"code_insee":"11220","nom_standard":"Marseillette","nom_a":null,"nom_de":null,"slug_ville":"marseillette","departement_id":0,"code_postal":"11800","population":697,"superficie_km2":"1117.07","latitude_centre":"43.2119","longitude_centre":"2.5438","distance_km":5.34},{"id":12903,"code_insee":"11027","nom_standard":"Barbaira","nom_a":null,"nom_de":null,"slug_ville":"barbaira","departement_id":0,"code_postal":"11800","population":805,"superficie_km2":"936.15","latitude_centre":"43.1774","longitude_centre":"2.5162","distance_km":5.4},{"id":12912,"code_insee":"11037","nom_standard":"Berriac","nom_a":null,"nom_de":null,"slug_ville":"berriac","departement_id":0,"code_postal":"11000","population":979,"superficie_km2":"268.69","latitude_centre":"43.2153","longitude_centre":"2.4053","distance_km":5.93},{"id":12901,"code_insee":"11025","nom_standard":"Bagnoles","nom_a":null,"nom_de":null,"slug_ville":"bagnoles","departement_id":0,"code_postal":"11600","population":300,"superficie_km2":"578.62","latitude_centre":"43.2668","longitude_centre":"2.4466","distance_km":6.07},{"id":0,"code_insee":"11410","nom_standard":"Villalier","nom_a":null,"nom_de":null,"slug_ville":"villalier","departement_id":0,"code_postal":"11600","population":972,"superficie_km2":"804.23","latitude_centre":"43.2507","longitude_centre":"2.4191","distance_km":6.07},{"id":13088,"code_insee":"11248","nom_standard":"Montirat","nom_a":null,"nom_de":null,"slug_ville":"montirat","departement_id":0,"code_postal":"11800","population":70,"superficie_km2":"1309.67","latitude_centre":"43.1703","longitude_centre":"2.4372","distance_km":6.21},{"id":13045,"code_insee":"11198","nom_standard":"Laure-Minervois","nom_a":null,"nom_de":null,"slug_ville":"laure-minervois","departement_id":0,"code_postal":"11800","population":1061,"superficie_km2":"4069.43","latitude_centre":"43.2678","longitude_centre":"2.5144","distance_km":6.32},{"id":0,"code_insee":"11342","nom_standard":"Saint-Frichoux","nom_a":null,"nom_de":null,"slug_ville":"saint-frichoux","departement_id":0,"code_postal":"11800","population":224,"superficie_km2":"650.18","latitude_centre":"43.245","longitude_centre":"2.5561","distance_km":7.0},{"id":13095,"code_insee":"11257","nom_standard":"Monze","nom_a":null,"nom_de":null,"slug_ville":"monze","departement_id":0,"code_postal":"11800","population":243,"superficie_km2":"1463.22","latitude_centre":"43.1539","longitude_centre":"2.4624","distance_km":7.18},{"id":0,"code_insee":"11068","nom_standard":"Capendu","nom_a":null,"nom_de":null,"slug_ville":"capendu","departement_id":0,"code_postal":"11700","population":1453,"superficie_km2":"1592.17","latitude_centre":"43.1821","longitude_centre":"2.5554","distance_km":7.37},{"id":0,"code_insee":"11416","nom_standard":"Villarzel-Cabardès","nom_a":null,"nom_de":null,"slug_ville":"villarzel-cabardes","departement_id":0,"code_postal":"11600","population":276,"superficie_km2":"659.18","latitude_centre":"43.2844","longitude_centre":"2.4686","distance_km":7.49},{"id":0,"code_insee":"11426","nom_standard":"Villegly","nom_a":null,"nom_de":null,"slug_ville":"villegly","departement_id":0,"code_postal":"11600","population":1247,"superficie_km2":"1029.20","latitude_centre":"43.2929","longitude_centre":"2.4369","distance_km":9.04}]}