{"ville":{"id":16532,"code_insee":"24460","nom_standard":"Saint-Méard-de-Drône","nom_a":null,"nom_de":null,"slug_ville":"saint-meard-de-drone","departement_id":0,"code_postal":"24600","population":485,"superficie_km2":"897.53","latitude_centre":"45.2532","longitude_centre":"0.4039","dep_code":"24","dep_nom":"Dordogne","dep_slug":"dordogne","reg_code":"75","reg_nom":"Nouvelle-Aquitaine","reg_slug":"nouvelle-aquitaine"},"departement":{"code":"24","nom":"Dordogne","slug":"dordogne"},"region":{"code":"75","nom":"Nouvelle-Aquitaine","slug":"nouvelle-aquitaine"},"villes_proches":[{"id":0,"code_insee":"24508","nom_standard":"Saint-Victor","nom_a":null,"nom_de":null,"slug_ville":"saint-victor","departement_id":0,"code_postal":"24350","population":213,"superficie_km2":"508.98","latitude_centre":"45.2652","longitude_centre":"0.4404","distance_km":3.15},{"id":0,"code_insee":"24477","nom_standard":"Saint-Pardoux-de-Drône","nom_a":null,"nom_de":null,"slug_ville":"saint-pardoux-de-drone","departement_id":0,"code_postal":"24600","population":191,"superficie_km2":"867.62","latitude_centre":"45.2195","longitude_centre":"0.418","distance_km":3.91},{"id":16278,"code_insee":"24090","nom_standard":"Celles","nom_a":null,"nom_de":null,"slug_ville":"celles","departement_id":0,"code_postal":"24600","population":619,"superficie_km2":"2798.08","latitude_centre":"45.2896","longitude_centre":"0.4129","distance_km":4.11},{"id":16321,"code_insee":"24154","nom_standard":"Douchapt","nom_a":null,"nom_de":null,"slug_ville":"douchapt","departement_id":0,"code_postal":"24350","population":353,"superficie_km2":"849.42","latitude_centre":"45.2296","longitude_centre":"0.4451","distance_km":4.16},{"id":0,"code_insee":"24586","nom_standard":"Villetoureix","nom_a":null,"nom_de":null,"slug_ville":"villetoureix","departement_id":0,"code_postal":"24600","population":891,"superficie_km2":"1620.42","latitude_centre":"45.2736","longitude_centre":"0.3592","distance_km":4.17},{"id":0,"code_insee":"24352","nom_standard":"Ribérac","nom_a":null,"nom_de":null,"slug_ville":"riberac","departement_id":0,"code_postal":"24600","population":3734,"superficie_km2":"2270.59","latitude_centre":"45.2428","longitude_centre":"0.3402","distance_km":5.12},{"id":16527,"code_insee":"24455","nom_standard":"Saint-Martin-de-Ribérac","nom_a":null,"nom_de":null,"slug_ville":"saint-martin-de-riberac","departement_id":0,"code_postal":"24600","population":723,"superficie_km2":"1639.44","latitude_centre":"45.2195","longitude_centre":"0.3578","distance_km":5.2},{"id":0,"code_insee":"24504","nom_standard":"Saint-Sulpice-de-Roumagnac","nom_a":null,"nom_de":null,"slug_ville":"saint-sulpice-de-roumagnac","departement_id":0,"code_postal":"24600","population":279,"superficie_km2":"1084.10","latitude_centre":"45.2002","longitude_centre":"0.3979","distance_km":5.91},{"id":0,"code_insee":"24529","nom_standard":"Segonzac","nom_a":null,"nom_de":null,"slug_ville":"segonzac","departement_id":0,"code_postal":"24600","population":204,"superficie_km2":"393.53","latitude_centre":"45.2022","longitude_centre":"0.4389","distance_km":6.3},{"id":16412,"code_insee":"24286","nom_standard":"Montagrier","nom_a":null,"nom_de":null,"slug_ville":"montagrier","departement_id":0,"code_postal":"24350","population":511,"superficie_km2":"1434.61","latitude_centre":"45.2731","longitude_centre":"0.4857","distance_km":6.77},{"id":16240,"code_insee":"24038","nom_standard":"Bertric-Burée","nom_a":null,"nom_de":null,"slug_ville":"bertric-buree","departement_id":0,"code_postal":"24320","population":445,"superficie_km2":"1671.04","latitude_centre":"45.3086","longitude_centre":"0.354","distance_km":7.29},{"id":0,"code_insee":"24553","nom_standard":"Tocane-Saint-Apre","nom_a":null,"nom_de":null,"slug_ville":"tocane-saint-apre","departement_id":0,"code_postal":"24350","population":1742,"superficie_km2":"3304.15","latitude_centre":"45.2359","longitude_centre":"0.5005","distance_km":7.8},{"id":16352,"code_insee":"24200","nom_standard":"Grand-Brassac","nom_a":null,"nom_de":null,"slug_ville":"grand-brassac","departement_id":0,"code_postal":"24350","population":555,"superficie_km2":"3179.91","latitude_centre":"45.298","longitude_centre":"0.4841","distance_km":8.01},{"id":16312,"code_insee":"24141","nom_standard":"Coutures","nom_a":null,"nom_de":null,"slug_ville":"coutures","departement_id":0,"code_postal":"24320","population":199,"superficie_km2":"857.90","latitude_centre":"45.3269","longitude_centre":"0.3979","distance_km":8.21},{"id":0,"code_insee":"24537","nom_standard":"Siorac-de-Ribérac","nom_a":null,"nom_de":null,"slug_ville":"siorac-de-riberac","departement_id":0,"code_postal":"24600","population":258,"superficie_km2":"2103.49","latitude_centre":"45.1831","longitude_centre":"0.348","distance_km":8.94},{"id":16285,"code_insee":"24104","nom_standard":"Chantérac","nom_a":null,"nom_de":null,"slug_ville":"chanterac","departement_id":0,"code_postal":"24190","population":652,"superficie_km2":"1903.73","latitude_centre":"45.1711","longitude_centre":"0.4349","distance_km":9.45},{"id":16254,"code_insee":"24057","nom_standard":"Bourg-des-Maisons","nom_a":null,"nom_de":null,"slug_ville":"bourg-des-maisons","departement_id":0,"code_postal":"24320","population":73,"superficie_km2":"909.81","latitude_centre":"45.3369","longitude_centre":"0.4356","distance_km":9.63},{"id":0,"code_insee":"24509","nom_standard":"Saint-Vincent-de-Connezac","nom_a":null,"nom_de":null,"slug_ville":"saint-vincent-de-connezac","departement_id":0,"code_postal":"24190","population":664,"superficie_km2":"1489.06","latitude_centre":"45.1638","longitude_centre":"0.3951","distance_km":9.96},{"id":16286,"code_insee":"24105","nom_standard":"Chapdeuil","nom_a":null,"nom_de":null,"slug_ville":"chapdeuil","departement_id":0,"code_postal":"24320","population":142,"superficie_km2":"757.57","latitude_centre":"45.3406","longitude_centre":"0.4638","distance_km":10.79},{"id":0,"code_insee":"24573","nom_standard":"Verteillac","nom_a":null,"nom_de":null,"slug_ville":"verteillac","departement_id":0,"code_postal":"24320","population":547,"superficie_km2":"1852.20","latitude_centre":"45.3492","longitude_centre":"0.3776","distance_km":10.87}]}