{"ville":{"id":34210,"code_insee":"87151","nom_standard":"Saint-Jean-Ligoure","nom_a":null,"nom_de":null,"slug_ville":"saint-jean-ligoure","departement_id":0,"code_postal":"87260","population":505,"superficie_km2":"3058.57","latitude_centre":"45.7004","longitude_centre":"1.3088","dep_code":"87","dep_nom":"Haute-Vienne","dep_slug":"haute-vienne","reg_code":"75","reg_nom":"Nouvelle-Aquitaine","reg_slug":"nouvelle-aquitaine"},"departement":{"code":"87","nom":"Haute-Vienne","slug":"haute-vienne"},"region":{"code":"75","nom":"Nouvelle-Aquitaine","slug":"nouvelle-aquitaine"},"villes_proches":[{"id":0,"code_insee":"87119","nom_standard":"Pierre-Buffière","nom_a":null,"nom_de":null,"slug_ville":"pierre-buffiere","departement_id":0,"code_postal":"87260","population":1139,"superficie_km2":"581.30","latitude_centre":"45.6909","longitude_centre":"1.3588","distance_km":4.02},{"id":0,"code_insee":"87148","nom_standard":"Saint-Hilaire-Bonneval","nom_a":null,"nom_de":null,"slug_ville":"saint-hilaire-bonneval","departement_id":0,"code_postal":"87260","population":1010,"superficie_km2":"2892.54","latitude_centre":"45.7207","longitude_centre":"1.3705","distance_km":5.3},{"id":0,"code_insee":"87169","nom_standard":"Saint-Maurice-les-Brousses","nom_a":null,"nom_de":null,"slug_ville":"saint-maurice-les-brousses","departement_id":0,"code_postal":"87800","population":1041,"superficie_km2":"1093.68","latitude_centre":"45.701","longitude_centre":"1.2368","distance_km":5.59},{"id":0,"code_insee":"87205","nom_standard":"Le Vigen","nom_a":null,"nom_de":null,"slug_ville":"le-vigen","departement_id":0,"code_postal":"87110","population":2310,"superficie_km2":"2976.49","latitude_centre":"45.7438","longitude_centre":"1.2713","distance_km":5.64},{"id":0,"code_insee":"87019","nom_standard":"Boisseuil","nom_a":null,"nom_de":null,"slug_ville":"boisseuil","departement_id":0,"code_postal":"87220","population":3010,"superficie_km2":"1930.87","latitude_centre":"45.7604","longitude_centre":"1.3273","distance_km":6.82},{"id":34164,"code_insee":"87077","nom_standard":"Janailhac","nom_a":null,"nom_de":null,"slug_ville":"janailhac","departement_id":0,"code_postal":"87800","population":524,"superficie_km2":"1863.66","latitude_centre":"45.654","longitude_centre":"1.2374","distance_km":7.58},{"id":0,"code_insee":"87192","nom_standard":"Solignac","nom_a":null,"nom_de":null,"slug_ville":"solignac","departement_id":0,"code_postal":"87110","population":1552,"superficie_km2":"1679.84","latitude_centre":"45.7603","longitude_centre":"1.255","distance_km":7.86},{"id":0,"code_insee":"87081","nom_standard":"Jourgnac","nom_a":null,"nom_de":null,"slug_ville":"jourgnac","departement_id":0,"code_postal":"87800","population":1109,"superficie_km2":"1446.05","latitude_centre":"45.7355","longitude_centre":"1.2187","distance_km":8.01},{"id":0,"code_insee":"87203","nom_standard":"Vicq-sur-Breuilh","nom_a":null,"nom_de":null,"slug_ville":"vicq-sur-breuilh","departement_id":0,"code_postal":"87260","population":1313,"superficie_km2":"5140.69","latitude_centre":"45.6484","longitude_centre":"1.3918","distance_km":8.66},{"id":34205,"code_insee":"87144","nom_standard":"Saint-Genest-sur-Roselle","nom_a":null,"nom_de":null,"slug_ville":"saint-genest-sur-roselle","departement_id":0,"code_postal":"87260","population":540,"superficie_km2":"1952.30","latitude_centre":"45.7","longitude_centre":"1.4207","distance_km":8.69},{"id":0,"code_insee":"87176","nom_standard":"Saint-Priest-Ligoure","nom_a":null,"nom_de":null,"slug_ville":"saint-priest-ligoure","departement_id":0,"code_postal":"87800","population":692,"superficie_km2":"4176.11","latitude_centre":"45.6207","longitude_centre":"1.2989","distance_km":8.9},{"id":0,"code_insee":"87063","nom_standard":"Eyjeaux","nom_a":null,"nom_de":null,"slug_ville":"eyjeaux","departement_id":0,"code_postal":"87220","population":1345,"superficie_km2":"2440.67","latitude_centre":"45.7753","longitude_centre":"1.3774","distance_km":9.88},{"id":0,"code_insee":"87021","nom_standard":"Bosmie-l'Aiguille","nom_a":null,"nom_de":null,"slug_ville":"bosmie-l-aiguille","departement_id":0,"code_postal":"87110","population":2667,"superficie_km2":"805.83","latitude_centre":"45.7634","longitude_centre":"1.2047","distance_km":10.69},{"id":0,"code_insee":"87106","nom_standard":"Nexon","nom_a":null,"nom_de":null,"slug_ville":"nexon","departement_id":0,"code_postal":"87800","population":2548,"superficie_km2":"4100.75","latitude_centre":"45.6648","longitude_centre":"1.1779","distance_km":10.91},{"id":0,"code_insee":"87048","nom_standard":"Condat-sur-Vienne","nom_a":null,"nom_de":null,"slug_ville":"condat-sur-vienne","departement_id":0,"code_postal":"87920","population":5281,"superficie_km2":"1529.85","latitude_centre":"45.7846","longitude_centre":"1.2339","distance_km":11.02},{"id":0,"code_insee":"87065","nom_standard":"Feytiat","nom_a":null,"nom_de":null,"slug_ville":"feytiat","departement_id":0,"code_postal":"87220","population":6176,"superficie_km2":"2423.70","latitude_centre":"45.8093","longitude_centre":"1.3265","distance_km":12.19},{"id":34192,"code_insee":"87127","nom_standard":"La Roche-l'Abeille","nom_a":null,"nom_de":null,"slug_ville":"la-roche-l-abeille","departement_id":0,"code_postal":"87800","population":590,"superficie_km2":"3671.48","latitude_centre":"45.5967","longitude_centre":"1.2558","distance_km":12.24},{"id":34142,"code_insee":"87039","nom_standard":"Château-Chervix","nom_a":null,"nom_de":null,"slug_ville":"chateau-chervix","departement_id":0,"code_postal":"87380","population":781,"superficie_km2":"5145.87","latitude_centre":"45.5927","longitude_centre":"1.3693","distance_km":12.87},{"id":0,"code_insee":"87005","nom_standard":"Aureil","nom_a":null,"nom_de":null,"slug_ville":"aureil","departement_id":0,"code_postal":"87220","population":1045,"superficie_km2":"1017.17","latitude_centre":"45.8088","longitude_centre":"1.4033","distance_km":14.11},{"id":0,"code_insee":"87114","nom_standard":"Panazol","nom_a":null,"nom_de":null,"slug_ville":"panazol","departement_id":0,"code_postal":"87350","population":11342,"superficie_km2":"2010.38","latitude_centre":"45.8447","longitude_centre":"1.3227","distance_km":16.08}]}