{"ville":{"id":4171,"code_insee":"42246","nom_standard":"Saint-Julien-Molin-Molette","nom_a":null,"nom_de":null,"slug_ville":"saint-julien-molin-molette","departement_id":643,"code_postal":"42220","population":1137,"superficie_km2":"9.00","latitude_centre":"45.3219986","longitude_centre":"4.6180000","dep_code":"42","dep_nom":"Loire","dep_slug":"loire","reg_code":"01","reg_nom":"Auvergne-Rhône-Alpes","reg_slug":"auvergne-rhone-alpes"},"departement":{"code":"42","nom":"Loire","slug":"loire"},"region":{"code":"01","nom":"Auvergne-Rhône-Alpes","slug":"auvergne-rhone-alpes"},"villes_proches":[{"id":540,"code_insee":"07265","nom_standard":"Saint-Marcel-lès-Annonay","nom_a":null,"nom_de":null,"slug_ville":"saint-marcel-les-annonay","departement_id":607,"code_postal":"07100","population":1381,"superficie_km2":"17.00","latitude_centre":"45.2890015","longitude_centre":"4.6300001","distance_km":3.79},{"id":4081,"code_insee":"42023","nom_standard":"Bourg-Argental","nom_a":null,"nom_de":null,"slug_ville":"bourg-argental","departement_id":643,"code_postal":"42220","population":2949,"superficie_km2":"20.00","latitude_centre":"45.3040009","longitude_centre":"4.5660000","distance_km":4.53},{"id":486,"code_insee":"07041","nom_standard":"Boulieu-lès-Annonay","nom_a":null,"nom_de":null,"slug_ville":"boulieu-les-annonay","departement_id":607,"code_postal":"07100","population":2294,"superficie_km2":"10.00","latitude_centre":"45.2669983","longitude_centre":"4.6450000","distance_km":6.47},{"id":530,"code_insee":"07225","nom_standard":"Saint-Clair","nom_a":null,"nom_de":null,"slug_ville":"saint-clair","departement_id":607,"code_postal":"07430","population":1236,"superficie_km2":"6.00","latitude_centre":"45.2760010","longitude_centre":"4.6869998","distance_km":7.44},{"id":4117,"code_insee":"42129","nom_standard":"Maclas","nom_a":null,"nom_de":null,"slug_ville":"maclas","departement_id":643,"code_postal":"42520","population":1834,"superficie_km2":"10.00","latitude_centre":"45.3610001","longitude_centre":"4.6980000","distance_km":7.61},{"id":498,"code_insee":"07089","nom_standard":"Félines","nom_a":null,"nom_de":null,"slug_ville":"felines","departement_id":607,"code_postal":"07340","population":1814,"superficie_km2":"14.00","latitude_centre":"45.3160019","longitude_centre":"4.7270002","distance_km":8.55},{"id":481,"code_insee":"07010","nom_standard":"Annonay","nom_a":null,"nom_de":null,"slug_ville":"annonay","departement_id":607,"code_postal":"07100","population":16873,"superficie_km2":"21.00","latitude_centre":"45.2459984","longitude_centre":"4.6500001","distance_km":8.81},{"id":517,"code_insee":"07172","nom_standard":"Peaugres","nom_a":null,"nom_de":null,"slug_ville":"peaugres","departement_id":607,"code_postal":"07340","population":2320,"superficie_km2":"14.00","latitude_centre":"45.2859993","longitude_centre":"4.7280002","distance_km":9.49},{"id":495,"code_insee":"07078","nom_standard":"Davézieux","nom_a":null,"nom_de":null,"slug_ville":"davezieux","departement_id":607,"code_postal":"07430","population":3158,"superficie_km2":"6.00","latitude_centre":"45.2550011","longitude_centre":"4.7020001","distance_km":9.93},{"id":4187,"code_insee":"42287","nom_standard":"Saint-Sauveur-en-Rue","nom_a":null,"nom_de":null,"slug_ville":"saint-sauveur-en-rue","departement_id":643,"code_postal":"42220","population":1085,"superficie_km2":"31.00","latitude_centre":"45.2709999","longitude_centre":"4.5009999","distance_km":10.77},{"id":567,"code_insee":"07342","nom_standard":"Villevocance","nom_a":null,"nom_de":null,"slug_ville":"villevocance","departement_id":607,"code_postal":"07690","population":1182,"superficie_km2":"10.00","latitude_centre":"45.2260017","longitude_centre":"4.5949998","distance_km":10.83},{"id":551,"code_insee":"07313","nom_standard":"Serrières","nom_a":null,"nom_de":null,"slug_ville":"serrieres","departement_id":607,"code_postal":"07340","population":1096,"superficie_km2":"4.00","latitude_centre":"45.3139992","longitude_centre":"4.7630000","distance_km":11.37},{"id":4181,"code_insee":"42272","nom_standard":"Saint-Pierre-de-Bœuf","nom_a":null,"nom_de":null,"slug_ville":"saint-pierre-de-boeuf","departement_id":643,"code_postal":"42520","population":1698,"superficie_km2":"6.00","latitude_centre":"45.3769989","longitude_centre":"4.7440000","distance_km":11.59},{"id":4130,"code_insee":"42168","nom_standard":"Pélussin","nom_a":null,"nom_de":null,"slug_ville":"pelussin","departement_id":643,"code_postal":"42410","population":3682,"superficie_km2":"32.00","latitude_centre":"45.4230003","longitude_centre":"4.6599998","distance_km":11.7},{"id":523,"code_insee":"07197","nom_standard":"Roiffieux","nom_a":null,"nom_de":null,"slug_ville":"roiffieux","departement_id":607,"code_postal":"07100","population":2704,"superficie_km2":"19.00","latitude_centre":"45.2190018","longitude_centre":"4.6490002","distance_km":11.71},{"id":4197,"code_insee":"42322","nom_standard":"La Valla-en-Gier","nom_a":null,"nom_de":null,"slug_ville":"la-valla-en-gier","departement_id":643,"code_postal":"42131","population":1092,"superficie_km2":"35.00","latitude_centre":"45.4049988","longitude_centre":"4.5250001","distance_km":11.75},{"id":531,"code_insee":"07227","nom_standard":"Saint-Cyr","nom_a":null,"nom_de":null,"slug_ville":"saint-cyr","departement_id":607,"code_postal":"07430","population":1426,"superficie_km2":"8.00","latitude_centre":"45.2490006","longitude_centre":"4.7360001","distance_km":12.29},{"id":3736,"code_insee":"38349","nom_standard":"Sablons","nom_a":null,"nom_de":null,"slug_ville":"sablons","departement_id":639,"code_postal":"38550","population":2290,"superficie_km2":"10.00","latitude_centre":"45.3209992","longitude_centre":"4.7849998","distance_km":13.06},{"id":4092,"code_insee":"42056","nom_standard":"Chavanay","nom_a":null,"nom_de":null,"slug_ville":"chavanay","departement_id":643,"code_postal":"42410","population":2889,"superficie_km2":"15.00","latitude_centre":"45.4189987","longitude_centre":"4.7290001","distance_km":13.84},{"id":562,"code_insee":"07337","nom_standard":"Vernosc-lès-Annonay","nom_a":null,"nom_de":null,"slug_ville":"vernosc-les-annonay","departement_id":607,"code_postal":"07430","population":2648,"superficie_km2":"17.00","latitude_centre":"45.2220001","longitude_centre":"4.7240000","distance_km":13.87}]}