{"ville":{"id":20288,"code_insee":"36184","nom_standard":"Saint-Chartier","nom_a":null,"nom_de":null,"slug_ville":"saint-chartier","departement_id":0,"code_postal":"36400","population":458,"superficie_km2":"2803.29","latitude_centre":"46.6722","longitude_centre":"1.98","dep_code":"36","dep_nom":"Indre","dep_slug":"indre","reg_code":"24","reg_nom":"Centre-Val de Loire","reg_slug":"centre-val-de-loire"},"departement":{"code":"36","nom":"Indre","slug":"indre"},"region":{"code":"24","nom":"Centre-Val de Loire","slug":"centre-val-de-loire"},"villes_proches":[{"id":20253,"code_insee":"36143","nom_standard":"Nohant-Vic","nom_a":null,"nom_de":null,"slug_ville":"nohant-vic","departement_id":0,"code_postal":"36400","population":450,"superficie_km2":"2148.20","latitude_centre":"46.6504","longitude_centre":"1.9617","distance_km":2.8},{"id":0,"code_insee":"36234","nom_standard":"Verneuil-sur-Igneraie","nom_a":null,"nom_de":null,"slug_ville":"verneuil-sur-igneraie","departement_id":0,"code_postal":"36400","population":344,"superficie_km2":"994.14","latitude_centre":"46.6591","longitude_centre":"2.0137","distance_km":2.96},{"id":20242,"code_insee":"36129","nom_standard":"Montipouret","nom_a":null,"nom_de":null,"slug_ville":"montipouret","departement_id":0,"code_postal":"36230","population":616,"superficie_km2":"2785.69","latitude_centre":"46.6578","longitude_centre":"1.9093","distance_km":5.63},{"id":20285,"code_insee":"36180","nom_standard":"Saint-Août","nom_a":null,"nom_de":null,"slug_ville":"saint-aout","departement_id":0,"code_postal":"36120","population":811,"superficie_km2":"5422.57","latitude_centre":"46.7278","longitude_centre":"1.9669","distance_km":6.26},{"id":20150,"code_insee":"36017","nom_standard":"La Berthenoux","nom_a":null,"nom_de":null,"slug_ville":"la-berthenoux","departement_id":0,"code_postal":"36400","population":361,"superficie_km2":"4010.54","latitude_centre":"46.7001","longitude_centre":"2.0531","distance_km":6.38},{"id":20218,"code_insee":"36100","nom_standard":"Lourouer-Saint-Laurent","nom_a":null,"nom_de":null,"slug_ville":"lourouer-saint-laurent","departement_id":0,"code_postal":"36400","population":245,"superficie_km2":"1127.50","latitude_centre":"46.6176","longitude_centre":"2.0211","distance_km":6.83},{"id":0,"code_insee":"36221","nom_standard":"Thevet-Saint-Julien","nom_a":null,"nom_de":null,"slug_ville":"thevet-saint-julien","departement_id":0,"code_postal":"36400","population":396,"superficie_km2":"3126.57","latitude_centre":"46.6333","longitude_centre":"2.0678","distance_km":7.98},{"id":20235,"code_insee":"36120","nom_standard":"Mers-sur-Indre","nom_a":null,"nom_de":null,"slug_ville":"mers-sur-indre","departement_id":0,"code_postal":"36230","population":659,"superficie_km2":"2582.06","latitude_centre":"46.6689","longitude_centre":"1.8693","distance_km":8.45},{"id":0,"code_insee":"36127","nom_standard":"Montgivray","nom_a":null,"nom_de":null,"slug_ville":"montgivray","departement_id":0,"code_postal":"36400","population":1546,"superficie_km2":"2573.52","latitude_centre":"46.5955","longitude_centre":"1.9746","distance_km":8.54},{"id":20210,"code_insee":"36091","nom_standard":"Lacs","nom_a":null,"nom_de":null,"slug_ville":"lacs","departement_id":0,"code_postal":"36400","population":653,"superficie_km2":"1354.19","latitude_centre":"46.5923","longitude_centre":"2.0347","distance_km":9.82},{"id":0,"code_insee":"36210","nom_standard":"Sarzay","nom_a":null,"nom_de":null,"slug_ville":"sarzay","departement_id":0,"code_postal":"36230","population":301,"superficie_km2":"1866.64","latitude_centre":"46.5965","longitude_centre":"1.9096","distance_km":9.99},{"id":0,"code_insee":"36186","nom_standard":"Saint-Christophe-en-Boucherie","nom_a":null,"nom_de":null,"slug_ville":"saint-christophe-en-boucherie","departement_id":0,"code_postal":"36400","population":232,"superficie_km2":"2698.44","latitude_centre":"46.6786","longitude_centre":"2.1196","distance_km":10.67},{"id":0,"code_insee":"36211","nom_standard":"Sassierges-Saint-Germain","nom_a":null,"nom_de":null,"slug_ville":"sassierges-saint-germain","departement_id":0,"code_postal":"36120","population":448,"superficie_km2":"3189.59","latitude_centre":"46.7466","longitude_centre":"1.8908","distance_km":10.71},{"id":0,"code_insee":"36046","nom_standard":"La Châtre","nom_a":null,"nom_de":null,"slug_ville":"la-chatre","departement_id":0,"code_postal":"36400","population":4037,"superficie_km2":"607.87","latitude_centre":"46.5709","longitude_centre":"1.9928","distance_km":11.31},{"id":20151,"code_insee":"36019","nom_standard":"Bommiers","nom_a":null,"nom_de":null,"slug_ville":"bommiers","departement_id":0,"code_postal":"36120","population":321,"superficie_km2":"2855.55","latitude_centre":"46.7765","longitude_centre":"2.0013","distance_km":11.71},{"id":20139,"code_insee":"36003","nom_standard":"Ambrault","nom_a":null,"nom_de":null,"slug_ville":"ambrault","departement_id":0,"code_postal":"36120","population":884,"superficie_km2":"2556.37","latitude_centre":"46.786","longitude_centre":"1.9496","distance_km":12.86},{"id":20243,"code_insee":"36130","nom_standard":"Montlevicq","nom_a":null,"nom_de":null,"slug_ville":"montlevicq","departement_id":0,"code_postal":"36400","population":106,"superficie_km2":"1893.86","latitude_centre":"46.5809","longitude_centre":"2.0834","distance_km":12.86},{"id":0,"code_insee":"36109","nom_standard":"Le Magny","nom_a":null,"nom_de":null,"slug_ville":"le-magny","departement_id":0,"code_postal":"36400","population":1003,"superficie_km2":"1795.68","latitude_centre":"46.5566","longitude_centre":"1.955","distance_km":13.0},{"id":20275,"code_insee":"36169","nom_standard":"Pruniers","nom_a":null,"nom_de":null,"slug_ville":"pruniers","departement_id":0,"code_postal":"36120","population":496,"superficie_km2":"4917.52","latitude_centre":"46.7824","longitude_centre":"2.0636","distance_km":13.81},{"id":20157,"code_insee":"36025","nom_standard":"Briantes","nom_a":null,"nom_de":null,"slug_ville":"briantes","departement_id":0,"code_postal":"36400","population":589,"superficie_km2":"2330.17","latitude_centre":"46.5511","longitude_centre":"2.0274","distance_km":13.94}]}