{"ville":{"id":9120,"code_insee":"85234","nom_standard":"Saint-Jean-de-Monts","nom_a":null,"nom_de":null,"slug_ville":"saint-jean-de-monts","departement_id":686,"code_postal":"85160","population":8741,"superficie_km2":"62.00","latitude_centre":"46.8019981","longitude_centre":"-2.0480001","dep_code":"85","dep_nom":"Vendée","dep_slug":"vendee","reg_code":"17","reg_nom":"Pays de la Loire","reg_slug":"pays-de-la-loire"},"departement":{"code":"85","nom":"Vendée","slug":"vendee"},"region":{"code":"17","nom":"Pays de la Loire","slug":"pays-de-la-loire"},"villes_proches":[{"id":9087,"code_insee":"85172","nom_standard":"Le Perrier","nom_a":null,"nom_de":null,"slug_ville":"le-perrier","departement_id":686,"code_postal":"85300","population":2140,"superficie_km2":"33.00","latitude_centre":"46.8199997","longitude_centre":"-1.9790000","distance_km":5.62},{"id":9085,"code_insee":"85164","nom_standard":"Notre-Dame-de-Monts","nom_a":null,"nom_de":null,"slug_ville":"notre-dame-de-monts","departement_id":686,"code_postal":"85690","population":2160,"superficie_km2":"21.00","latitude_centre":"46.8419991","longitude_centre":"-2.1090000","distance_km":6.43},{"id":8989,"code_insee":"85012","nom_standard":"La Barre-de-Monts","nom_a":null,"nom_de":null,"slug_ville":"la-barre-de-monts","departement_id":686,"code_postal":"85550","population":2298,"superficie_km2":"27.00","latitude_centre":"46.8720017","longitude_centre":"-2.0999999","distance_km":8.73},{"id":9117,"code_insee":"85226","nom_standard":"Saint-Hilaire-de-Riez","nom_a":null,"nom_de":null,"slug_ville":"saint-hilaire-de-riez","departement_id":686,"code_postal":"85270","population":12682,"superficie_km2":"49.00","latitude_centre":"46.7430000","longitude_centre":"-1.9640000","distance_km":9.16},{"id":9138,"code_insee":"85273","nom_standard":"Saint-Urbain","nom_a":null,"nom_de":null,"slug_ville":"saint-urbain","departement_id":686,"code_postal":"85230","population":1939,"superficie_km2":"17.00","latitude_centre":"46.8820000","longitude_centre":"-2.0160000","distance_km":9.22},{"id":9143,"code_insee":"85284","nom_standard":"Soullans","nom_a":null,"nom_de":null,"slug_ville":"soullans","departement_id":686,"code_postal":"85300","population":4416,"superficie_km2":"41.00","latitude_centre":"46.7949982","longitude_centre":"-1.9140000","distance_km":10.23},{"id":9141,"code_insee":"85280","nom_standard":"Sallertaine","nom_a":null,"nom_de":null,"slug_ville":"sallertaine","departement_id":686,"code_postal":"85300","population":3265,"superficie_km2":"50.00","latitude_centre":"46.8660011","longitude_centre":"-1.9490000","distance_km":10.36},{"id":8995,"code_insee":"85018","nom_standard":"Beauvoir-sur-Mer","nom_a":null,"nom_de":null,"slug_ville":"beauvoir-sur-mer","departement_id":686,"code_postal":"85230","population":3876,"superficie_km2":"35.00","latitude_centre":"46.9090004","longitude_centre":"-2.0639999","distance_km":11.96},{"id":9095,"code_insee":"85189","nom_standard":"Notre-Dame-de-Riez","nom_a":null,"nom_de":null,"slug_ville":"notre-dame-de-riez","departement_id":686,"code_postal":"85270","population":2161,"superficie_km2":"15.00","latitude_centre":"46.7529984","longitude_centre":"-1.8940001","distance_km":12.93},{"id":9114,"code_insee":"85221","nom_standard":"Saint-Gervais","nom_a":null,"nom_de":null,"slug_ville":"saint-gervais","departement_id":686,"code_postal":"85230","population":2723,"superficie_km2":"43.00","latitude_centre":"46.9290009","longitude_centre":"-1.9809999","distance_km":15.01},{"id":9035,"code_insee":"85088","nom_standard":"Le Fenouiller","nom_a":null,"nom_de":null,"slug_ville":"le-fenouiller","departement_id":686,"code_postal":"85800","population":4937,"superficie_km2":"18.00","latitude_centre":"46.7159996","longitude_centre":"-1.8920000","distance_km":15.25},{"id":9021,"code_insee":"85062","nom_standard":"Châteauneuf","nom_a":null,"nom_de":null,"slug_ville":"chateauneuf","departement_id":686,"code_postal":"85710","population":1134,"superficie_km2":"16.00","latitude_centre":"46.9169998","longitude_centre":"-1.9260000","distance_km":15.8},{"id":9115,"code_insee":"85222","nom_standard":"Saint-Gilles-Croix-de-Vie","nom_a":null,"nom_de":null,"slug_ville":"saint-gilles-croix-de-vie","departement_id":686,"code_postal":"85800","population":7974,"superficie_km2":"10.00","latitude_centre":"46.6899986","longitude_centre":"-1.9200000","distance_km":15.82},{"id":9013,"code_insee":"85047","nom_standard":"Challans","nom_a":null,"nom_de":null,"slug_ville":"challans","departement_id":686,"code_postal":"85300","population":22494,"superficie_km2":"65.00","latitude_centre":"46.8349991","longitude_centre":"-1.8400000","distance_km":16.25},{"id":8988,"code_insee":"85011","nom_standard":"Barbâtre","nom_a":null,"nom_de":null,"slug_ville":"barbatre","departement_id":686,"code_postal":"85630","population":1755,"superficie_km2":"13.00","latitude_centre":"46.9339981","longitude_centre":"-2.1670001","distance_km":17.24},{"id":9025,"code_insee":"85071","nom_standard":"Commequiers","nom_a":null,"nom_de":null,"slug_ville":"commequiers","departement_id":686,"code_postal":"85220","population":3669,"superficie_km2":"41.00","latitude_centre":"46.7680016","longitude_centre":"-1.8250000","distance_km":17.39},{"id":9046,"code_insee":"85100","nom_standard":"Givrand","nom_a":null,"nom_de":null,"slug_ville":"givrand","departement_id":686,"code_postal":"85800","population":2227,"superficie_km2":"12.00","latitude_centre":"46.6819992","longitude_centre":"-1.8789999","distance_km":18.54},{"id":9123,"code_insee":"85239","nom_standard":"Saint-Maixent-sur-Vie","nom_a":null,"nom_de":null,"slug_ville":"saint-maixent-sur-vie","departement_id":686,"code_postal":"85220","population":1161,"superficie_km2":"11.00","latitude_centre":"46.7330017","longitude_centre":"-1.8260000","distance_km":18.57},{"id":9137,"code_insee":"85268","nom_standard":"Saint-Révérend","nom_a":null,"nom_de":null,"slug_ville":"saint-reverend","departement_id":686,"code_postal":"85220","population":1496,"superficie_km2":"16.00","latitude_centre":"46.7060013","longitude_centre":"-1.8320000","distance_km":19.61},{"id":9000,"code_insee":"85024","nom_standard":"Bois-de-Céné","nom_a":null,"nom_de":null,"slug_ville":"bois-de-cene","departement_id":686,"code_postal":"85710","population":2159,"superficie_km2":"43.00","latitude_centre":"46.9480019","longitude_centre":"-1.8970000","distance_km":19.88}]}