{"ville":{"id":19447,"code_insee":"32368","nom_standard":"Sainte-Christie","nom_a":null,"nom_de":null,"slug_ville":"sainte-christie","departement_id":0,"code_postal":"32390","population":541,"superficie_km2":"996.64","latitude_centre":"43.7549","longitude_centre":"0.632","dep_code":"32","dep_nom":"Gers","dep_slug":"gers","reg_code":"76","reg_nom":"Occitanie","reg_slug":"occitanie"},"departement":{"code":"32","nom":"Gers","slug":"gers"},"region":{"code":"76","nom":"Occitanie","slug":"occitanie"},"villes_proches":[{"id":19346,"code_insee":"32258","nom_standard":"Mirepoix","nom_a":null,"nom_de":null,"slug_ville":"mirepoix","departement_id":0,"code_postal":"32390","population":227,"superficie_km2":"733.97","latitude_centre":"43.7443","longitude_centre":"0.6706","distance_km":3.32},{"id":19426,"code_insee":"32347","nom_standard":"Roquefort","nom_a":null,"nom_de":null,"slug_ville":"roquefort","departement_id":0,"code_postal":"32390","population":275,"superficie_km2":"732.37","latitude_centre":"43.7569","longitude_centre":"0.5867","distance_km":3.65},{"id":19244,"code_insee":"32142","nom_standard":"Gavarret-sur-Aulouste","nom_a":null,"nom_de":null,"slug_ville":"gavarret-sur-aulouste","departement_id":0,"code_postal":"32390","population":136,"superficie_km2":"836.28","latitude_centre":"43.7806","longitude_centre":"0.6614","distance_km":3.71},{"id":0,"code_insee":"32331","nom_standard":"Preignan","nom_a":null,"nom_de":null,"slug_ville":"preignan","departement_id":0,"code_postal":"32810","population":1202,"superficie_km2":"1078.83","latitude_centre":"43.7205","longitude_centre":"0.6361","distance_km":3.84},{"id":19417,"code_insee":"32337","nom_standard":"Puységur","nom_a":null,"nom_de":null,"slug_ville":"puysegur","departement_id":0,"code_postal":"32390","population":72,"superficie_km2":"731.64","latitude_centre":"43.7751","longitude_centre":"0.5875","distance_km":4.22},{"id":19372,"code_insee":"32286","nom_standard":"Montestruc-sur-Gers","nom_a":null,"nom_de":null,"slug_ville":"montestruc-sur-gers","departement_id":0,"code_postal":"32390","population":695,"superficie_km2":"1637.62","latitude_centre":"43.7941","longitude_centre":"0.632","distance_km":4.36},{"id":19427,"code_insee":"32348","nom_standard":"Roquelaure","nom_a":null,"nom_de":null,"slug_ville":"roquelaure","departement_id":0,"code_postal":"32810","population":563,"superficie_km2":"2145.38","latitude_centre":"43.7234","longitude_centre":"0.5904","distance_km":4.84},{"id":19344,"code_insee":"32255","nom_standard":"Miramont-Latour","nom_a":null,"nom_de":null,"slug_ville":"miramont-latour","departement_id":0,"code_postal":"32390","population":141,"superficie_km2":"978.24","latitude_centre":"43.7763","longitude_centre":"0.6918","distance_km":5.36},{"id":0,"code_insee":"32453","nom_standard":"Tourrenquets","nom_a":null,"nom_de":null,"slug_ville":"tourrenquets","departement_id":0,"code_postal":"32390","population":99,"superficie_km2":"721.19","latitude_centre":"43.7486","longitude_centre":"0.7017","distance_km":5.64},{"id":19365,"code_insee":"32279","nom_standard":"Montaut-les-Créneaux","nom_a":null,"nom_de":null,"slug_ville":"montaut-les-creneaux","departement_id":0,"code_postal":"32810","population":697,"superficie_km2":"2655.60","latitude_centre":"43.7067","longitude_centre":"0.6652","distance_km":5.99},{"id":19399,"code_insee":"32316","nom_standard":"Peyrusse-Massas","nom_a":null,"nom_de":null,"slug_ville":"peyrusse-massas","departement_id":0,"code_postal":"32360","population":117,"superficie_km2":"659.30","latitude_centre":"43.7404","longitude_centre":"0.5573","distance_km":6.21},{"id":19341,"code_insee":"32251","nom_standard":"Mérens","nom_a":null,"nom_de":null,"slug_ville":"merens","departement_id":0,"code_postal":"32360","population":66,"superficie_km2":"421.05","latitude_centre":"43.7509","longitude_centre":"0.5521","distance_km":6.43},{"id":19279,"code_insee":"32184","nom_standard":"Lalanne","nom_a":null,"nom_de":null,"slug_ville":"lalanne","departement_id":0,"code_postal":"32500","population":134,"superficie_km2":"548.79","latitude_centre":"43.8063","longitude_centre":"0.6765","distance_km":6.74},{"id":19411,"code_insee":"32329","nom_standard":"Préchac","nom_a":null,"nom_de":null,"slug_ville":"prechac","departement_id":0,"code_postal":"32390","population":150,"superficie_km2":"1274.70","latitude_centre":"43.7939","longitude_centre":"0.5672","distance_km":6.77},{"id":19401,"code_insee":"32318","nom_standard":"Pis","nom_a":null,"nom_de":null,"slug_ville":"pis","departement_id":0,"code_postal":"32500","population":93,"superficie_km2":"542.44","latitude_centre":"43.7854","longitude_centre":"0.7081","distance_km":6.99},{"id":19196,"code_insee":"32089","nom_standard":"Castillon-Massas","nom_a":null,"nom_de":null,"slug_ville":"castillon-massas","departement_id":0,"code_postal":"32360","population":222,"superficie_km2":"979.42","latitude_centre":"43.7159","longitude_centre":"0.5431","distance_km":8.36},{"id":19207,"code_insee":"32101","nom_standard":"Céran","nom_a":null,"nom_de":null,"slug_ville":"ceran","departement_id":0,"code_postal":"32500","population":229,"superficie_km2":"1054.41","latitude_centre":"43.816","longitude_centre":"0.6981","distance_km":8.62},{"id":19302,"code_insee":"32207","nom_standard":"Leboulin","nom_a":null,"nom_de":null,"slug_ville":"leboulin","departement_id":0,"code_postal":"32810","population":346,"superficie_km2":"901.28","latitude_centre":"43.6728","longitude_centre":"0.6608","distance_km":9.42},{"id":0,"code_insee":"32132","nom_standard":"Fleurance","nom_a":null,"nom_de":null,"slug_ville":"fleurance","departement_id":0,"code_postal":"32500","population":6247,"superficie_km2":"4354.08","latitude_centre":"43.8432","longitude_centre":"0.6405","distance_km":9.84},{"id":0,"code_insee":"32405","nom_standard":"Sainte-Radegonde","nom_a":null,"nom_de":null,"slug_ville":"sainte-radegonde","departement_id":0,"code_postal":"32500","population":172,"superficie_km2":"987.62","latitude_centre":"43.8407","longitude_centre":"0.5867","distance_km":10.21}]}