{"ville":{"id":17301,"code_insee":"26310","nom_standard":"Saint-Laurent-d'Onay","nom_a":null,"nom_de":null,"slug_ville":"saint-laurent-d-onay","departement_id":0,"code_postal":"26350","population":158,"superficie_km2":"629.66","latitude_centre":"45.178","longitude_centre":"5.1153","dep_code":"26","dep_nom":"Drôme","dep_slug":"drome","reg_code":"84","reg_nom":"Auvergne-Rhône-Alpes","reg_slug":"auvergne-rhone-alpes"},"departement":{"code":"26","nom":"Drôme","slug":"drome"},"region":{"code":"84","nom":"Auvergne-Rhône-Alpes","slug":"auvergne-rhone-alpes"},"villes_proches":[{"id":0,"code_insee":"26319","nom_standard":"Saint-Michel-sur-Savasse","nom_a":null,"nom_de":null,"slug_ville":"saint-michel-sur-savasse","departement_id":0,"code_postal":"26750","population":579,"superficie_km2":"1145.36","latitude_centre":"45.1468","longitude_centre":"5.1196","distance_km":3.49},{"id":17136,"code_insee":"26068","nom_standard":"Le Chalon","nom_a":null,"nom_de":null,"slug_ville":"le-chalon","departement_id":0,"code_postal":"26350","population":200,"superficie_km2":"848.88","latitude_centre":"45.1541","longitude_centre":"5.0852","distance_km":3.55},{"id":17165,"code_insee":"26107","nom_standard":"Crépol","nom_a":null,"nom_de":null,"slug_ville":"crepol","departement_id":0,"code_postal":"26350","population":523,"superficie_km2":"1153.96","latitude_centre":"45.1778","longitude_centre":"5.0675","distance_km":3.75},{"id":17225,"code_insee":"26207","nom_standard":"Montmiral","nom_a":null,"nom_de":null,"slug_ville":"montmiral","departement_id":0,"code_postal":"26750","population":649,"superficie_km2":"2662.43","latitude_centre":"45.157","longitude_centre":"5.1604","distance_km":4.24},{"id":0,"code_insee":"26210","nom_standard":"Valherbasse","nom_a":null,"nom_de":null,"slug_ville":"valherbasse","departement_id":0,"code_postal":"26350","population":1005,"superficie_km2":"4395.61","latitude_centre":"45.2176","longitude_centre":"5.1423","distance_km":4.89},{"id":17292,"code_insee":"26298","nom_standard":"Saint-Christophe-et-le-Laris","nom_a":null,"nom_de":null,"slug_ville":"saint-christophe-et-le-laris","departement_id":0,"code_postal":"26350","population":424,"superficie_km2":"1154.89","latitude_centre":"45.2164","longitude_centre":"5.0699","distance_km":5.56},{"id":17098,"code_insee":"26014","nom_standard":"Arthémonay","nom_a":null,"nom_de":null,"slug_ville":"arthemonay","departement_id":0,"code_postal":"26260","population":613,"superficie_km2":"575.91","latitude_centre":"45.1411","longitude_centre":"5.0632","distance_km":5.79},{"id":17216,"code_insee":"26194","nom_standard":"Montchenu","nom_a":null,"nom_de":null,"slug_ville":"montchenu","departement_id":0,"code_postal":"26350","population":605,"superficie_km2":"1651.64","latitude_centre":"45.1908","longitude_centre":"5.0419","distance_km":5.93},{"id":17184,"code_insee":"26140","nom_standard":"Geyssans","nom_a":null,"nom_de":null,"slug_ville":"geyssans","departement_id":0,"code_postal":"26750","population":755,"superficie_km2":"1095.98","latitude_centre":"45.1208","longitude_centre":"5.0903","distance_km":6.66},{"id":0,"code_insee":"38359","nom_standard":"Saint Antoine l'Abbaye","nom_a":null,"nom_de":null,"slug_ville":"saint-antoine-l-abbaye","departement_id":0,"code_postal":"38160","population":1263,"superficie_km2":"3603.22","latitude_centre":"45.1793","longitude_centre":"5.2124","distance_km":7.61},{"id":0,"code_insee":"38245","nom_standard":"Montagne","nom_a":null,"nom_de":null,"slug_ville":"montagne","departement_id":0,"code_postal":"38160","population":273,"superficie_km2":"877.60","latitude_centre":"45.1417","longitude_centre":"5.2034","distance_km":8.0},{"id":17235,"code_insee":"26225","nom_standard":"Parnans","nom_a":null,"nom_de":null,"slug_ville":"parnans","departement_id":0,"code_postal":"26750","population":701,"superficie_km2":"1127.56","latitude_centre":"45.1125","longitude_centre":"5.1603","distance_km":8.09},{"id":17143,"code_insee":"26077","nom_standard":"Charmes-sur-l'Herbasse","nom_a":null,"nom_de":null,"slug_ville":"charmes-sur-l-herbasse","departement_id":0,"code_postal":"26260","population":806,"superficie_km2":"1307.12","latitude_centre":"45.1591","longitude_centre":"5.0157","distance_km":8.09},{"id":0,"code_insee":"26174","nom_standard":"Margès","nom_a":null,"nom_de":null,"slug_ville":"marges","departement_id":0,"code_postal":"26260","population":1067,"superficie_km2":"991.48","latitude_centre":"45.1351","longitude_centre":"5.0273","distance_km":8.39},{"id":0,"code_insee":"26355","nom_standard":"Triors","nom_a":null,"nom_de":null,"slug_ville":"triors","departement_id":0,"code_postal":"26750","population":633,"superficie_km2":"576.75","latitude_centre":"45.0974","longitude_centre":"5.1109","distance_km":8.97},{"id":17187,"code_insee":"26143","nom_standard":"Le Grand-Serre","nom_a":null,"nom_de":null,"slug_ville":"le-grand-serre","departement_id":0,"code_postal":"26530","population":973,"superficie_km2":"2491.41","latitude_centre":"45.2585","longitude_centre":"5.1029","distance_km":9.0},{"id":0,"code_insee":"26087","nom_standard":"Châtillon-Saint-Jean","nom_a":null,"nom_de":null,"slug_ville":"chatillon-saint-jean","departement_id":0,"code_postal":"26750","population":1305,"superficie_km2":"894.52","latitude_centre":"45.0984","longitude_centre":"5.1371","distance_km":9.01},{"id":0,"code_insee":"38255","nom_standard":"Montfalcon","nom_a":null,"nom_de":null,"slug_ville":"montfalcon","departement_id":0,"code_postal":"38940","population":127,"superficie_km2":"574.13","latitude_centre":"45.2604","longitude_centre":"5.1716","distance_km":10.17},{"id":0,"code_insee":"38379","nom_standard":"Saint-Clair-sur-Galaure","nom_a":null,"nom_de":null,"slug_ville":"saint-clair-sur-galaure","departement_id":0,"code_postal":"38940","population":265,"superficie_km2":"1530.20","latitude_centre":"45.2698","longitude_centre":"5.1493","distance_km":10.55},{"id":0,"code_insee":"26139","nom_standard":"Génissieux","nom_a":null,"nom_de":null,"slug_ville":"genissieux","departement_id":0,"code_postal":"26750","population":2428,"superficie_km2":"908.05","latitude_centre":"45.0826","longitude_centre":"5.0935","distance_km":10.74}]}