{"ville":{"id":3358,"code_insee":"35256","nom_standard":"Saint-Briac-sur-Mer","nom_a":null,"nom_de":null,"slug_ville":"saint-briac-sur-mer","departement_id":636,"code_postal":"35800","population":2208,"superficie_km2":"8.00","latitude_centre":"48.6160011","longitude_centre":"-2.1240001","dep_code":"35","dep_nom":"Ille-et-Vilaine","dep_slug":"ille-et-vilaine","reg_code":"03","reg_nom":"Bretagne","reg_slug":"bretagne"},"departement":{"code":"35","nom":"Ille-et-Vilaine","slug":"ille-et-vilaine"},"region":{"code":"03","nom":"Bretagne","slug":"bretagne"},"villes_proches":[{"id":3377,"code_insee":"35287","nom_standard":"Saint-Lunaire","nom_a":null,"nom_de":null,"slug_ville":"saint-lunaire","departement_id":636,"code_postal":"35800","population":2525,"superficie_km2":"10.00","latitude_centre":"48.6199989","longitude_centre":"-2.0969999","distance_km":2.03},{"id":1538,"code_insee":"22094","nom_standard":"Lancieux","nom_a":null,"nom_de":null,"slug_ville":"lancieux","departement_id":623,"code_postal":"22770","population":1584,"superficie_km2":"7.00","latitude_centre":"48.6010017","longitude_centre":"-2.1470001","distance_km":2.38},{"id":3248,"code_insee":"35093","nom_standard":"Dinard","nom_a":null,"nom_de":null,"slug_ville":"dinard","departement_id":636,"code_postal":"35800","population":10219,"superficie_km2":"8.00","latitude_centre":"48.6240006","longitude_centre":"-2.0620000","distance_km":4.64},{"id":3349,"code_insee":"35241","nom_standard":"La Richardais","nom_a":null,"nom_de":null,"slug_ville":"la-richardais","departement_id":636,"code_postal":"35780","population":2534,"superficie_km2":"3.00","latitude_centre":"48.6100006","longitude_centre":"-2.0439999","distance_km":5.92},{"id":3338,"code_insee":"35228","nom_standard":"Pleurtuit","nom_a":null,"nom_de":null,"slug_ville":"pleurtuit","departement_id":636,"code_postal":"35730","population":6953,"superficie_km2":"29.00","latitude_centre":"48.5830002","longitude_centre":"-2.0599999","distance_km":5.97},{"id":1594,"code_insee":"22209","nom_standard":"Beaussais-sur-Mer","nom_a":null,"nom_de":null,"slug_ville":"beaussais-sur-mer","departement_id":623,"code_postal":"22650","population":4168,"superficie_km2":"36.00","latitude_centre":"48.5600014","longitude_centre":"-2.1280000","distance_km":6.23},{"id":1639,"code_insee":"22282","nom_standard":"Saint-Cast-le-Guildo","nom_a":null,"nom_de":null,"slug_ville":"saint-cast-le-guildo","departement_id":623,"code_postal":"22380","population":3334,"superficie_km2":"23.00","latitude_centre":"48.6040001","longitude_centre":"-2.2490001","distance_km":9.29},{"id":3307,"code_insee":"35181","nom_standard":"Le Minihic-sur-Rance","nom_a":null,"nom_de":null,"slug_ville":"le-minihic-sur-rance","departement_id":636,"code_postal":"35870","population":1489,"superficie_km2":"4.00","latitude_centre":"48.5760002","longitude_centre":"-2.0130000","distance_km":9.3},{"id":1521,"code_insee":"22049","nom_standard":"Créhen","nom_a":null,"nom_de":null,"slug_ville":"crehen","departement_id":623,"code_postal":"22130","population":1654,"superficie_km2":"18.00","latitude_centre":"48.5400009","longitude_centre":"-2.1910000","distance_km":9.78},{"id":1582,"code_insee":"22190","nom_standard":"Pleslin-Trigavou","nom_a":null,"nom_de":null,"slug_ville":"pleslin-trigavou","departement_id":623,"code_postal":"22490","population":3955,"superficie_km2":"22.00","latitude_centre":"48.5279999","longitude_centre":"-2.0710001","distance_km":10.53},{"id":3378,"code_insee":"35288","nom_standard":"Saint-Malo","nom_a":null,"nom_de":null,"slug_ville":"saint-malo","departement_id":636,"code_postal":"35400","population":47323,"superficie_km2":"37.00","latitude_centre":"48.6399994","longitude_centre":"-1.9809999","distance_km":10.84},{"id":1542,"code_insee":"22105","nom_standard":"Languenan","nom_a":null,"nom_de":null,"slug_ville":"languenan","departement_id":623,"code_postal":"22130","population":1148,"superficie_km2":"16.00","latitude_centre":"48.5120010","longitude_centre":"-2.1329999","distance_km":11.58},{"id":3375,"code_insee":"35284","nom_standard":"Saint-Jouan-des-Guérets","nom_a":null,"nom_de":null,"slug_ville":"saint-jouan-des-guerets","departement_id":636,"code_postal":"35430","population":2801,"superficie_km2":"9.00","latitude_centre":"48.6040001","longitude_centre":"-1.9650000","distance_km":11.77},{"id":1555,"code_insee":"22143","nom_standard":"Matignon","nom_a":null,"nom_de":null,"slug_ville":"matignon","departement_id":623,"code_postal":"22550","population":1704,"superficie_km2":"15.00","latitude_centre":"48.6020012","longitude_centre":"-2.2900000","distance_km":12.3},{"id":1568,"code_insee":"22172","nom_standard":"Plancoët","nom_a":null,"nom_de":null,"slug_ville":"plancoet","departement_id":623,"code_postal":"22130","population":3057,"superficie_km2":"12.00","latitude_centre":"48.5149994","longitude_centre":"-2.2190001","distance_km":13.23},{"id":1598,"code_insee":"22213","nom_standard":"Plouër-sur-Rance","nom_a":null,"nom_de":null,"slug_ville":"plouer-sur-rance","departement_id":623,"code_postal":"22490","population":3469,"superficie_km2":"20.00","latitude_centre":"48.5250015","longitude_centre":"-2.0070000","distance_km":13.29},{"id":3414,"code_insee":"35358","nom_standard":"La Ville-ès-Nonais","nom_a":null,"nom_de":null,"slug_ville":"la-ville-es-nonais","departement_id":636,"code_postal":"35430","population":1219,"superficie_km2":"4.00","latitude_centre":"48.5489998","longitude_centre":"-1.9520000","distance_km":14.68},{"id":3388,"code_insee":"35306","nom_standard":"Saint-Père-Marc-en-Poulet","nom_a":null,"nom_de":null,"slug_ville":"saint-pere-marc-en-poulet","departement_id":636,"code_postal":"35430","population":2346,"superficie_km2":"19.00","latitude_centre":"48.5839996","longitude_centre":"-1.9290000","distance_km":14.77},{"id":1520,"code_insee":"22048","nom_standard":"Corseul","nom_a":null,"nom_de":null,"slug_ville":"corseul","departement_id":623,"code_postal":"22130","population":2223,"superficie_km2":"42.00","latitude_centre":"48.4830017","longitude_centre":"-2.1659999","distance_km":15.11},{"id":1648,"code_insee":"22339","nom_standard":"Taden","nom_a":null,"nom_de":null,"slug_ville":"taden","departement_id":623,"code_postal":"22100","population":2563,"superficie_km2":"20.00","latitude_centre":"48.4879990","longitude_centre":"-2.0539999","distance_km":15.14}]}