{"ville":{"id":25282,"code_insee":"55454","nom_standard":"Saint-Aubin-sur-Aire","nom_a":null,"nom_de":null,"slug_ville":"saint-aubin-sur-aire","departement_id":0,"code_postal":"55500","population":178,"superficie_km2":"1424.51","latitude_centre":"48.7171","longitude_centre":"5.4499","dep_code":"55","dep_nom":"Meuse","dep_slug":"meuse","reg_code":"44","reg_nom":"Grand Est","reg_slug":"grand-est"},"departement":{"code":"55","nom":"Meuse","slug":"meuse"},"region":{"code":"44","nom":"Grand Est","slug":"grand-est"},"villes_proches":[{"id":0,"code_insee":"55472","nom_standard":"Saulvaux","nom_a":null,"nom_de":null,"slug_ville":"saulvaux","departement_id":0,"code_postal":"55500","population":111,"superficie_km2":"2233.19","latitude_centre":"48.6922","longitude_centre":"5.4627","distance_km":2.92},{"id":25059,"code_insee":"55179","nom_standard":"Erneville-aux-Bois","nom_a":null,"nom_de":null,"slug_ville":"erneville-aux-bois","departement_id":0,"code_postal":"55500","population":152,"superficie_km2":"2805.94","latitude_centre":"48.7425","longitude_centre":"5.4083","distance_km":4.16},{"id":25212,"code_insee":"55371","nom_standard":"Nançois-le-Grand","nom_a":null,"nom_de":null,"slug_ville":"nancois-le-grand","departement_id":0,"code_postal":"55500","population":70,"superficie_km2":"930.81","latitude_centre":"48.7129","longitude_centre":"5.3927","distance_km":4.22},{"id":25010,"code_insee":"55114","nom_standard":"Chonville-Malaumont","nom_a":null,"nom_de":null,"slug_ville":"chonville-malaumont","departement_id":0,"code_postal":"55200","population":207,"superficie_km2":"1885.08","latitude_centre":"48.7592","longitude_centre":"5.4868","distance_km":5.41},{"id":25175,"code_insee":"55330","nom_standard":"Méligny-le-Grand","nom_a":null,"nom_de":null,"slug_ville":"meligny-le-grand","departement_id":0,"code_postal":"55190","population":88,"superficie_km2":"1152.52","latitude_centre":"48.6746","longitude_centre":"5.4942","distance_km":5.74},{"id":25199,"code_insee":"55358","nom_standard":"Chanteraine","nom_a":null,"nom_de":null,"slug_ville":"chanteraine","departement_id":0,"code_postal":"55500","population":187,"superficie_km2":"2234.01","latitude_centre":"48.6754","longitude_centre":"5.389","distance_km":6.44},{"id":25179,"code_insee":"55334","nom_standard":"Ménil-la-Horgne","nom_a":null,"nom_de":null,"slug_ville":"menil-la-horgne","departement_id":0,"code_postal":"55190","population":180,"superficie_km2":"1646.87","latitude_centre":"48.7035","longitude_centre":"5.5397","distance_km":6.76},{"id":25176,"code_insee":"55331","nom_standard":"Méligny-le-Petit","nom_a":null,"nom_de":null,"slug_ville":"meligny-le-petit","departement_id":0,"code_postal":"55190","population":73,"superficie_km2":"840.37","latitude_centre":"48.6574","longitude_centre":"5.4688","distance_km":6.78},{"id":0,"code_insee":"55581","nom_standard":"Willeroncourt","nom_a":null,"nom_de":null,"slug_ville":"willeroncourt","departement_id":0,"code_postal":"55500","population":109,"superficie_km2":"803.30","latitude_centre":"48.7157","longitude_centre":"5.3572","distance_km":6.8},{"id":0,"code_insee":"55518","nom_standard":"Cousances-lès-Triconville","nom_a":null,"nom_de":null,"slug_ville":"cousances-les-triconville","departement_id":0,"code_postal":"55500","population":146,"superficie_km2":"1839.35","latitude_centre":"48.7703","longitude_centre":"5.4032","distance_km":6.84},{"id":25090,"code_insee":"55220","nom_standard":"Grimaucourt-près-Sampigny","nom_a":null,"nom_de":null,"slug_ville":"grimaucourt-pres-sampigny","departement_id":0,"code_postal":"55500","population":95,"superficie_km2":"928.20","latitude_centre":"48.7803","longitude_centre":"5.4696","distance_km":7.17},{"id":24970,"code_insee":"55067","nom_standard":"Boviolles","nom_a":null,"nom_de":null,"slug_ville":"boviolles","departement_id":0,"code_postal":"55500","population":99,"superficie_km2":"817.36","latitude_centre":"48.6433","longitude_centre":"5.4155","distance_km":8.59},{"id":0,"code_insee":"55288","nom_standard":"Lérouville","nom_a":null,"nom_de":null,"slug_ville":"lerouville","departement_id":0,"code_postal":"55200","population":1358,"superficie_km2":"1432.96","latitude_centre":"48.7772","longitude_centre":"5.5379","distance_km":9.29},{"id":25167,"code_insee":"55322","nom_standard":"Marson-sur-Barboure","nom_a":null,"nom_de":null,"slug_ville":"marson-sur-barboure","departement_id":0,"code_postal":"55190","population":59,"superficie_km2":"581.98","latitude_centre":"48.6335","longitude_centre":"5.4445","distance_km":9.3},{"id":25029,"code_insee":"55141","nom_standard":"Dagonville","nom_a":null,"nom_de":null,"slug_ville":"dagonville","departement_id":0,"code_postal":"55500","population":88,"superficie_km2":"1302.02","latitude_centre":"48.7904","longitude_centre":"5.3832","distance_km":9.5},{"id":25178,"code_insee":"55333","nom_standard":"Ménil-aux-Bois","nom_a":null,"nom_de":null,"slug_ville":"menil-aux-bois","departement_id":0,"code_postal":"55260","population":48,"superficie_km2":"662.44","latitude_centre":"48.8037","longitude_centre":"5.4413","distance_km":9.65},{"id":24969,"code_insee":"55066","nom_standard":"Bovée-sur-Barboure","nom_a":null,"nom_de":null,"slug_ville":"bovee-sur-barboure","departement_id":0,"code_postal":"55190","population":133,"superficie_km2":"1332.27","latitude_centre":"48.6366","longitude_centre":"5.5123","distance_km":10.06},{"id":25254,"code_insee":"55421","nom_standard":"Reffroy","nom_a":null,"nom_de":null,"slug_ville":"reffroy","departement_id":0,"code_postal":"55190","population":72,"superficie_km2":"949.53","latitude_centre":"48.6266","longitude_centre":"5.4696","distance_km":10.17},{"id":0,"code_insee":"55526","nom_standard":"Vadonville","nom_a":null,"nom_de":null,"slug_ville":"vadonville","departement_id":0,"code_postal":"55200","population":245,"superficie_km2":"525.08","latitude_centre":"48.8001","longitude_centre":"5.5139","distance_km":10.35},{"id":25280,"code_insee":"55452","nom_standard":"Saint-Amand-sur-Ornain","nom_a":null,"nom_de":null,"slug_ville":"saint-amand-sur-ornain","departement_id":0,"code_postal":"55500","population":60,"superficie_km2":"606.39","latitude_centre":"48.6263","longitude_centre":"5.3928","distance_km":10.93}]}