{"ville":{"id":15940,"code_insee":"22320","nom_standard":"Saint-Nicodème","nom_a":null,"nom_de":null,"slug_ville":"saint-nicodeme","departement_id":0,"code_postal":"22160","population":167,"superficie_km2":"1723.97","latitude_centre":"48.3602","longitude_centre":"-3.342","dep_code":"22","dep_nom":"Côtes-d'Armor","dep_slug":"cotes-d-armor","reg_code":"53","reg_nom":"Bretagne","reg_slug":"bretagne"},"departement":{"code":"22","nom":"Côtes-d'Armor","slug":"cotes-d-armor"},"region":{"code":"53","nom":"Bretagne","slug":"bretagne"},"villes_proches":[{"id":0,"code_insee":"22328","nom_standard":"Saint-Servais","nom_a":null,"nom_de":null,"slug_ville":"saint-servais","departement_id":0,"code_postal":"22160","population":435,"superficie_km2":"2828.11","latitude_centre":"48.3819","longitude_centre":"-3.3753","distance_km":3.45},{"id":15882,"code_insee":"22169","nom_standard":"Peumerit-Quintin","nom_a":null,"nom_de":null,"slug_ville":"peumerit-quintin","departement_id":0,"code_postal":"22480","population":191,"superficie_km2":"1491.26","latitude_centre":"48.368","longitude_centre":"-3.2923","distance_km":3.77},{"id":15862,"code_insee":"22128","nom_standard":"Locarn","nom_a":null,"nom_de":null,"slug_ville":"locarn","departement_id":0,"code_postal":"22340","population":434,"superficie_km2":"3255.03","latitude_centre":"48.3317","longitude_centre":"-3.4177","distance_km":6.43},{"id":15867,"code_insee":"22138","nom_standard":"Maël-Pestivien","nom_a":null,"nom_de":null,"slug_ville":"mael-pestivien","departement_id":0,"code_postal":"22160","population":362,"superficie_km2":"3182.62","latitude_centre":"48.4101","longitude_centre":"-3.2949","distance_km":6.55},{"id":0,"code_insee":"22365","nom_standard":"Trémargat","nom_a":null,"nom_de":null,"slug_ville":"tremargat","departement_id":0,"code_postal":"22110","population":183,"superficie_km2":"1398.81","latitude_centre":"48.3265","longitude_centre":"-3.268","distance_km":6.63},{"id":15824,"code_insee":"22052","nom_standard":"Duault","nom_a":null,"nom_de":null,"slug_ville":"duault","departement_id":0,"code_postal":"22160","population":385,"superficie_km2":"2188.11","latitude_centre":"48.3638","longitude_centre":"-3.4361","distance_km":6.96},{"id":15842,"code_insee":"22087","nom_standard":"Kergrist-Moëlou","nom_a":null,"nom_de":null,"slug_ville":"kergrist-moelou","departement_id":0,"code_postal":"22110","population":629,"superficie_km2":"4713.90","latitude_centre":"48.2945","longitude_centre":"-3.3194","distance_km":7.49},{"id":15808,"code_insee":"22023","nom_standard":"Bulat-Pestivien","nom_a":null,"nom_de":null,"slug_ville":"bulat-pestivien","departement_id":0,"code_postal":"22160","population":406,"superficie_km2":"3168.25","latitude_centre":"48.4317","longitude_centre":"-3.3347","distance_km":7.97},{"id":0,"code_insee":"22025","nom_standard":"Callac","nom_a":null,"nom_de":null,"slug_ville":"callac","departement_id":0,"code_postal":"22160","population":2312,"superficie_km2":"3347.14","latitude_centre":"48.4192","longitude_centre":"-3.4138","distance_km":8.43},{"id":0,"code_insee":"22137","nom_standard":"Maël-Carhaix","nom_a":null,"nom_de":null,"slug_ville":"mael-carhaix","departement_id":0,"code_postal":"22340","population":1497,"superficie_km2":"3696.51","latitude_centre":"48.2902","longitude_centre":"-3.4168","distance_km":9.55},{"id":15857,"code_insee":"22115","nom_standard":"Lanrivain","nom_a":null,"nom_de":null,"slug_ville":"lanrivain","departement_id":0,"code_postal":"22480","population":464,"superficie_km2":"3752.65","latitude_centre":"48.351","longitude_centre":"-3.2086","distance_km":9.91},{"id":15843,"code_insee":"22088","nom_standard":"Kerien","nom_a":null,"nom_de":null,"slug_ville":"kerien","departement_id":0,"code_postal":"22480","population":245,"superficie_km2":"2207.02","latitude_centre":"48.4097","longitude_centre":"-3.2274","distance_km":10.1},{"id":0,"code_insee":"22229","nom_standard":"Plounévez-Quintin","nom_a":null,"nom_de":null,"slug_ville":"plounevez-quintin","departement_id":0,"code_postal":"22110","population":1064,"superficie_km2":"4326.49","latitude_centre":"48.2898","longitude_centre":"-3.2384","distance_km":10.95},{"id":15897,"code_insee":"22243","nom_standard":"Plusquellec","nom_a":null,"nom_de":null,"slug_ville":"plusquellec","departement_id":0,"code_postal":"22160","population":559,"superficie_km2":"2683.52","latitude_centre":"48.3968","longitude_centre":"-3.4821","distance_km":11.12},{"id":0,"code_insee":"22344","nom_standard":"Trébrivan","nom_a":null,"nom_de":null,"slug_ville":"trebrivan","departement_id":0,"code_postal":"22340","population":761,"superficie_km2":"2300.76","latitude_centre":"48.3116","longitude_centre":"-3.4806","distance_km":11.58},{"id":15809,"code_insee":"22024","nom_standard":"Calanhel","nom_a":null,"nom_de":null,"slug_ville":"calanhel","departement_id":0,"code_postal":"22160","population":245,"superficie_km2":"1469.08","latitude_centre":"48.4377","longitude_centre":"-3.4679","distance_km":12.68},{"id":15900,"code_insee":"22249","nom_standard":"Pont-Melvez","nom_a":null,"nom_de":null,"slug_ville":"pont-melvez","departement_id":0,"code_postal":"22390","population":595,"superficie_km2":"2354.67","latitude_centre":"48.475","longitude_centre":"-3.2837","distance_km":13.47},{"id":15817,"code_insee":"22037","nom_standard":"La Chapelle-Neuve","nom_a":null,"nom_de":null,"slug_ville":"la-chapelle-neuve","departement_id":0,"code_postal":"22160","population":413,"superficie_km2":"2410.94","latitude_centre":"48.466","longitude_centre":"-3.4389","distance_km":13.77},{"id":15890,"code_insee":"22216","nom_standard":"Plougonver","nom_a":null,"nom_de":null,"slug_ville":"plougonver","departement_id":0,"code_postal":"22810","population":760,"superficie_km2":"3639.98","latitude_centre":"48.4848","longitude_centre":"-3.3859","distance_km":14.23},{"id":0,"code_insee":"22266","nom_standard":"Rostrenen","nom_a":null,"nom_de":null,"slug_ville":"rostrenen","departement_id":0,"code_postal":"22110","population":3282,"superficie_km2":"3234.11","latitude_centre":"48.2223","longitude_centre":"-3.3105","distance_km":15.51}]}