{"ville":{"id":20474,"code_insee":"37236","nom_standard":"Saint-Règle","nom_a":null,"nom_de":null,"slug_ville":"saint-regle","departement_id":0,"code_postal":"37530","population":599,"superficie_km2":"632.23","latitude_centre":"47.4102","longitude_centre":"1.0321","dep_code":"37","dep_nom":"Indre-et-Loire","dep_slug":"indre-et-loire","reg_code":"24","reg_nom":"Centre-Val de Loire","reg_slug":"centre-val-de-loire"},"departement":{"code":"37","nom":"Indre-et-Loire","slug":"indre-et-loire"},"region":{"code":"24","nom":"Centre-Val de Loire","slug":"centre-val-de-loire"},"villes_proches":[{"id":0,"code_insee":"37060","nom_standard":"Chargé","nom_a":null,"nom_de":null,"slug_ville":"charge","departement_id":0,"code_postal":"37530","population":1359,"superficie_km2":"851.13","latitude_centre":"47.4319","longitude_centre":"1.0417","distance_km":2.52},{"id":0,"code_insee":"37003","nom_standard":"Amboise","nom_a":null,"nom_de":null,"slug_ville":"amboise","departement_id":0,"code_postal":"37400","population":12937,"superficie_km2":"4099.07","latitude_centre":"47.3967","longitude_centre":"0.9989","distance_km":2.91},{"id":0,"code_insee":"37252","nom_standard":"Souvigny-de-Touraine","nom_a":null,"nom_de":null,"slug_ville":"souvigny-de-touraine","departement_id":0,"code_postal":"37530","population":380,"superficie_km2":"2584.28","latitude_centre":"47.3997","longitude_centre":"1.0825","distance_km":3.97},{"id":0,"code_insee":"37185","nom_standard":"Pocé-sur-Cisse","nom_a":null,"nom_de":null,"slug_ville":"poce-sur-cisse","departement_id":0,"code_postal":"37530","population":1711,"superficie_km2":"1082.51","latitude_centre":"47.442","longitude_centre":"0.9833","distance_km":5.1},{"id":0,"code_insee":"37131","nom_standard":"Limeray","nom_a":null,"nom_de":null,"slug_ville":"limeray","departement_id":0,"code_postal":"37530","population":1252,"superficie_km2":"1384.52","latitude_centre":"47.4602","longitude_centre":"1.0342","distance_km":5.56},{"id":20439,"code_insee":"37161","nom_standard":"Mosnes","nom_a":null,"nom_de":null,"slug_ville":"mosnes","departement_id":0,"code_postal":"37530","population":812,"superficie_km2":"1439.33","latitude_centre":"47.4469","longitude_centre":"1.0987","distance_km":6.46},{"id":0,"code_insee":"37163","nom_standard":"Nazelles-Négron","nom_a":null,"nom_de":null,"slug_ville":"nazelles-negron","departement_id":0,"code_postal":"37530","population":3776,"superficie_km2":"2212.53","latitude_centre":"47.433","longitude_centre":"0.9489","distance_km":6.75},{"id":0,"code_insee":"37091","nom_standard":"La Croix-en-Touraine","nom_a":null,"nom_de":null,"slug_ville":"la-croix-en-touraine","departement_id":0,"code_postal":"37150","population":2543,"superficie_km2":"1524.08","latitude_centre":"47.35","longitude_centre":"0.9935","distance_km":7.3},{"id":20382,"code_insee":"37070","nom_standard":"Chenonceaux","nom_a":null,"nom_de":null,"slug_ville":"chenonceaux","departement_id":0,"code_postal":"37150","population":334,"superficie_km2":"428.29","latitude_centre":"47.3436","longitude_centre":"1.0701","distance_km":7.94},{"id":0,"code_insee":"41267","nom_standard":"Vallières-les-Grandes","nom_a":null,"nom_de":null,"slug_ville":"vallieres-les-grandes","departement_id":0,"code_postal":"41400","population":943,"superficie_km2":"4078.16","latitude_centre":"47.409","longitude_centre":"1.1431","distance_km":8.35},{"id":20472,"code_insee":"37230","nom_standard":"Saint-Ouen-les-Vignes","nom_a":null,"nom_de":null,"slug_ville":"saint-ouen-les-vignes","departement_id":0,"code_postal":"37530","population":963,"superficie_km2":"1892.21","latitude_centre":"47.4821","longitude_centre":"0.9989","distance_km":8.38},{"id":20384,"code_insee":"37073","nom_standard":"Chisseaux","nom_a":null,"nom_de":null,"slug_ville":"chisseaux","departement_id":0,"code_postal":"37150","population":610,"superficie_km2":"1173.56","latitude_centre":"47.3501","longitude_centre":"1.0998","distance_km":8.4},{"id":20401,"code_insee":"37096","nom_standard":"Dierre","nom_a":null,"nom_de":null,"slug_ville":"dierre","departement_id":0,"code_postal":"37150","population":645,"superficie_km2":"1032.81","latitude_centre":"47.3533","longitude_centre":"0.958","distance_km":8.44},{"id":20425,"code_insee":"37138","nom_standard":"Lussault-sur-Loire","nom_a":null,"nom_de":null,"slug_ville":"lussault-sur-loire","departement_id":0,"code_postal":"37400","population":886,"superficie_km2":"916.93","latitude_centre":"47.391","longitude_centre":"0.9209","distance_km":8.64},{"id":0,"code_insee":"37079","nom_standard":"Civray-de-Touraine","nom_a":null,"nom_de":null,"slug_ville":"civray-de-touraine","departement_id":0,"code_postal":"37150","population":1819,"superficie_km2":"2316.08","latitude_centre":"47.3325","longitude_centre":"1.0408","distance_km":8.66},{"id":0,"code_insee":"37043","nom_standard":"Cangey","nom_a":null,"nom_de":null,"slug_ville":"cangey","departement_id":0,"code_postal":"37530","population":1021,"superficie_km2":"2278.81","latitude_centre":"47.4901","longitude_centre":"1.0651","distance_km":9.22},{"id":0,"code_insee":"41144","nom_standard":"Monteaux","nom_a":null,"nom_de":null,"slug_ville":"monteaux","departement_id":0,"code_postal":"41150","population":729,"superficie_km2":"623.34","latitude_centre":"47.4842","longitude_centre":"1.1084","distance_km":10.03},{"id":20437,"code_insee":"37158","nom_standard":"Montreuil-en-Touraine","nom_a":null,"nom_de":null,"slug_ville":"montreuil-en-touraine","departement_id":0,"code_postal":"37530","population":740,"superficie_km2":"2515.23","latitude_centre":"47.4853","longitude_centre":"0.9572","distance_km":10.07},{"id":0,"code_insee":"37110","nom_standard":"Francueil","nom_a":null,"nom_de":null,"slug_ville":"francueil","departement_id":0,"code_postal":"37150","population":1461,"superficie_km2":"1304.65","latitude_centre":"47.309","longitude_centre":"1.0763","distance_km":11.74},{"id":20345,"code_insee":"37009","nom_standard":"Autrèche","nom_a":null,"nom_de":null,"slug_ville":"autreche","departement_id":0,"code_postal":"37110","population":419,"superficie_km2":"2072.69","latitude_centre":"47.5216","longitude_centre":"1.0028","distance_km":12.58}]}