{"ville":{"id":22892,"code_insee":"48167","nom_standard":"Saint-Laurent-de-Veyrès","nom_a":null,"nom_de":null,"slug_ville":"saint-laurent-de-veyres","departement_id":0,"code_postal":"48310","population":31,"superficie_km2":"910.48","latitude_centre":"44.7662","longitude_centre":"3.1231","dep_code":"48","dep_nom":"Lozère","dep_slug":"lozere","reg_code":"76","reg_nom":"Occitanie","reg_slug":"occitanie"},"departement":{"code":"48","nom":"Lozère","slug":"lozere"},"region":{"code":"76","nom":"Occitanie","slug":"occitanie"},"villes_proches":[{"id":22816,"code_insee":"48058","nom_standard":"La Fage-Montivernoux","nom_a":null,"nom_de":null,"slug_ville":"la-fage-montivernoux","departement_id":0,"code_postal":"48310","population":131,"superficie_km2":"3757.50","latitude_centre":"44.7504","longitude_centre":"3.1484","distance_km":2.66},{"id":22849,"code_insee":"48106","nom_standard":"Noalhac","nom_a":null,"nom_de":null,"slug_ville":"noalhac","departement_id":0,"code_postal":"48310","population":94,"superficie_km2":"1350.61","latitude_centre":"44.8006","longitude_centre":"3.1159","distance_km":3.87},{"id":22798,"code_insee":"48031","nom_standard":"Brion","nom_a":null,"nom_de":null,"slug_ville":"brion","departement_id":0,"code_postal":"48310","population":88,"superficie_km2":"2191.68","latitude_centre":"44.7458","longitude_centre":"3.0779","distance_km":4.23},{"id":22819,"code_insee":"48064","nom_standard":"Fournels","nom_a":null,"nom_de":null,"slug_ville":"fournels","departement_id":0,"code_postal":"48310","population":371,"superficie_km2":"1553.44","latitude_centre":"44.8099","longitude_centre":"3.1294","distance_km":4.88},{"id":22806,"code_insee":"48044","nom_standard":"Chauchailles","nom_a":null,"nom_de":null,"slug_ville":"chauchailles","departement_id":0,"code_postal":"48310","population":75,"superficie_km2":"1738.31","latitude_centre":"44.7968","longitude_centre":"3.0753","distance_km":5.08},{"id":22825,"code_insee":"48071","nom_standard":"Grandvals","nom_a":null,"nom_de":null,"slug_ville":"grandvals","departement_id":0,"code_postal":"48260","population":61,"superficie_km2":"1272.66","latitude_centre":"44.7333","longitude_centre":"3.0552","distance_km":6.49},{"id":0,"code_insee":"48190","nom_standard":"Termes","nom_a":null,"nom_de":null,"slug_ville":"termes","departement_id":0,"code_postal":"48310","population":214,"superficie_km2":"1747.24","latitude_centre":"44.8219","longitude_centre":"3.1683","distance_km":7.15},{"id":22888,"code_insee":"48161","nom_standard":"Saint-Juéry","nom_a":null,"nom_de":null,"slug_ville":"saint-juery","departement_id":0,"code_postal":"48310","population":51,"superficie_km2":"163.64","latitude_centre":"44.8296","longitude_centre":"3.0839","distance_km":7.7},{"id":14051,"code_insee":"15209","nom_standard":"Saint-Rémy-de-Chaudes-Aigues","nom_a":null,"nom_de":null,"slug_ville":"saint-remy-de-chaudes-aigues","departement_id":0,"code_postal":"15110","population":120,"superficie_km2":"1517.76","latitude_centre":"44.7683","longitude_centre":"3.0248","distance_km":7.76},{"id":22817,"code_insee":"48059","nom_standard":"La Fage-Saint-Julien","nom_a":null,"nom_de":null,"slug_ville":"la-fage-saint-julien","departement_id":0,"code_postal":"48200","population":303,"superficie_km2":"1801.66","latitude_centre":"44.8008","longitude_centre":"3.2117","distance_km":7.98},{"id":13888,"code_insee":"15007","nom_standard":"Anterrieux","nom_a":null,"nom_de":null,"slug_ville":"anterrieux","departement_id":0,"code_postal":"15110","population":122,"superficie_km2":"1650.44","latitude_centre":"44.827","longitude_centre":"3.0637","distance_km":8.23},{"id":22782,"code_insee":"48007","nom_standard":"Arzenc-d'Apcher","nom_a":null,"nom_de":null,"slug_ville":"arzenc-d-apcher","departement_id":0,"code_postal":"48310","population":52,"superficie_km2":"781.64","latitude_centre":"44.8448","longitude_centre":"3.1129","distance_km":8.78},{"id":22793,"code_insee":"48025","nom_standard":"Les Bessons","nom_a":null,"nom_de":null,"slug_ville":"les-bessons","departement_id":0,"code_postal":"48200","population":421,"superficie_km2":"2341.45","latitude_centre":"44.7747","longitude_centre":"3.236","distance_km":8.96},{"id":13934,"code_insee":"15060","nom_standard":"Deux-Verges","nom_a":null,"nom_de":null,"slug_ville":"deux-verges","departement_id":0,"code_postal":"15110","population":55,"superficie_km2":"1127.22","latitude_centre":"44.7996","longitude_centre":"3.0178","distance_km":9.1},{"id":22837,"code_insee":"48087","nom_standard":"Prinsuéjols-Malbouzon","nom_a":null,"nom_de":null,"slug_ville":"prinsuejols-malbouzon","departement_id":0,"code_postal":"48100","population":246,"superficie_km2":"5741.15","latitude_centre":"44.6787","longitude_centre":"3.1565","distance_km":10.08},{"id":22777,"code_insee":"48001","nom_standard":"Albaret-le-Comtal","nom_a":null,"nom_de":null,"slug_ville":"albaret-le-comtal","departement_id":0,"code_postal":"48310","population":131,"superficie_km2":"2961.75","latitude_centre":"44.8641","longitude_centre":"3.1446","distance_km":11.02},{"id":22860,"code_insee":"48123","nom_standard":"Recoules-d'Aubrac","nom_a":null,"nom_de":null,"slug_ville":"recoules-d-aubrac","departement_id":0,"code_postal":"48260","population":165,"superficie_km2":"2632.13","latitude_centre":"44.686","longitude_centre":"3.0364","distance_km":11.24},{"id":22785,"code_insee":"48012","nom_standard":"Les Monts-Verts","nom_a":null,"nom_de":null,"slug_ville":"les-monts-verts","departement_id":0,"code_postal":"48200","population":313,"superficie_km2":"2894.15","latitude_centre":"44.8482","longitude_centre":"3.2183","distance_km":11.81},{"id":13985,"code_insee":"15121","nom_standard":"Maurines","nom_a":null,"nom_de":null,"slug_ville":"maurines","departement_id":0,"code_postal":"15110","population":102,"superficie_km2":"1456.51","latitude_centre":"44.8706","longitude_centre":"3.0842","distance_km":12.01},{"id":22841,"code_insee":"48091","nom_standard":"Marchastel","nom_a":null,"nom_de":null,"slug_ville":"marchastel","departement_id":0,"code_postal":"48260","population":44,"superficie_km2":"3493.81","latitude_centre":"44.6421","longitude_centre":"3.1077","distance_km":13.85}]}