{"ville":{"id":30971,"code_insee":"71488","nom_standard":"Saint-Vincent-des-Prés","nom_a":null,"nom_de":null,"slug_ville":"saint-vincent-des-pres","departement_id":0,"code_postal":"71250","population":96,"superficie_km2":"638.06","latitude_centre":"46.4753","longitude_centre":"4.556","dep_code":"71","dep_nom":"Saône-et-Loire","dep_slug":"saone-et-loire","reg_code":"27","reg_nom":"Bourgogne-Franche-Comté","reg_slug":"bourgogne-franche-comte"},"departement":{"code":"71","nom":"Saône-et-Loire","slug":"saone-et-loire"},"region":{"code":"27","nom":"Bourgogne-Franche-Comté","slug":"bourgogne-franche-comte"},"villes_proches":[{"id":0,"code_insee":"71582","nom_standard":"La Vineuse sur Fregande","nom_a":null,"nom_de":null,"slug_ville":"la-vineuse-sur-fregande","departement_id":0,"code_postal":"71250","population":648,"superficie_km2":"3613.51","latitude_centre":"46.468","longitude_centre":"4.5851","distance_km":2.37},{"id":30892,"code_insee":"71387","nom_standard":"Saint-André-le-Désert","nom_a":null,"nom_de":null,"slug_ville":"saint-andre-le-desert","departement_id":0,"code_postal":"71220","population":243,"superficie_km2":"1791.86","latitude_centre":"46.5021","longitude_centre":"4.5285","distance_km":3.65},{"id":30870,"code_insee":"71358","nom_standard":"Pressy-sous-Dondin","nom_a":null,"nom_de":null,"slug_ville":"pressy-sous-dondin","departement_id":0,"code_postal":"71220","population":101,"superficie_km2":"1238.73","latitude_centre":"46.4783","longitude_centre":"4.5036","distance_km":4.03},{"id":30695,"code_insee":"71128","nom_standard":"Chiddes","nom_a":null,"nom_de":null,"slug_ville":"chiddes","departement_id":0,"code_postal":"71220","population":84,"superficie_km2":"760.77","latitude_centre":"46.4551","longitude_centre":"4.5102","distance_km":4.17},{"id":30692,"code_insee":"71125","nom_standard":"Chérizet","nom_a":null,"nom_de":null,"slug_ville":"cherizet","departement_id":0,"code_postal":"71250","population":18,"superficie_km2":"291.55","latitude_centre":"46.5159","longitude_centre":"4.5669","distance_km":4.59},{"id":30645,"code_insee":"71065","nom_standard":"Buffières","nom_a":null,"nom_de":null,"slug_ville":"buffieres","departement_id":0,"code_postal":"71250","population":273,"superficie_km2":"1222.75","latitude_centre":"46.4324","longitude_centre":"4.5392","distance_km":4.94},{"id":0,"code_insee":"71495","nom_standard":"Salornay-sur-Guye","nom_a":null,"nom_de":null,"slug_ville":"salornay-sur-guye","departement_id":0,"code_postal":"71250","population":864,"superficie_km2":"1116.21","latitude_centre":"46.5176","longitude_centre":"4.5989","distance_km":5.74},{"id":30886,"code_insee":"71381","nom_standard":"Sailly","nom_a":null,"nom_de":null,"slug_ville":"sailly","departement_id":0,"code_postal":"71250","population":75,"superficie_km2":"904.94","latitude_centre":"46.5316","longitude_centre":"4.5628","distance_km":6.28},{"id":30943,"code_insee":"71452","nom_standard":"Saint-Martin-de-Salencey","nom_a":null,"nom_de":null,"slug_ville":"saint-martin-de-salencey","departement_id":0,"code_postal":"71220","population":116,"superficie_km2":"1587.78","latitude_centre":"46.5194","longitude_centre":"4.4976","distance_km":6.64},{"id":30684,"code_insee":"71112","nom_standard":"Château","nom_a":null,"nom_de":null,"slug_ville":"chateau","departement_id":0,"code_postal":"71250","population":229,"superficie_km2":"1410.42","latitude_centre":"46.4216","longitude_centre":"4.5948","distance_km":6.67},{"id":30745,"code_insee":"71199","nom_standard":"Flagy","nom_a":null,"nom_de":null,"slug_ville":"flagy","departement_id":0,"code_postal":"71250","population":175,"superficie_km2":"842.57","latitude_centre":"46.4896","longitude_centre":"4.6422","distance_km":6.79},{"id":0,"code_insee":"71524","nom_standard":"Sivignon","nom_a":null,"nom_de":null,"slug_ville":"sivignon","departement_id":0,"code_postal":"71220","population":178,"superficie_km2":"1260.28","latitude_centre":"46.4286","longitude_centre":"4.4969","distance_km":6.89},{"id":30799,"code_insee":"71264","nom_standard":"Lournand","nom_a":null,"nom_de":null,"slug_ville":"lournand","departement_id":0,"code_postal":"71250","population":322,"superficie_km2":"1124.00","latitude_centre":"46.4664","longitude_centre":"4.6492","distance_km":7.21},{"id":30858,"code_insee":"71344","nom_standard":"Passy","nom_a":null,"nom_de":null,"slug_ville":"passy","departement_id":0,"code_postal":"71220","population":70,"superficie_km2":"442.03","latitude_centre":"46.5402","longitude_centre":"4.5344","distance_km":7.4},{"id":30694,"code_insee":"71127","nom_standard":"Chevagny-sur-Guye","nom_a":null,"nom_de":null,"slug_ville":"chevagny-sur-guye","departement_id":0,"code_postal":"71220","population":50,"superficie_km2":"632.49","latitude_centre":"46.5392","longitude_centre":"4.4978","distance_km":8.39},{"id":30718,"code_insee":"71163","nom_standard":"Curtil-sous-Buffières","nom_a":null,"nom_de":null,"slug_ville":"curtil-sous-buffieres","departement_id":0,"code_postal":"71520","population":95,"superficie_km2":"527.87","latitude_centre":"46.4025","longitude_centre":"4.526","distance_km":8.42},{"id":30617,"code_insee":"71030","nom_standard":"Bergesserin","nom_a":null,"nom_de":null,"slug_ville":"bergesserin","departement_id":0,"code_postal":"71250","population":195,"superficie_km2":"725.98","latitude_centre":"46.3972","longitude_centre":"4.5599","distance_km":8.69},{"id":0,"code_insee":"71521","nom_standard":"Sigy-le-Châtel","nom_a":null,"nom_de":null,"slug_ville":"sigy-le-chatel","departement_id":0,"code_postal":"71250","population":104,"superficie_km2":"700.46","latitude_centre":"46.5559","longitude_centre":"4.5713","distance_km":9.04},{"id":30818,"code_insee":"71290","nom_standard":"Mazille","nom_a":null,"nom_de":null,"slug_ville":"mazille","departement_id":0,"code_postal":"71250","population":400,"superficie_km2":"954.72","latitude_centre":"46.3903","longitude_centre":"4.6032","distance_km":10.12},{"id":30665,"code_insee":"71091","nom_standard":"La Chapelle-du-Mont-de-France","nom_a":null,"nom_de":null,"slug_ville":"la-chapelle-du-mont-de-france","departement_id":0,"code_postal":"71520","population":189,"superficie_km2":"918.85","latitude_centre":"46.3793","longitude_centre":"4.543","distance_km":10.72}]}