{"ville":{"id":17286,"code_insee":"26290","nom_standard":"Saint-Agnan-en-Vercors","nom_a":null,"nom_de":null,"slug_ville":"saint-agnan-en-vercors","departement_id":0,"code_postal":"26420","population":384,"superficie_km2":"8400.91","latitude_centre":"44.899","longitude_centre":"5.439","dep_code":"26","dep_nom":"Drôme","dep_slug":"drome","reg_code":"84","reg_nom":"Auvergne-Rhône-Alpes","reg_slug":"auvergne-rhone-alpes"},"departement":{"code":"26","nom":"Drôme","slug":"drome"},"region":{"code":"84","nom":"Auvergne-Rhône-Alpes","slug":"auvergne-rhone-alpes"},"villes_proches":[{"id":0,"code_insee":"26364","nom_standard":"Vassieux-en-Vercors","nom_a":null,"nom_de":null,"slug_ville":"vassieux-en-vercors","departement_id":0,"code_postal":"26420","population":341,"superficie_km2":"4806.80","latitude_centre":"44.8786","longitude_centre":"5.3731","distance_km":5.67},{"id":0,"code_insee":"38186","nom_standard":"Gresse-en-Vercors","nom_a":null,"nom_de":null,"slug_ville":"gresse-en-vercors","departement_id":0,"code_postal":"38650","population":351,"superficie_km2":"8051.62","latitude_centre":"44.8783","longitude_centre":"5.5284","distance_km":7.41},{"id":17140,"code_insee":"26074","nom_standard":"La Chapelle-en-Vercors","nom_a":null,"nom_de":null,"slug_ville":"la-chapelle-en-vercors","departement_id":0,"code_postal":"26420","population":797,"superficie_km2":"4541.35","latitude_centre":"44.9669","longitude_centre":"5.4254","distance_km":7.63},{"id":0,"code_insee":"38355","nom_standard":"Saint-Andéol","nom_a":null,"nom_de":null,"slug_ville":"saint-andeol","departement_id":0,"code_postal":"38650","population":117,"superficie_km2":"2984.13","latitude_centre":"44.9563","longitude_centre":"5.5232","distance_km":9.19},{"id":17137,"code_insee":"26069","nom_standard":"Chamaloc","nom_a":null,"nom_de":null,"slug_ville":"chamaloc","departement_id":0,"code_postal":"26150","population":119,"superficie_km2":"2216.66","latitude_centre":"44.8135","longitude_centre":"5.387","distance_km":10.35},{"id":17129,"code_insee":"26059","nom_standard":"Bouvante","nom_a":null,"nom_de":null,"slug_ville":"bouvante","departement_id":0,"code_postal":"26190","population":210,"superficie_km2":"8454.09","latitude_centre":"44.9327","longitude_centre":"5.2994","distance_km":11.61},{"id":0,"code_insee":"38429","nom_standard":"Saint-Michel-les-Portes","nom_a":null,"nom_de":null,"slug_ville":"saint-michel-les-portes","departement_id":0,"code_postal":"38650","population":285,"superficie_km2":"2138.58","latitude_centre":"44.8665","longitude_centre":"5.584","distance_km":11.98},{"id":17279,"code_insee":"26282","nom_standard":"Romeyer","nom_a":null,"nom_de":null,"slug_ville":"romeyer","departement_id":0,"code_postal":"26150","population":233,"superficie_km2":"4006.64","latitude_centre":"44.7906","longitude_centre":"5.4391","distance_km":12.05},{"id":0,"code_insee":"26308","nom_standard":"Saint-Julien-en-Quint","nom_a":null,"nom_de":null,"slug_ville":"saint-julien-en-quint","departement_id":0,"code_postal":"26150","population":171,"superficie_km2":"4772.14","latitude_centre":"44.8599","longitude_centre":"5.2914","distance_km":12.42},{"id":0,"code_insee":"38103","nom_standard":"Chichilianne","nom_a":null,"nom_de":null,"slug_ville":"chichilianne","departement_id":0,"code_postal":"38930","population":336,"superficie_km2":"6193.52","latitude_centre":"44.8088","longitude_centre":"5.5356","distance_km":12.59},{"id":0,"code_insee":"38391","nom_standard":"Saint-Guillaume","nom_a":null,"nom_de":null,"slug_ville":"saint-guillaume","departement_id":0,"code_postal":"38650","population":238,"superficie_km2":"1347.76","latitude_centre":"44.9448","longitude_centre":"5.5911","distance_km":13.01},{"id":0,"code_insee":"26315","nom_standard":"Saint-Martin-en-Vercors","nom_a":null,"nom_de":null,"slug_ville":"saint-martin-en-vercors","departement_id":0,"code_postal":"26420","population":437,"superficie_km2":"2686.62","latitude_centre":"45.0166","longitude_centre":"5.4454","distance_km":13.09},{"id":17205,"code_insee":"26175","nom_standard":"Marignac-en-Diois","nom_a":null,"nom_de":null,"slug_ville":"marignac-en-diois","departement_id":0,"code_postal":"26150","population":231,"superficie_km2":"1854.10","latitude_centre":"44.8087","longitude_centre":"5.3293","distance_km":13.25},{"id":0,"code_insee":"38090","nom_standard":"Château-Bernard","nom_a":null,"nom_de":null,"slug_ville":"chateau-bernard","departement_id":0,"code_postal":"38650","population":295,"superficie_km2":"1834.69","latitude_centre":"44.9829","longitude_centre":"5.565","distance_km":13.62},{"id":0,"code_insee":"38129","nom_standard":"Corrençon-en-Vercors","nom_a":null,"nom_de":null,"slug_ville":"correncon-en-vercors","departement_id":0,"code_postal":"38250","population":374,"superficie_km2":"3929.73","latitude_centre":"45.0113","longitude_centre":"5.5221","distance_km":14.1},{"id":0,"code_insee":"26311","nom_standard":"Saint-Laurent-en-Royans","nom_a":null,"nom_de":null,"slug_ville":"saint-laurent-en-royans","departement_id":0,"code_postal":"26190","population":1377,"superficie_km2":"2779.90","latitude_centre":"45.0104","longitude_centre":"5.3428","distance_km":14.52},{"id":17170,"code_insee":"26117","nom_standard":"Échevis","nom_a":null,"nom_de":null,"slug_ville":"echevis","departement_id":0,"code_postal":"26190","population":58,"superficie_km2":"1121.54","latitude_centre":"45.0261","longitude_centre":"5.3845","distance_km":14.77},{"id":0,"code_insee":"26113","nom_standard":"Die","nom_a":null,"nom_de":null,"slug_ville":"die","departement_id":0,"code_postal":"26150","population":4844,"superficie_km2":"5751.27","latitude_centre":"44.7515","longitude_centre":"5.3878","distance_km":16.89},{"id":17195,"code_insee":"26159","nom_standard":"Laval-d'Aix","nom_a":null,"nom_de":null,"slug_ville":"laval-d-aix","departement_id":0,"code_postal":"26150","population":112,"superficie_km2":"1985.91","latitude_centre":"44.7425","longitude_centre":"5.4505","distance_km":17.43},{"id":0,"code_insee":"38092","nom_standard":"Châtelus","nom_a":null,"nom_de":null,"slug_ville":"chatelus","departement_id":0,"code_postal":"38680","population":97,"superficie_km2":"1257.32","latitude_centre":"45.0533","longitude_centre":"5.3994","distance_km":17.44}]}