{"ville":{"id":18641,"code_insee":"30271","nom_standard":"Saint-Julien-de-Cassagnas","nom_a":null,"nom_de":null,"slug_ville":"saint-julien-de-cassagnas","departement_id":0,"code_postal":"30500","population":734,"superficie_km2":"451.43","latitude_centre":"44.2115","longitude_centre":"4.2029","dep_code":"30","dep_nom":"Gard","dep_slug":"gard","reg_code":"76","reg_nom":"Occitanie","reg_slug":"occitanie"},"departement":{"code":"30","nom":"Gard","slug":"gard"},"region":{"code":"76","nom":"Occitanie","slug":"occitanie"},"villes_proches":[{"id":18600,"code_insee":"30204","nom_standard":"Potelières","nom_a":null,"nom_de":null,"slug_ville":"potelieres","departement_id":0,"code_postal":"30500","population":363,"superficie_km2":"653.62","latitude_centre":"44.2226","longitude_centre":"4.2256","distance_km":2.19},{"id":0,"code_insee":"30152","nom_standard":"Les Mages","nom_a":null,"nom_de":null,"slug_ville":"les-mages","departement_id":0,"code_postal":"30960","population":2106,"superficie_km2":"1267.09","latitude_centre":"44.2272","longitude_centre":"4.1787","distance_km":2.6},{"id":0,"code_insee":"30008","nom_standard":"Allègre-les-Fumades","nom_a":null,"nom_de":null,"slug_ville":"allegre-les-fumades","departement_id":0,"code_postal":"30500","population":1002,"superficie_km2":"2511.78","latitude_centre":"44.2016","longitude_centre":"4.2536","distance_km":4.19},{"id":0,"code_insee":"30227","nom_standard":"Saint-Ambroix","nom_a":null,"nom_de":null,"slug_ville":"saint-ambroix","departement_id":0,"code_postal":"30500","population":3445,"superficie_km2":"1192.88","latitude_centre":"44.2489","longitude_centre":"4.1913","distance_km":4.26},{"id":0,"code_insee":"30223","nom_standard":"Rousson","nom_a":null,"nom_de":null,"slug_ville":"rousson","departement_id":0,"code_postal":"30340","population":4456,"superficie_km2":"3304.47","latitude_centre":"44.1956","longitude_centre":"4.1526","distance_km":4.38},{"id":18628,"code_insee":"30247","nom_standard":"Saint-Denis","nom_a":null,"nom_de":null,"slug_ville":"saint-denis","departement_id":0,"code_postal":"30500","population":296,"superficie_km2":"366.69","latitude_centre":"44.2359","longitude_centre":"4.2475","distance_km":4.47},{"id":0,"code_insee":"30303","nom_standard":"Saint-Victor-de-Malcap","nom_a":null,"nom_de":null,"slug_ville":"saint-victor-de-malcap","departement_id":0,"code_postal":"30500","population":819,"superficie_km2":"1098.23","latitude_centre":"44.2544","longitude_centre":"4.2307","distance_km":5.26},{"id":18640,"code_insee":"30268","nom_standard":"Saint-Jean-de-Valériscle","nom_a":null,"nom_de":null,"slug_ville":"saint-jean-de-valeriscle","departement_id":0,"code_postal":"30960","population":589,"superficie_km2":"825.57","latitude_centre":"44.2328","longitude_centre":"4.1384","distance_km":5.66},{"id":18587,"code_insee":"30187","nom_standard":"Navacelles","nom_a":null,"nom_de":null,"slug_ville":"navacelles","departement_id":0,"code_postal":"30580","population":317,"superficie_km2":"1110.81","latitude_centre":"44.1645","longitude_centre":"4.2338","distance_km":5.78},{"id":0,"code_insee":"30318","nom_standard":"Servas","nom_a":null,"nom_de":null,"slug_ville":"servas","departement_id":0,"code_postal":"30340","population":219,"superficie_km2":"1087.58","latitude_centre":"44.1564","longitude_centre":"4.1893","distance_km":6.22},{"id":0,"code_insee":"30305","nom_standard":"Salindres","nom_a":null,"nom_de":null,"slug_ville":"salindres","departement_id":0,"code_postal":"30340","population":3648,"superficie_km2":"1154.58","latitude_centre":"44.1617","longitude_centre":"4.1617","distance_km":6.44},{"id":18605,"code_insee":"30215","nom_standard":"Rivières","nom_a":null,"nom_de":null,"slug_ville":"rivieres","departement_id":0,"code_postal":"30430","population":417,"superficie_km2":"968.40","latitude_centre":"44.2167","longitude_centre":"4.2859","distance_km":6.64},{"id":0,"code_insee":"30171","nom_standard":"Molières-sur-Cèze","nom_a":null,"nom_de":null,"slug_ville":"molieres-sur-ceze","departement_id":0,"code_postal":"30410","population":1176,"superficie_km2":"867.63","latitude_centre":"44.2617","longitude_centre":"4.1534","distance_km":6.83},{"id":18607,"code_insee":"30218","nom_standard":"Rochegude","nom_a":null,"nom_de":null,"slug_ville":"rochegude","departement_id":0,"code_postal":"30430","population":243,"superficie_km2":"1213.49","latitude_centre":"44.2388","longitude_centre":"4.2837","distance_km":7.12},{"id":18594,"code_insee":"30197","nom_standard":"Les Plans","nom_a":null,"nom_de":null,"slug_ville":"les-plans","departement_id":0,"code_postal":"30340","population":292,"superficie_km2":"621.21","latitude_centre":"44.1416","longitude_centre":"4.2103","distance_km":7.79},{"id":18620,"code_insee":"30237","nom_standard":"Saint-Brès","nom_a":null,"nom_de":null,"slug_ville":"saint-bres","departement_id":0,"code_postal":"30500","population":702,"superficie_km2":"1135.45","latitude_centre":"44.2829","longitude_centre":"4.2","distance_km":7.94},{"id":18577,"code_insee":"30167","nom_standard":"Meyrannes","nom_a":null,"nom_de":null,"slug_ville":"meyrannes","departement_id":0,"code_postal":"30410","population":792,"superficie_km2":"664.92","latitude_centre":"44.2766","longitude_centre":"4.1611","distance_km":7.97},{"id":18509,"code_insee":"30055","nom_standard":"Brouzet-lès-Alès","nom_a":null,"nom_de":null,"slug_ville":"brouzet-les-ales","departement_id":0,"code_postal":"30580","population":670,"superficie_km2":"1307.51","latitude_centre":"44.1338","longitude_centre":"4.2533","distance_km":9.53},{"id":11762,"code_insee":"07294","nom_standard":"Saint-Sauveur-de-Cruzières","nom_a":null,"nom_de":null,"slug_ville":"saint-sauveur-de-cruzieres","departement_id":0,"code_postal":"07460","population":572,"superficie_km2":"2521.62","latitude_centre":"44.295","longitude_centre":"4.2535","distance_km":10.12},{"id":0,"code_insee":"30173","nom_standard":"Mons","nom_a":null,"nom_de":null,"slug_ville":"mons","departement_id":0,"code_postal":"30340","population":1813,"superficie_km2":"1601.96","latitude_centre":"44.122","longitude_centre":"4.178","distance_km":10.15}]}