{"ville":{"id":28297,"code_insee":"63333","nom_standard":"Saint-Denis-Combarnazat","nom_a":null,"nom_de":null,"slug_ville":"saint-denis-combarnazat","departement_id":0,"code_postal":"63310","population":248,"superficie_km2":"1023.69","latitude_centre":"45.9747","longitude_centre":"3.3504","dep_code":"63","dep_nom":"Puy-de-Dôme","dep_slug":"puy-de-dome","reg_code":"84","reg_nom":"Auvergne-Rhône-Alpes","reg_slug":"auvergne-rhone-alpes"},"departement":{"code":"63","nom":"Puy-de-Dôme","slug":"puy-de-dome"},"region":{"code":"84","nom":"Auvergne-Rhône-Alpes","slug":"auvergne-rhone-alpes"},"villes_proches":[{"id":0,"code_insee":"63201","nom_standard":"Luzillat","nom_a":null,"nom_de":null,"slug_ville":"luzillat","departement_id":0,"code_postal":"63350","population":1163,"superficie_km2":"2368.35","latitude_centre":"45.957","longitude_centre":"3.3791","distance_km":2.97},{"id":28086,"code_insee":"63033","nom_standard":"Beaumont-lès-Randan","nom_a":null,"nom_de":null,"slug_ville":"beaumont-les-randan","departement_id":0,"code_postal":"63310","population":312,"superficie_km2":"603.02","latitude_centre":"45.9978","longitude_centre":"3.3818","distance_km":3.53},{"id":28284,"code_insee":"63317","nom_standard":"Saint-André-le-Coq","nom_a":null,"nom_de":null,"slug_ville":"saint-andre-le-coq","departement_id":0,"code_postal":"63310","population":578,"superficie_km2":"1794.96","latitude_centre":"45.9601","longitude_centre":"3.3076","distance_km":3.68},{"id":0,"code_insee":"63295","nom_standard":"Randan","nom_a":null,"nom_de":null,"slug_ville":"randan","departement_id":0,"code_postal":"63310","population":1619,"superficie_km2":"1555.33","latitude_centre":"46.0122","longitude_centre":"3.363","distance_km":4.28},{"id":28296,"code_insee":"63332","nom_standard":"Saint-Clément-de-Régnat","nom_a":null,"nom_de":null,"slug_ville":"saint-clement-de-regnat","departement_id":0,"code_postal":"63310","population":516,"superficie_km2":"1499.53","latitude_centre":"45.9999","longitude_centre":"3.2959","distance_km":5.06},{"id":0,"code_insee":"63459","nom_standard":"Villeneuve-les-Cerfs","nom_a":null,"nom_de":null,"slug_ville":"villeneuve-les-cerfs","departement_id":0,"code_postal":"63310","population":514,"superficie_km2":"1000.06","latitude_centre":"46.0212","longitude_centre":"3.3284","distance_km":5.44},{"id":0,"code_insee":"63210","nom_standard":"Maringues","nom_a":null,"nom_de":null,"slug_ville":"maringues","departement_id":0,"code_postal":"63350","population":3141,"superficie_km2":"2196.95","latitude_centre":"45.922","longitude_centre":"3.3435","distance_km":5.88},{"id":0,"code_insee":"63432","nom_standard":"Thuret","nom_a":null,"nom_de":null,"slug_ville":"thuret","departement_id":0,"code_postal":"63260","population":911,"superficie_km2":"1669.76","latitude_centre":"45.9756","longitude_centre":"3.2613","distance_km":6.89},{"id":0,"code_insee":"63461","nom_standard":"Vinzelles","nom_a":null,"nom_de":null,"slug_ville":"vinzelles","departement_id":0,"code_postal":"63350","population":373,"superficie_km2":"1342.60","latitude_centre":"45.9296","longitude_centre":"3.4154","distance_km":7.1},{"id":28222,"code_insee":"63232","nom_standard":"Mons","nom_a":null,"nom_de":null,"slug_ville":"mons","departement_id":0,"code_postal":"63310","population":578,"superficie_km2":"1393.19","latitude_centre":"46.0026","longitude_centre":"3.435","distance_km":7.23},{"id":28203,"code_insee":"63196","nom_standard":"Limons","nom_a":null,"nom_de":null,"slug_ville":"limons","departement_id":0,"code_postal":"63290","population":721,"superficie_km2":"1569.54","latitude_centre":"45.9775","longitude_centre":"3.4445","distance_km":7.28},{"id":28126,"code_insee":"63095","nom_standard":"Charnat","nom_a":null,"nom_de":null,"slug_ville":"charnat","departement_id":0,"code_postal":"63290","population":207,"superficie_km2":"530.04","latitude_centre":"45.9439","longitude_centre":"3.4344","distance_km":7.34},{"id":28084,"code_insee":"63030","nom_standard":"Bas-et-Lezat","nom_a":null,"nom_de":null,"slug_ville":"bas-et-lezat","departement_id":0,"code_postal":"63310","population":352,"superficie_km2":"1264.44","latitude_centre":"46.0373","longitude_centre":"3.3041","distance_km":7.83},{"id":0,"code_insee":"63424","nom_standard":"Surat","nom_a":null,"nom_de":null,"slug_ville":"surat","departement_id":0,"code_postal":"63720","population":611,"superficie_km2":"901.64","latitude_centre":"45.9388","longitude_centre":"3.2594","distance_km":8.09},{"id":28149,"code_insee":"63128","nom_standard":"Crevant-Laveine","nom_a":null,"nom_de":null,"slug_ville":"crevant-laveine","departement_id":0,"code_postal":"63350","population":967,"superficie_km2":"1982.22","latitude_centre":"45.902","longitude_centre":"3.3937","distance_km":8.75},{"id":0,"code_insee":"63143","nom_standard":"Effiat","nom_a":null,"nom_de":null,"slug_ville":"effiat","departement_id":0,"code_postal":"63260","population":1124,"superficie_km2":"2013.64","latitude_centre":"46.0393","longitude_centre":"3.2778","distance_km":9.11},{"id":0,"code_insee":"63400","nom_standard":"Saint-Sylvestre-Pragoulin","nom_a":null,"nom_de":null,"slug_ville":"saint-sylvestre-pragoulin","departement_id":0,"code_postal":"63310","population":1063,"superficie_km2":"2384.72","latitude_centre":"46.0509","longitude_centre":"3.3955","distance_km":9.16},{"id":0,"code_insee":"63372","nom_standard":"Saint-Laure","nom_a":null,"nom_de":null,"slug_ville":"saint-laure","departement_id":0,"code_postal":"63350","population":716,"superficie_km2":"715.96","latitude_centre":"45.8974","longitude_centre":"3.2925","distance_km":9.69},{"id":28103,"code_insee":"63058","nom_standard":"Bulhon","nom_a":null,"nom_de":null,"slug_ville":"bulhon","departement_id":0,"code_postal":"63350","population":607,"superficie_km2":"1251.30","latitude_centre":"45.8855","longitude_centre":"3.395","distance_km":10.5},{"id":0,"code_insee":"03044","nom_standard":"Brugheas","nom_a":null,"nom_de":null,"slug_ville":"brugheas","departement_id":0,"code_postal":"03700","population":1564,"superficie_km2":"2699.36","latitude_centre":"46.073","longitude_centre":"3.3634","distance_km":10.98}]}