{"ville":{"id":16496,"code_insee":"24413","nom_standard":"Saint-Georges-Blancaneix","nom_a":null,"nom_de":null,"slug_ville":"saint-georges-blancaneix","departement_id":0,"code_postal":"24130","population":275,"superficie_km2":"1404.21","latitude_centre":"44.9183","longitude_centre":"0.3538","dep_code":"24","dep_nom":"Dordogne","dep_slug":"dordogne","reg_code":"75","reg_nom":"Nouvelle-Aquitaine","reg_slug":"nouvelle-aquitaine"},"departement":{"code":"24","nom":"Dordogne","slug":"dordogne"},"region":{"code":"75","nom":"Nouvelle-Aquitaine","slug":"nouvelle-aquitaine"},"villes_proches":[{"id":16384,"code_insee":"24246","nom_standard":"Lunas","nom_a":null,"nom_de":null,"slug_ville":"lunas","departement_id":0,"code_postal":"24130","population":459,"superficie_km2":"1693.09","latitude_centre":"44.9271","longitude_centre":"0.3997","distance_km":3.74},{"id":16249,"code_insee":"24051","nom_standard":"Bosset","nom_a":null,"nom_de":null,"slug_ville":"bosset","departement_id":0,"code_postal":"24130","population":234,"superficie_km2":"1467.52","latitude_centre":"44.9535","longitude_centre":"0.362","distance_km":3.97},{"id":0,"code_insee":"24222","nom_standard":"La Force","nom_a":null,"nom_de":null,"slug_ville":"la-force","departement_id":0,"code_postal":"24130","population":2702,"superficie_km2":"1557.86","latitude_centre":"44.8799","longitude_centre":"0.358","distance_km":4.28},{"id":16345,"code_insee":"24191","nom_standard":"Fraisse","nom_a":null,"nom_de":null,"slug_ville":"fraisse","departement_id":0,"code_postal":"24130","population":171,"superficie_km2":"2149.65","latitude_centre":"44.9337","longitude_centre":"0.3028","distance_km":4.37},{"id":0,"code_insee":"24487","nom_standard":"Saint-Pierre-d'Eyraud","nom_a":null,"nom_de":null,"slug_ville":"saint-pierre-d-eyraud","departement_id":0,"code_postal":"24130","population":1795,"superficie_km2":"2623.71","latitude_centre":"44.8776","longitude_centre":"0.3209","distance_km":5.22},{"id":0,"code_insee":"24420","nom_standard":"Saint-Géry","nom_a":null,"nom_de":null,"slug_ville":"saint-gery","departement_id":0,"code_postal":"24400","population":239,"superficie_km2":"1882.74","latitude_centre":"44.9771","longitude_centre":"0.3285","distance_km":6.83},{"id":0,"code_insee":"24340","nom_standard":"Prigonrieux","nom_a":null,"nom_de":null,"slug_ville":"prigonrieux","departement_id":0,"code_postal":"24130","population":4374,"superficie_km2":"2618.29","latitude_centre":"44.8689","longitude_centre":"0.407","distance_km":6.91},{"id":16375,"code_insee":"24234","nom_standard":"Les Lèches","nom_a":null,"nom_de":null,"slug_ville":"les-leches","departement_id":0,"code_postal":"24400","population":389,"superficie_km2":"2141.62","latitude_centre":"44.9798","longitude_centre":"0.388","distance_km":7.35},{"id":16350,"code_insee":"24197","nom_standard":"Ginestet","nom_a":null,"nom_de":null,"slug_ville":"ginestet","departement_id":0,"code_postal":"24130","population":762,"superficie_km2":"1298.69","latitude_centre":"44.9064","longitude_centre":"0.4467","distance_km":7.43},{"id":16404,"code_insee":"24277","nom_standard":"Monfaucon","nom_a":null,"nom_de":null,"slug_ville":"monfaucon","departement_id":0,"code_postal":"24130","population":285,"superficie_km2":"2482.10","latitude_centre":"44.9193","longitude_centre":"0.2588","distance_km":7.48},{"id":0,"code_insee":"24182","nom_standard":"Le Fleix","nom_a":null,"nom_de":null,"slug_ville":"le-fleix","departement_id":0,"code_postal":"24130","population":1488,"superficie_km2":"1797.47","latitude_centre":"44.8789","longitude_centre":"0.2643","distance_km":8.3},{"id":16327,"code_insee":"24161","nom_standard":"Église-Neuve-d'Issac","nom_a":null,"nom_de":null,"slug_ville":"eglise-neuve-d-issac","departement_id":0,"code_postal":"24400","population":121,"superficie_km2":"1675.89","latitude_centre":"44.9794","longitude_centre":"0.432","distance_km":9.17},{"id":0,"code_insee":"24415","nom_standard":"Saint-Géraud-de-Corps","nom_a":null,"nom_de":null,"slug_ville":"saint-geraud-de-corps","departement_id":0,"code_postal":"24700","population":202,"superficie_km2":"1510.12","latitude_centre":"44.9465","longitude_centre":"0.2417","distance_km":9.37},{"id":0,"code_insee":"24225","nom_standard":"Lamonzie-Saint-Martin","nom_a":null,"nom_de":null,"slug_ville":"lamonzie-saint-martin","departement_id":0,"code_postal":"24680","population":2742,"superficie_km2":"2065.53","latitude_centre":"44.8336","longitude_centre":"0.3856","distance_km":9.75},{"id":0,"code_insee":"33378","nom_standard":"Saint-Avit-Saint-Nazaire","nom_a":null,"nom_de":null,"slug_ville":"saint-avit-saint-nazaire","departement_id":0,"code_postal":"33220","population":1503,"superficie_km2":"1881.19","latitude_centre":"44.8478","longitude_centre":"0.2762","distance_km":9.94},{"id":0,"code_insee":"24194","nom_standard":"Gardonne","nom_a":null,"nom_de":null,"slug_ville":"gardonne","departement_id":0,"code_postal":"24680","population":1608,"superficie_km2":"833.30","latitude_centre":"44.8293","longitude_centre":"0.3296","distance_km":10.08},{"id":16234,"code_insee":"24029","nom_standard":"Beaupouyet","nom_a":null,"nom_de":null,"slug_ville":"beaupouyet","departement_id":0,"code_postal":"24400","population":553,"superficie_km2":"2304.16","latitude_centre":"44.9963","longitude_centre":"0.2837","distance_km":10.28},{"id":16256,"code_insee":"24059","nom_standard":"Bourgnac","nom_a":null,"nom_de":null,"slug_ville":"bourgnac","departement_id":0,"code_postal":"24400","population":354,"superficie_km2":"911.14","latitude_centre":"45.0148","longitude_centre":"0.397","distance_km":11.26},{"id":0,"code_insee":"24462","nom_standard":"Saint-Médard-de-Mussidan","nom_a":null,"nom_de":null,"slug_ville":"saint-medard-de-mussidan","departement_id":0,"code_postal":"24400","population":1618,"superficie_km2":"2381.89","latitude_centre":"45.019","longitude_centre":"0.323","distance_km":11.46},{"id":0,"code_insee":"24299","nom_standard":"Mussidan","nom_a":null,"nom_de":null,"slug_ville":"mussidan","departement_id":0,"code_postal":"24400","population":2771,"superficie_km2":"384.01","latitude_centre":"45.0298","longitude_centre":"0.3641","distance_km":12.42}]}