{"ville":{"id":3740,"code_insee":"38359","nom_standard":"Saint Antoine l'Abbaye","nom_a":null,"nom_de":null,"slug_ville":"saint-antoine-l-abbaye","departement_id":639,"code_postal":"38160","population":1228,"superficie_km2":"22.00","latitude_centre":"45.1720009","longitude_centre":"5.2160001","dep_code":"38","dep_nom":"Isère","dep_slug":"isere","reg_code":"01","reg_nom":"Auvergne-Rhône-Alpes","reg_slug":"auvergne-rhone-alpes"},"departement":{"code":"38","nom":"Isère","slug":"isere"},"region":{"code":"01","nom":"Auvergne-Rhône-Alpes","slug":"auvergne-rhone-alpes"},"villes_proches":[{"id":3624,"code_insee":"38095","nom_standard":"Chatte","nom_a":null,"nom_de":null,"slug_ville":"chatte","departement_id":639,"code_postal":"38160","population":2463,"superficie_km2":"23.00","latitude_centre":"45.1399994","longitude_centre":"5.2800002","distance_km":6.15},{"id":3769,"code_insee":"38416","nom_standard":"Saint-Marcellin","nom_a":null,"nom_de":null,"slug_ville":"saint-marcellin","departement_id":639,"code_postal":"38160","population":7708,"superficie_km2":"8.00","latitude_centre":"45.1529999","longitude_centre":"5.3169999","distance_km":8.2},{"id":1947,"code_insee":"26210","nom_standard":"Valherbasse","nom_a":null,"nom_de":null,"slug_ville":"valherbasse","departement_id":627,"code_postal":"26350","population":1021,"superficie_km2":"29.00","latitude_centre":"45.2260017","longitude_centre":"5.1430001","distance_km":8.29},{"id":3734,"code_insee":"38347","nom_standard":"Roybon","nom_a":null,"nom_de":null,"slug_ville":"roybon","departement_id":639,"code_postal":"38940","population":1113,"superficie_km2":"67.00","latitude_centre":"45.2480011","longitude_centre":"5.2490001","distance_km":8.84},{"id":3766,"code_insee":"38410","nom_standard":"Saint-Lattier","nom_a":null,"nom_de":null,"slug_ville":"saint-lattier","departement_id":639,"code_postal":"38840","population":1442,"superficie_km2":"18.00","latitude_centre":"45.0929985","longitude_centre":"5.1849999","distance_km":9.12},{"id":3756,"code_insee":"38394","nom_standard":"Saint-Hilaire-du-Rosier","nom_a":null,"nom_de":null,"slug_ville":"saint-hilaire-du-rosier","departement_id":639,"code_postal":"38840","population":1865,"superficie_km2":"16.00","latitude_centre":"45.0909996","longitude_centre":"5.2500000","distance_km":9.39},{"id":3786,"code_insee":"38463","nom_standard":"Saint-Vérand","nom_a":null,"nom_de":null,"slug_ville":"saint-verand","departement_id":639,"code_postal":"38160","population":1738,"superficie_km2":"18.00","latitude_centre":"45.1819992","longitude_centre":"5.3429999","distance_km":10.02},{"id":3783,"code_insee":"38454","nom_standard":"Saint-Sauveur","nom_a":null,"nom_de":null,"slug_ville":"saint-sauveur","departement_id":639,"code_postal":"38160","population":2115,"superficie_km2":"9.00","latitude_centre":"45.1459999","longitude_centre":"5.3449998","distance_km":10.52},{"id":1909,"code_insee":"26087","nom_standard":"Châtillon-Saint-Jean","nom_a":null,"nom_de":null,"slug_ville":"chatillon-saint-jean","departement_id":627,"code_postal":"26750","population":1289,"superficie_km2":"9.00","latitude_centre":"45.0960007","longitude_centre":"5.1339998","distance_km":10.62},{"id":3782,"code_insee":"38453","nom_standard":"Saint-Romans","nom_a":null,"nom_de":null,"slug_ville":"saint-romans","departement_id":639,"code_postal":"38160","population":1801,"superficie_km2":"17.00","latitude_centre":"45.1049995","longitude_centre":"5.3189998","distance_km":10.99},{"id":3765,"code_insee":"38409","nom_standard":"Saint-Just-de-Claix","nom_a":null,"nom_de":null,"slug_ville":"saint-just-de-claix","departement_id":639,"code_postal":"38680","population":1369,"superficie_km2":"12.00","latitude_centre":"45.0769997","longitude_centre":"5.2800002","distance_km":11.7},{"id":1921,"code_insee":"26129","nom_standard":"Eymeux","nom_a":null,"nom_de":null,"slug_ville":"eymeux","departement_id":627,"code_postal":"26730","population":1065,"superficie_km2":"10.00","latitude_centre":"45.0660019","longitude_centre":"5.1820002","distance_km":12.08},{"id":1923,"code_insee":"26139","nom_standard":"Génissieux","nom_a":null,"nom_de":null,"slug_ville":"genissieux","departement_id":627,"code_postal":"26750","population":2415,"superficie_km2":"9.00","latitude_centre":"45.0820007","longitude_centre":"5.0900002","distance_km":14.07},{"id":1969,"code_insee":"26323","nom_standard":"Saint-Paul-lès-Romans","nom_a":null,"nom_de":null,"slug_ville":"saint-paul-les-romans","departement_id":627,"code_postal":"26750","population":1893,"superficie_km2":"15.00","latitude_centre":"45.0589981","longitude_centre":"5.1269999","distance_km":14.38},{"id":3839,"code_insee":"38561","nom_standard":"Viriville","nom_a":null,"nom_de":null,"slug_ville":"viriville","departement_id":639,"code_postal":"38980","population":1706,"superficie_km2":"30.00","latitude_centre":"45.3050003","longitude_centre":"5.2030001","distance_km":14.82},{"id":1935,"code_insee":"26174","nom_standard":"Margès","nom_a":null,"nom_de":null,"slug_ville":"marges","departement_id":627,"code_postal":"26260","population":1090,"superficie_km2":"10.00","latitude_centre":"45.1320000","longitude_centre":"5.0310001","distance_km":15.17},{"id":1953,"code_insee":"26231","nom_standard":"Peyrins","nom_a":null,"nom_de":null,"slug_ville":"peyrins","departement_id":627,"code_postal":"26380","population":2635,"superficie_km2":"25.00","latitude_centre":"45.0999985","longitude_centre":"5.0460000","distance_km":15.55},{"id":1927,"code_insee":"26149","nom_standard":"Hostun","nom_a":null,"nom_de":null,"slug_ville":"hostun","departement_id":627,"code_postal":"26730","population":1029,"superficie_km2":"18.00","latitude_centre":"45.0320015","longitude_centre":"5.2030001","distance_km":15.6},{"id":3837,"code_insee":"38559","nom_standard":"Vinay","nom_a":null,"nom_de":null,"slug_ville":"vinay","departement_id":639,"code_postal":"38470","population":4435,"superficie_km2":"16.00","latitude_centre":"45.2150002","longitude_centre":"5.4080000","distance_km":15.79},{"id":1926,"code_insee":"26148","nom_standard":"Hauterives","nom_a":null,"nom_de":null,"slug_ville":"hauterives","departement_id":627,"code_postal":"26390","population":1887,"superficie_km2":"31.00","latitude_centre":"45.2529984","longitude_centre":"5.0390000","distance_km":16.53}]}