{"ville":{"id":15115,"code_insee":"19216","nom_standard":"Saint-Julien-le-Vendômois","nom_a":null,"nom_de":null,"slug_ville":"saint-julien-le-vendomois","departement_id":0,"code_postal":"19210","population":234,"superficie_km2":"2318.93","latitude_centre":"45.4553","longitude_centre":"1.3171","dep_code":"19","dep_nom":"Corrèze","dep_slug":"correze","reg_code":"75","reg_nom":"Nouvelle-Aquitaine","reg_slug":"nouvelle-aquitaine"},"departement":{"code":"19","nom":"Corrèze","slug":"correze"},"region":{"code":"75","nom":"Nouvelle-Aquitaine","slug":"nouvelle-aquitaine"},"villes_proches":[{"id":15101,"code_insee":"19198","nom_standard":"Saint-Éloy-les-Tuileries","nom_a":null,"nom_de":null,"slug_ville":"saint-eloy-les-tuileries","departement_id":0,"code_postal":"19210","population":114,"superficie_km2":"913.87","latitude_centre":"45.4571","longitude_centre":"1.2809","distance_km":2.83},{"id":0,"code_insee":"19254","nom_standard":"Ségur-le-Château","nom_a":null,"nom_de":null,"slug_ville":"segur-le-chateau","departement_id":0,"code_postal":"19230","population":202,"superficie_km2":"958.54","latitude_centre":"45.428","longitude_centre":"1.3015","distance_km":3.27},{"id":14961,"code_insee":"19025","nom_standard":"Beyssenac","nom_a":null,"nom_de":null,"slug_ville":"beyssenac","departement_id":0,"code_postal":"19230","population":370,"superficie_km2":"1817.53","latitude_centre":"45.4032","longitude_centre":"1.3016","distance_km":5.92},{"id":0,"code_insee":"19011","nom_standard":"Arnac-Pompadour","nom_a":null,"nom_de":null,"slug_ville":"arnac-pompadour","departement_id":0,"code_postal":"19230","population":1205,"superficie_km2":"1506.14","latitude_centre":"45.4118","longitude_centre":"1.366","distance_km":6.16},{"id":0,"code_insee":"19121","nom_standard":"Lubersac","nom_a":null,"nom_de":null,"slug_ville":"lubersac","departement_id":0,"code_postal":"19210","population":2246,"superficie_km2":"5843.42","latitude_centre":"45.45","longitude_centre":"1.3981","distance_km":6.35},{"id":0,"code_insee":"87049","nom_standard":"Coussac-Bonneval","nom_a":null,"nom_de":null,"slug_ville":"coussac-bonneval","departement_id":0,"code_postal":"87500","population":1262,"superficie_km2":"6636.21","latitude_centre":"45.52","longitude_centre":"1.3269","distance_km":7.23},{"id":0,"code_insee":"24320","nom_standard":"Payzac","nom_a":null,"nom_de":null,"slug_ville":"payzac","departement_id":0,"code_postal":"24270","population":984,"superficie_km2":"4900.98","latitude_centre":"45.42","longitude_centre":"1.229","distance_km":7.92},{"id":0,"code_insee":"87071","nom_standard":"Glandon","nom_a":null,"nom_de":null,"slug_ville":"glandon","departement_id":0,"code_postal":"87500","population":810,"superficie_km2":"2767.96","latitude_centre":"45.4715","longitude_centre":"1.2158","distance_km":8.1},{"id":0,"code_insee":"24397","nom_standard":"Saint-Cyr-les-Champagnes","nom_a":null,"nom_de":null,"slug_ville":"saint-cyr-les-champagnes","departement_id":0,"code_postal":"24270","population":304,"superficie_km2":"1621.66","latitude_centre":"45.3699","longitude_centre":"1.2926","distance_km":9.69},{"id":0,"code_insee":"19243","nom_standard":"Saint-Sornin-Lavolps","nom_a":null,"nom_de":null,"slug_ville":"saint-sornin-lavolps","departement_id":0,"code_postal":"19230","population":847,"superficie_km2":"1532.84","latitude_centre":"45.3737","longitude_centre":"1.3702","distance_km":9.98},{"id":15056,"code_insee":"19144","nom_standard":"Montgibaud","nom_a":null,"nom_de":null,"slug_ville":"montgibaud","departement_id":0,"code_postal":"19210","population":251,"superficie_km2":"1412.82","latitude_centre":"45.5104","longitude_centre":"1.4217","distance_km":10.2},{"id":14989,"code_insee":"19059","nom_standard":"Concèze","nom_a":null,"nom_de":null,"slug_ville":"conceze","departement_id":0,"code_postal":"19350","population":376,"superficie_km2":"1350.43","latitude_centre":"45.3614","longitude_centre":"1.3341","distance_km":10.53},{"id":0,"code_insee":"87187","nom_standard":"Saint-Yrieix-la-Perche","nom_a":null,"nom_de":null,"slug_ville":"saint-yrieix-la-perche","departement_id":0,"code_postal":"87500","population":6830,"superficie_km2":"10152.13","latitude_centre":"45.5274","longitude_centre":"1.2026","distance_km":12.0},{"id":0,"code_insee":"19270","nom_standard":"Troche","nom_a":null,"nom_de":null,"slug_ville":"troche","departement_id":0,"code_postal":"19230","population":534,"superficie_km2":"1999.32","latitude_centre":"45.3954","longitude_centre":"1.4471","distance_km":12.14},{"id":14960,"code_insee":"19024","nom_standard":"Beyssac","nom_a":null,"nom_de":null,"slug_ville":"beyssac","departement_id":0,"code_postal":"19230","population":481,"superficie_km2":"2133.90","latitude_centre":"45.3693","longitude_centre":"1.4224","distance_km":12.61},{"id":0,"code_insee":"24526","nom_standard":"Savignac-Lédrier","nom_a":null,"nom_de":null,"slug_ville":"savignac-ledrier","departement_id":0,"code_postal":"24270","population":729,"superficie_km2":"2645.92","latitude_centre":"45.3795","longitude_centre":"1.1954","distance_km":12.7},{"id":0,"code_insee":"87095","nom_standard":"Meuzac","nom_a":null,"nom_de":null,"slug_ville":"meuzac","departement_id":0,"code_postal":"87380","population":743,"superficie_km2":"4392.61","latitude_centre":"45.5468","longitude_centre":"1.4215","distance_km":13.03},{"id":0,"code_insee":"24464","nom_standard":"Saint-Mesmin","nom_a":null,"nom_de":null,"slug_ville":"saint-mesmin","departement_id":0,"code_postal":"24270","population":343,"superficie_km2":"3039.98","latitude_centre":"45.3501","longitude_centre":"1.2331","distance_km":13.41},{"id":15027,"code_insee":"19109","nom_standard":"Lascaux","nom_a":null,"nom_de":null,"slug_ville":"lascaux","departement_id":0,"code_postal":"19130","population":228,"superficie_km2":"742.53","latitude_centre":"45.3389","longitude_centre":"1.3734","distance_km":13.67},{"id":0,"code_insee":"19094","nom_standard":"Juillac","nom_a":null,"nom_de":null,"slug_ville":"juillac","departement_id":0,"code_postal":"19350","population":1153,"superficie_km2":"3258.84","latitude_centre":"45.3253","longitude_centre":"1.2897","distance_km":14.61}]}