{"ville":{"id":22481,"code_insee":"46288","nom_standard":"Saint-Perdoux","nom_a":null,"nom_de":null,"slug_ville":"saint-perdoux","departement_id":0,"code_postal":"46100","population":196,"superficie_km2":"1258.19","latitude_centre":"44.6803","longitude_centre":"2.0547","dep_code":"46","dep_nom":"Lot","dep_slug":"lot","reg_code":"76","reg_nom":"Occitanie","reg_slug":"occitanie"},"departement":{"code":"46","nom":"Lot","slug":"lot"},"region":{"code":"76","nom":"Occitanie","slug":"occitanie"},"villes_proches":[{"id":22429,"code_insee":"46226","nom_standard":"Prendeignes","nom_a":null,"nom_de":null,"slug_ville":"prendeignes","departement_id":0,"code_postal":"46270","population":236,"superficie_km2":"1575.59","latitude_centre":"44.6937","longitude_centre":"2.0732","distance_km":2.09},{"id":22287,"code_insee":"46057","nom_standard":"Cardaillac","nom_a":null,"nom_de":null,"slug_ville":"cardaillac","departement_id":0,"code_postal":"46100","population":623,"superficie_km2":"1821.62","latitude_centre":"44.6828","longitude_centre":"2.0158","distance_km":3.09},{"id":0,"code_insee":"46332","nom_standard":"Viazac","nom_a":null,"nom_de":null,"slug_ville":"viazac","departement_id":0,"code_postal":"46100","population":344,"superficie_km2":"1763.73","latitude_centre":"44.6528","longitude_centre":"2.0695","distance_km":3.27},{"id":22426,"code_insee":"46221","nom_standard":"Planioles","nom_a":null,"nom_de":null,"slug_ville":"planioles","departement_id":0,"code_postal":"46100","population":554,"superficie_km2":"579.53","latitude_centre":"44.6402","longitude_centre":"2.0279","distance_km":4.94},{"id":22445,"code_insee":"46244","nom_standard":"Sabadel-Latronquière","nom_a":null,"nom_de":null,"slug_ville":"sabadel-latronquiere","departement_id":0,"code_postal":"46210","population":92,"superficie_km2":"1232.82","latitude_centre":"44.7261","longitude_centre":"2.0658","distance_km":5.17},{"id":22385,"code_insee":"46174","nom_standard":"Linac","nom_a":null,"nom_de":null,"slug_ville":"linac","departement_id":0,"code_postal":"46270","population":233,"superficie_km2":"1222.17","latitude_centre":"44.6737","longitude_centre":"2.1194","distance_km":5.17},{"id":22459,"code_insee":"46260","nom_standard":"Sainte-Colombe","nom_a":null,"nom_de":null,"slug_ville":"sainte-colombe","departement_id":0,"code_postal":"46120","population":236,"superficie_km2":"1132.45","latitude_centre":"44.7221","longitude_centre":"2.0132","distance_km":5.69},{"id":22332,"code_insee":"46111","nom_standard":"Fourmagnac","nom_a":null,"nom_de":null,"slug_ville":"fourmagnac","departement_id":0,"code_postal":"46100","population":178,"superficie_km2":"374.67","latitude_centre":"44.6649","longitude_centre":"1.9814","distance_km":6.04},{"id":22284,"code_insee":"46053","nom_standard":"Camburat","nom_a":null,"nom_de":null,"slug_ville":"camburat","departement_id":0,"code_postal":"46100","population":455,"superficie_km2":"806.49","latitude_centre":"44.6444","longitude_centre":"1.9941","distance_km":6.24},{"id":22449,"code_insee":"46249","nom_standard":"Saint-Bressou","nom_a":null,"nom_de":null,"slug_ville":"saint-bressou","departement_id":0,"code_postal":"46120","population":124,"superficie_km2":"1007.42","latitude_centre":"44.6975","longitude_centre":"1.9761","distance_km":6.5},{"id":22470,"code_insee":"46272","nom_standard":"Saint-Jean-Mirabel","nom_a":null,"nom_de":null,"slug_ville":"saint-jean-mirabel","departement_id":0,"code_postal":"46270","population":296,"superficie_km2":"923.08","latitude_centre":"44.6326","longitude_centre":"2.1098","distance_km":6.86},{"id":0,"code_insee":"46015","nom_standard":"Bagnac-sur-Célé","nom_a":null,"nom_de":null,"slug_ville":"bagnac-sur-cele","departement_id":0,"code_postal":"46270","population":1467,"superficie_km2":"2229.26","latitude_centre":"44.6652","longitude_centre":"2.1458","distance_km":7.4},{"id":22454,"code_insee":"46255","nom_standard":"Saint-Cirgues","nom_a":null,"nom_de":null,"slug_ville":"saint-cirgues","departement_id":0,"code_postal":"46210","population":324,"superficie_km2":"3253.05","latitude_centre":"44.7337","longitude_centre":"2.1111","distance_km":7.42},{"id":22409,"code_insee":"46203","nom_standard":"Montet-et-Bouxal","nom_a":null,"nom_de":null,"slug_ville":"montet-et-bouxal","departement_id":0,"code_postal":"46210","population":213,"superficie_km2":"1153.64","latitude_centre":"44.7464","longitude_centre":"2.0363","distance_km":7.49},{"id":22391,"code_insee":"46180","nom_standard":"Lunan","nom_a":null,"nom_de":null,"slug_ville":"lunan","departement_id":0,"code_postal":"46100","population":625,"superficie_km2":"622.24","latitude_centre":"44.6088","longitude_centre":"2.084","distance_km":8.28},{"id":22357,"code_insee":"46139","nom_standard":"Labathude","nom_a":null,"nom_de":null,"slug_ville":"labathude","departement_id":0,"code_postal":"46120","population":203,"superficie_km2":"999.15","latitude_centre":"44.7363","longitude_centre":"1.9855","distance_km":8.29},{"id":0,"code_insee":"46102","nom_standard":"Figeac","nom_a":null,"nom_de":null,"slug_ville":"figeac","departement_id":0,"code_postal":"46100","population":9793,"superficie_km2":"3535.95","latitude_centre":"44.6067","longitude_centre":"2.0231","distance_km":8.56},{"id":22464,"code_insee":"46266","nom_standard":"Saint-Félix","nom_a":null,"nom_de":null,"slug_ville":"saint-felix","departement_id":0,"code_postal":"46100","population":511,"superficie_km2":"781.09","latitude_centre":"44.6125","longitude_centre":"2.1114","distance_km":8.77},{"id":22477,"code_insee":"46282","nom_standard":"Saint-Médard-Nicourby","nom_a":null,"nom_de":null,"slug_ville":"saint-medard-nicourby","departement_id":0,"code_postal":"46210","population":99,"superficie_km2":"782.03","latitude_centre":"44.7646","longitude_centre":"2.009","distance_km":10.05},{"id":0,"code_insee":"46055","nom_standard":"Capdenac","nom_a":null,"nom_de":null,"slug_ville":"capdenac","departement_id":0,"code_postal":"46100","population":1049,"superficie_km2":"1101.10","latitude_centre":"44.5818","longitude_centre":"2.0706","distance_km":11.02}]}