{"ville":{"id":13777,"code_insee":"14575","nom_standard":"Saint-Étienne-la-Thillaye","nom_a":null,"nom_de":null,"slug_ville":"saint-etienne-la-thillaye","departement_id":0,"code_postal":"14950","population":386,"superficie_km2":"1238.49","latitude_centre":"49.2951","longitude_centre":"0.1169","dep_code":"14","dep_nom":"Calvados","dep_slug":"calvados","reg_code":"28","reg_nom":"Normandie","reg_slug":"normandie"},"departement":{"code":"14","nom":"Calvados","slug":"calvados"},"region":{"code":"28","nom":"Normandie","slug":"normandie"},"villes_proches":[{"id":13551,"code_insee":"14131","nom_standard":"Canapville","nom_a":null,"nom_de":null,"slug_ville":"canapville","departement_id":0,"code_postal":"14800","population":224,"superficie_km2":"252.19","latitude_centre":"49.3173","longitude_centre":"0.1367","distance_km":2.86},{"id":0,"code_insee":"14620","nom_standard":"Saint-Martin-aux-Chartrains","nom_a":null,"nom_de":null,"slug_ville":"saint-martin-aux-chartrains","departement_id":0,"code_postal":"14130","population":429,"superficie_km2":"508.19","latitude_centre":"49.3057","longitude_centre":"0.1547","distance_km":2.98},{"id":13516,"code_insee":"14055","nom_standard":"Beaumont-en-Auge","nom_a":null,"nom_de":null,"slug_ville":"beaumont-en-auge","departement_id":0,"code_postal":"14950","population":376,"superficie_km2":"808.14","latitude_centre":"49.2652","longitude_centre":"0.1127","distance_km":3.34},{"id":13761,"code_insee":"14534","nom_standard":"Reux","nom_a":null,"nom_de":null,"slug_ville":"reux","departement_id":0,"code_postal":"14130","population":415,"superficie_km2":"739.24","latitude_centre":"49.2753","longitude_centre":"0.1532","distance_km":3.43},{"id":13529,"code_insee":"14086","nom_standard":"Bonneville-sur-Touques","nom_a":null,"nom_de":null,"slug_ville":"bonneville-sur-touques","departement_id":0,"code_postal":"14800","population":307,"superficie_km2":"666.33","latitude_centre":"49.3283","longitude_centre":"0.1179","distance_km":3.69},{"id":0,"code_insee":"14701","nom_standard":"Tourgéville","nom_a":null,"nom_de":null,"slug_ville":"tourgeville","departement_id":0,"code_postal":"14800","population":846,"superficie_km2":"1220.73","latitude_centre":"49.3237","longitude_centre":"0.0817","distance_km":4.08},{"id":13641,"code_insee":"14302","nom_standard":"Glanville","nom_a":null,"nom_de":null,"slug_ville":"glanville","departement_id":0,"code_postal":"14950","population":158,"superficie_km2":"653.28","latitude_centre":"49.2727","longitude_centre":"0.0688","distance_km":4.29},{"id":0,"code_insee":"14731","nom_standard":"Vauville","nom_a":null,"nom_de":null,"slug_ville":"vauville","departement_id":0,"code_postal":"14800","population":201,"superficie_km2":"517.84","latitude_centre":"49.3089","longitude_centre":"0.0614","distance_km":4.31},{"id":0,"code_insee":"14557","nom_standard":"Saint-Arnoult","nom_a":null,"nom_de":null,"slug_ville":"saint-arnoult","departement_id":0,"code_postal":"14800","population":1092,"superficie_km2":"513.68","latitude_centre":"49.3307","longitude_centre":"0.0919","distance_km":4.35},{"id":13606,"code_insee":"14238","nom_standard":"Englesqueville-en-Auge","nom_a":null,"nom_de":null,"slug_ville":"englesqueville-en-auge","departement_id":0,"code_postal":"14800","population":113,"superficie_km2":"364.65","latitude_centre":"49.3312","longitude_centre":"0.1515","distance_km":4.73},{"id":0,"code_insee":"14514","nom_standard":"Pont-l'Évêque","nom_a":null,"nom_de":null,"slug_ville":"pont-l-eveque","departement_id":0,"code_postal":"14130","population":5145,"superficie_km2":"1313.67","latitude_centre":"49.2905","longitude_centre":"0.1829","distance_km":4.81},{"id":13601,"code_insee":"14230","nom_standard":"Drubec","nom_a":null,"nom_de":null,"slug_ville":"drubec","departement_id":0,"code_postal":"14130","population":111,"superficie_km2":"323.42","latitude_centre":"49.2514","longitude_centre":"0.1052","distance_km":4.93},{"id":13534,"code_insee":"14091","nom_standard":"Bourgeauville","nom_a":null,"nom_de":null,"slug_ville":"bourgeauville","departement_id":0,"code_postal":"14430","population":104,"superficie_km2":"624.89","latitude_centre":"49.2672","longitude_centre":"0.0601","distance_km":5.16},{"id":13565,"code_insee":"14161","nom_standard":"Clarbec","nom_a":null,"nom_de":null,"slug_ville":"clarbec","departement_id":0,"code_postal":"14130","population":314,"superficie_km2":"969.08","latitude_centre":"49.2408","longitude_centre":"0.1308","distance_km":6.12},{"id":0,"code_insee":"14723","nom_standard":"Valsemé","nom_a":null,"nom_de":null,"slug_ville":"valseme","departement_id":0,"code_postal":"14340","population":261,"superficie_km2":"571.76","latitude_centre":"49.2375","longitude_centre":"0.0967","distance_km":6.57},{"id":13494,"code_insee":"14016","nom_standard":"Annebault","nom_a":null,"nom_de":null,"slug_ville":"annebault","departement_id":0,"code_postal":"14430","population":521,"superficie_km2":"567.47","latitude_centre":"49.2492","longitude_centre":"0.0547","distance_km":6.81},{"id":0,"code_insee":"14699","nom_standard":"Touques","nom_a":null,"nom_de":null,"slug_ville":"touques","departement_id":0,"code_postal":"14800","population":3913,"superficie_km2":"814.08","latitude_centre":"49.3564","longitude_centre":"0.109","distance_km":6.84},{"id":0,"code_insee":"14593","nom_standard":"Saint-Hymer","nom_a":null,"nom_de":null,"slug_ville":"saint-hymer","departement_id":0,"code_postal":"14130","population":656,"superficie_km2":"1259.61","latitude_centre":"49.2408","longitude_centre":"0.1646","distance_km":6.96},{"id":0,"code_insee":"14220","nom_standard":"Deauville","nom_a":null,"nom_de":null,"slug_ville":"deauville","departement_id":0,"code_postal":"14800","population":3539,"superficie_km2":"384.21","latitude_centre":"49.3539","longitude_centre":"0.075","distance_km":7.21},{"id":0,"code_insee":"14715","nom_standard":"Trouville-sur-Mer","nom_a":null,"nom_de":null,"slug_ville":"trouville-sur-mer","departement_id":0,"code_postal":"14360","population":4619,"superficie_km2":"680.69","latitude_centre":"49.3726","longitude_centre":"0.1034","distance_km":8.67}]}