{"ville":{"id":21757,"code_insee":"42233","nom_standard":"Saint-Haon-le-Vieux","nom_a":null,"nom_de":null,"slug_ville":"saint-haon-le-vieux","departement_id":0,"code_postal":"42370","population":953,"superficie_km2":"1646.81","latitude_centre":"46.0733","longitude_centre":"3.9019","dep_code":"42","dep_nom":"Loire","dep_slug":"loire","reg_code":"84","reg_nom":"Auvergne-Rhône-Alpes","reg_slug":"auvergne-rhone-alpes"},"departement":{"code":"42","nom":"Loire","slug":"loire"},"region":{"code":"84","nom":"Auvergne-Rhône-Alpes","slug":"auvergne-rhone-alpes"},"villes_proches":[{"id":21756,"code_insee":"42232","nom_standard":"Saint-Haon-le-Châtel","nom_a":null,"nom_de":null,"slug_ville":"saint-haon-le-chatel","departement_id":0,"code_postal":"42370","population":625,"superficie_km2":"87.53","latitude_centre":"46.0662","longitude_centre":"3.9172","distance_km":1.42},{"id":0,"code_insee":"42182","nom_standard":"Renaison","nom_a":null,"nom_de":null,"slug_ville":"renaison","departement_id":0,"code_postal":"42370","population":3231,"superficie_km2":"2337.46","latitude_centre":"46.0454","longitude_centre":"3.911","distance_km":3.18},{"id":0,"code_insee":"42003","nom_standard":"Ambierle","nom_a":null,"nom_de":null,"slug_ville":"ambierle","departement_id":0,"code_postal":"42820","population":1865,"superficie_km2":"3081.45","latitude_centre":"46.1068","longitude_centre":"3.8953","distance_km":3.76},{"id":0,"code_insee":"42281","nom_standard":"Saint-Rirand","nom_a":null,"nom_de":null,"slug_ville":"saint-rirand","departement_id":0,"code_postal":"42370","population":132,"superficie_km2":"1655.32","latitude_centre":"46.0737","longitude_centre":"3.8372","distance_km":4.99},{"id":0,"code_insee":"42199","nom_standard":"Saint-André-d'Apchon","nom_a":null,"nom_de":null,"slug_ville":"saint-andre-d-apchon","departement_id":0,"code_postal":"42370","population":1966,"superficie_km2":"1355.72","latitude_centre":"46.0275","longitude_centre":"3.9325","distance_km":5.61},{"id":0,"code_insee":"42231","nom_standard":"Saint-Germain-Lespinasse","nom_a":null,"nom_de":null,"slug_ville":"saint-germain-lespinasse","departement_id":0,"code_postal":"42640","population":1225,"superficie_km2":"1478.70","latitude_centre":"46.1112","longitude_centre":"3.9636","distance_km":6.36},{"id":0,"code_insee":"42176","nom_standard":"Pouilly-les-Nonains","nom_a":null,"nom_de":null,"slug_ville":"pouilly-les-nonains","departement_id":0,"code_postal":"42155","population":2120,"superficie_km2":"1042.59","latitude_centre":"46.0435","longitude_centre":"3.9794","distance_km":6.84},{"id":21724,"code_insee":"42158","nom_standard":"Les Noës","nom_a":null,"nom_de":null,"slug_ville":"les-noes","departement_id":0,"code_postal":"42370","population":209,"superficie_km2":"1564.63","latitude_centre":"46.0304","longitude_centre":"3.8368","distance_km":6.93},{"id":0,"code_insee":"42284","nom_standard":"Saint-Romain-la-Motte","nom_a":null,"nom_de":null,"slug_ville":"saint-romain-la-motte","departement_id":0,"code_postal":"42640","population":1436,"superficie_km2":"2799.65","latitude_centre":"46.0836","longitude_centre":"3.9907","distance_km":6.94},{"id":21636,"code_insee":"42008","nom_standard":"Arcon","nom_a":null,"nom_de":null,"slug_ville":"arcon","departement_id":0,"code_postal":"42370","population":106,"superficie_km2":"1918.63","latitude_centre":"46.0091","longitude_centre":"3.8669","distance_km":7.63},{"id":21741,"code_insee":"42198","nom_standard":"Saint-Alban-les-Eaux","nom_a":null,"nom_de":null,"slug_ville":"saint-alban-les-eaux","departement_id":0,"code_postal":"42370","population":912,"superficie_km2":"786.74","latitude_centre":"46.0056","longitude_centre":"3.9309","distance_km":7.85},{"id":21744,"code_insee":"42203","nom_standard":"Saint-Bonnet-des-Quarts","nom_a":null,"nom_de":null,"slug_ville":"saint-bonnet-des-quarts","departement_id":0,"code_postal":"42310","population":340,"superficie_km2":"3290.67","latitude_centre":"46.1272","longitude_centre":"3.8304","distance_km":8.14},{"id":21751,"code_insee":"42220","nom_standard":"Saint-Forgeux-Lespinasse","nom_a":null,"nom_de":null,"slug_ville":"saint-forgeux-lespinasse","departement_id":0,"code_postal":"42640","population":590,"superficie_km2":"1651.27","latitude_centre":"46.1419","longitude_centre":"3.9427","distance_km":8.25},{"id":21659,"code_insee":"42049","nom_standard":"Changy","nom_a":null,"nom_de":null,"slug_ville":"changy","departement_id":0,"code_postal":"42310","population":690,"superficie_km2":"1375.48","latitude_centre":"46.148","longitude_centre":"3.9036","distance_km":8.31},{"id":0,"code_insee":"42253","nom_standard":"Saint-Léger-sur-Roanne","nom_a":null,"nom_de":null,"slug_ville":"saint-leger-sur-roanne","departement_id":0,"code_postal":"42155","population":1170,"superficie_km2":"452.34","latitude_centre":"46.0429","longitude_centre":"4.003","distance_km":8.5},{"id":0,"code_insee":"42162","nom_standard":"Ouches","nom_a":null,"nom_de":null,"slug_ville":"ouches","departement_id":0,"code_postal":"42155","population":1138,"superficie_km2":"1009.99","latitude_centre":"46.011","longitude_centre":"3.9921","distance_km":9.82},{"id":0,"code_insee":"42331","nom_standard":"Villemontais","nom_a":null,"nom_de":null,"slug_ville":"villemontais","departement_id":0,"code_postal":"42155","population":1042,"superficie_km2":"1320.24","latitude_centre":"45.9812","longitude_centre":"3.932","distance_km":10.5},{"id":0,"code_insee":"42120","nom_standard":"Lentigny","nom_a":null,"nom_de":null,"slug_ville":"lentigny","departement_id":0,"code_postal":"42155","population":1794,"superficie_km2":"1150.24","latitude_centre":"45.993","longitude_centre":"3.9756","distance_km":10.59},{"id":21666,"code_insee":"42061","nom_standard":"Cherier","nom_a":null,"nom_de":null,"slug_ville":"cherier","departement_id":0,"code_postal":"42430","population":523,"superficie_km2":"2879.48","latitude_centre":"45.9686","longitude_centre":"3.8858","distance_km":11.71},{"id":0,"code_insee":"42163","nom_standard":"La Pacaudière","nom_a":null,"nom_de":null,"slug_ville":"la-pacaudiere","departement_id":0,"code_postal":"42310","population":1088,"superficie_km2":"2082.63","latitude_centre":"46.1828","longitude_centre":"3.8776","distance_km":12.32}]}