{"ville":{"id":28795,"code_insee":"64478","nom_standard":"Saint-Faust","nom_a":null,"nom_de":null,"slug_ville":"saint-faust","departement_id":0,"code_postal":"64110","population":738,"superficie_km2":"1322.27","latitude_centre":"43.2668","longitude_centre":"-0.4467","dep_code":"64","dep_nom":"Pyrénées-Atlantiques","dep_slug":"pyrenees-atlantiques","reg_code":"75","reg_nom":"Nouvelle-Aquitaine","reg_slug":"nouvelle-aquitaine"},"departement":{"code":"64","nom":"Pyrénées-Atlantiques","slug":"pyrenees-atlantiques"},"region":{"code":"75","nom":"Nouvelle-Aquitaine","slug":"nouvelle-aquitaine"},"villes_proches":[{"id":0,"code_insee":"64284","nom_standard":"Jurançon","nom_a":null,"nom_de":null,"slug_ville":"jurancon","departement_id":0,"code_postal":"64110","population":7040,"superficie_km2":"1884.92","latitude_centre":"43.2716","longitude_centre":"-0.4117","distance_km":2.88},{"id":28470,"code_insee":"64072","nom_standard":"Aubertin","nom_a":null,"nom_de":null,"slug_ville":"aubertin","departement_id":0,"code_postal":"64290","population":671,"superficie_km2":"1729.73","latitude_centre":"43.2724","longitude_centre":"-0.4816","distance_km":2.89},{"id":0,"code_insee":"64315","nom_standard":"Laroin","nom_a":null,"nom_de":null,"slug_ville":"laroin","departement_id":0,"code_postal":"64110","population":1030,"superficie_km2":"705.68","latitude_centre":"43.2933","longitude_centre":"-0.4377","distance_km":3.04},{"id":28654,"code_insee":"64299","nom_standard":"Lacommande","nom_a":null,"nom_de":null,"slug_ville":"lacommande","departement_id":0,"code_postal":"64360","population":172,"superficie_km2":"329.80","latitude_centre":"43.276","longitude_centre":"-0.5096","distance_km":5.19},{"id":0,"code_insee":"64060","nom_standard":"Artiguelouve","nom_a":null,"nom_de":null,"slug_ville":"artiguelouve","departement_id":0,"code_postal":"64230","population":2045,"superficie_km2":"1071.13","latitude_centre":"43.3125","longitude_centre":"-0.4702","distance_km":5.43},{"id":0,"code_insee":"64129","nom_standard":"Billère","nom_a":null,"nom_de":null,"slug_ville":"billere","departement_id":0,"code_postal":"64140","population":14384,"superficie_km2":"446.26","latitude_centre":"43.3064","longitude_centre":"-0.3952","distance_km":6.06},{"id":0,"code_insee":"64237","nom_standard":"Gelos","nom_a":null,"nom_de":null,"slug_ville":"gelos","departement_id":0,"code_postal":"64110","population":3637,"superficie_km2":"1104.81","latitude_centre":"43.259","longitude_centre":"-0.3668","distance_km":6.53},{"id":0,"code_insee":"64324","nom_standard":"Lasseube","nom_a":null,"nom_de":null,"slug_ville":"lasseube","departement_id":0,"code_postal":"64290","population":1735,"superficie_km2":"4890.59","latitude_centre":"43.2118","longitude_centre":"-0.4855","distance_km":6.88},{"id":0,"code_insee":"64230","nom_standard":"Gan","nom_a":null,"nom_de":null,"slug_ville":"gan","departement_id":0,"code_postal":"64290","population":5676,"superficie_km2":"3931.52","latitude_centre":"43.2074","longitude_centre":"-0.4096","distance_km":7.26},{"id":0,"code_insee":"64348","nom_standard":"Lons","nom_a":null,"nom_de":null,"slug_ville":"lons","departement_id":0,"code_postal":"64140","population":13606,"superficie_km2":"1155.06","latitude_centre":"43.3253","longitude_centre":"-0.4067","distance_km":7.27},{"id":0,"code_insee":"64373","nom_standard":"Mazères-Lezons","nom_a":null,"nom_de":null,"slug_ville":"mazeres-lezons","departement_id":0,"code_postal":"64110","population":1845,"superficie_km2":"397.64","latitude_centre":"43.2701","longitude_centre":"-0.3524","distance_km":7.64},{"id":0,"code_insee":"64550","nom_standard":"Uzos","nom_a":null,"nom_de":null,"slug_ville":"uzos","departement_id":0,"code_postal":"64110","population":874,"superficie_km2":"354.22","latitude_centre":"43.2599","longitude_centre":"-0.3497","distance_km":7.89},{"id":0,"code_insee":"64037","nom_standard":"Arbus","nom_a":null,"nom_de":null,"slug_ville":"arbus","departement_id":0,"code_postal":"64230","population":1226,"superficie_km2":"1382.03","latitude_centre":"43.3253","longitude_centre":"-0.5094","distance_km":8.25},{"id":0,"code_insee":"64335","nom_standard":"Lescar","nom_a":null,"nom_de":null,"slug_ville":"lescar","departement_id":0,"code_postal":"64230","population":9455,"superficie_km2":"2647.38","latitude_centre":"43.3412","longitude_centre":"-0.4303","distance_km":8.38},{"id":28785,"code_insee":"64467","nom_standard":"Rontignon","nom_a":null,"nom_de":null,"slug_ville":"rontignon","departement_id":0,"code_postal":"64110","population":875,"superficie_km2":"711.29","latitude_centre":"43.2501","longitude_centre":"-0.34","distance_km":8.84},{"id":28674,"code_insee":"64325","nom_standard":"Lasseubetat","nom_a":null,"nom_de":null,"slug_ville":"lasseubetat","departement_id":0,"code_postal":"64290","population":188,"superficie_km2":"714.54","latitude_centre":"43.1844","longitude_centre":"-0.4447","distance_km":9.16},{"id":0,"code_insee":"64525","nom_standard":"Siros","nom_a":null,"nom_de":null,"slug_ville":"siros","departement_id":0,"code_postal":"64230","population":848,"superficie_km2":"238.69","latitude_centre":"43.3433","longitude_centre":"-0.4916","distance_km":9.25},{"id":0,"code_insee":"64448","nom_standard":"Poey-de-Lescar","nom_a":null,"nom_de":null,"slug_ville":"poey-de-lescar","departement_id":0,"code_postal":"64230","population":1876,"superficie_km2":"690.60","latitude_centre":"43.3546","longitude_centre":"-0.4564","distance_km":9.79},{"id":28477,"code_insee":"64080","nom_standard":"Aussevielle","nom_a":null,"nom_de":null,"slug_ville":"aussevielle","departement_id":0,"code_postal":"64230","population":864,"superficie_km2":"332.12","latitude_centre":"43.3598","longitude_centre":"-0.4789","distance_km":10.66},{"id":28513,"code_insee":"64121","nom_standard":"Beyrie-en-Béarn","nom_a":null,"nom_de":null,"slug_ville":"beyrie-en-bearn","departement_id":0,"code_postal":"64230","population":197,"superficie_km2":"276.76","latitude_centre":"43.3726","longitude_centre":"-0.4639","distance_km":11.85}]}