{"ville":{"id":30487,"code_insee":"70462","nom_standard":"Saint-Ferjeux","nom_a":null,"nom_de":null,"slug_ville":"saint-ferjeux","departement_id":0,"code_postal":"70110","population":78,"superficie_km2":"175.97","latitude_centre":"47.5462","longitude_centre":"6.5059","dep_code":"70","dep_nom":"Haute-Saône","dep_slug":"haute-saone","reg_code":"27","reg_nom":"Bourgogne-Franche-Comté","reg_slug":"bourgogne-franche-comte"},"departement":{"code":"70","nom":"Haute-Saône","slug":"haute-saone"},"region":{"code":"27","nom":"Bourgogne-Franche-Comté","slug":"bourgogne-franche-comte"},"villes_proches":[{"id":0,"code_insee":"70553","nom_standard":"Villargent","nom_a":null,"nom_de":null,"slug_ville":"villargent","departement_id":0,"code_postal":"70110","population":117,"superficie_km2":"290.73","latitude_centre":"47.5419","longitude_centre":"6.4865","distance_km":1.53},{"id":30161,"code_insee":"70072","nom_standard":"Beveuge","nom_a":null,"nom_de":null,"slug_ville":"beveuge","departement_id":0,"code_postal":"70110","population":87,"superficie_km2":"524.24","latitude_centre":"47.5579","longitude_centre":"6.4902","distance_km":1.76},{"id":30386,"code_insee":"70336","nom_standard":"Mélecey","nom_a":null,"nom_de":null,"slug_ville":"melecey","departement_id":0,"code_postal":"70110","population":137,"superficie_km2":"333.06","latitude_centre":"47.5241","longitude_centre":"6.4897","distance_km":2.74},{"id":0,"code_insee":"70487","nom_standard":"Senargent-Mignafans","nom_a":null,"nom_de":null,"slug_ville":"senargent-mignafans","departement_id":0,"code_postal":"70110","population":287,"superficie_km2":"1080.07","latitude_centre":"47.5654","longitude_centre":"6.5297","distance_km":2.78},{"id":0,"code_insee":"70562","nom_standard":"Villers-la-Ville","nom_a":null,"nom_de":null,"slug_ville":"villers-la-ville","departement_id":0,"code_postal":"70110","population":151,"superficie_km2":"587.38","latitude_centre":"47.5496","longitude_centre":"6.4662","distance_km":3.0},{"id":30257,"code_insee":"70180","nom_standard":"Belles-Fontaines","nom_a":null,"nom_de":null,"slug_ville":"belles-fontaines","departement_id":0,"code_postal":"70110","population":600,"superficie_km2":"2583.98","latitude_centre":"47.5266","longitude_centre":"6.5384","distance_km":3.27},{"id":30334,"code_insee":"70273","nom_standard":"Grammont","nom_a":null,"nom_de":null,"slug_ville":"grammont","departement_id":0,"code_postal":"70110","population":67,"superficie_km2":"590.04","latitude_centre":"47.5161","longitude_centre":"6.5141","distance_km":3.4},{"id":0,"code_insee":"70484","nom_standard":"Secenans","nom_a":null,"nom_de":null,"slug_ville":"secenans","departement_id":0,"code_postal":"70400","population":183,"superficie_km2":"287.66","latitude_centre":"47.5479","longitude_centre":"6.5665","distance_km":4.55},{"id":0,"code_insee":"70552","nom_standard":"Villafans","nom_a":null,"nom_de":null,"slug_ville":"villafans","departement_id":0,"code_postal":"70110","population":195,"superficie_km2":"637.66","latitude_centre":"47.5831","longitude_centre":"6.4764","distance_km":4.66},{"id":0,"code_insee":"70474","nom_standard":"Saint-Sulpice","nom_a":null,"nom_de":null,"slug_ville":"saint-sulpice","departement_id":0,"code_postal":"70110","population":119,"superficie_km2":"355.03","latitude_centre":"47.5697","longitude_centre":"6.4511","distance_km":4.87},{"id":30297,"code_insee":"70226","nom_standard":"Fallon","nom_a":null,"nom_de":null,"slug_ville":"fallon","departement_id":0,"code_postal":"70110","population":306,"superficie_km2":"566.34","latitude_centre":"47.5052","longitude_centre":"6.4812","distance_km":4.92},{"id":30337,"code_insee":"70276","nom_standard":"Granges-la-Ville","nom_a":null,"nom_de":null,"slug_ville":"granges-la-ville","departement_id":0,"code_postal":"70400","population":181,"superficie_km2":"258.82","latitude_centre":"47.5691","longitude_centre":"6.5659","distance_km":5.17},{"id":30123,"code_insee":"70031","nom_standard":"Athesans-Étroitefontaine","nom_a":null,"nom_de":null,"slug_ville":"athesans-etroitefontaine","departement_id":0,"code_postal":"70110","population":631,"superficie_km2":"1289.64","latitude_centre":"47.5924","longitude_centre":"6.5178","distance_km":5.21},{"id":30370,"code_insee":"70317","nom_standard":"Les Magny","nom_a":null,"nom_de":null,"slug_ville":"les-magny","departement_id":0,"code_postal":"70110","population":142,"superficie_km2":"1157.78","latitude_centre":"47.5263","longitude_centre":"6.4395","distance_km":5.45},{"id":30394,"code_insee":"70347","nom_standard":"Mignavillers","nom_a":null,"nom_de":null,"slug_ville":"mignavillers","departement_id":0,"code_postal":"70400","population":365,"superficie_km2":"771.64","latitude_centre":"47.5861","longitude_centre":"6.5533","distance_km":5.69},{"id":16685,"code_insee":"25083","nom_standard":"Bournois","nom_a":null,"nom_de":null,"slug_ville":"bournois","departement_id":0,"code_postal":"25250","population":188,"superficie_km2":"1045.21","latitude_centre":"47.4914","longitude_centre":"6.4975","distance_km":6.13},{"id":16632,"code_insee":"25005","nom_standard":"Accolans","nom_a":null,"nom_de":null,"slug_ville":"accolans","departement_id":0,"code_postal":"25250","population":87,"superficie_km2":"519.55","latitude_centre":"47.4908","longitude_centre":"6.5353","distance_km":6.54},{"id":30362,"code_insee":"70307","nom_standard":"Longevelle","nom_a":null,"nom_de":null,"slug_ville":"longevelle","departement_id":0,"code_postal":"70110","population":116,"superficie_km2":"424.18","latitude_centre":"47.5926","longitude_centre":"6.4491","distance_km":6.69},{"id":30332,"code_insee":"70271","nom_standard":"Gouhenans","nom_a":null,"nom_de":null,"slug_ville":"gouhenans","departement_id":0,"code_postal":"70110","population":357,"superficie_km2":"853.08","latitude_centre":"47.6132","longitude_centre":"6.4847","distance_km":7.62},{"id":0,"code_insee":"70544","nom_standard":"La Vergenne","nom_a":null,"nom_de":null,"slug_ville":"la-vergenne","departement_id":0,"code_postal":"70200","population":110,"superficie_km2":"296.43","latitude_centre":"47.6158","longitude_centre":"6.5188","distance_km":7.8}]}