{"ville":{"id":22486,"code_insee":"46294","nom_standard":"Saint-Sulpice","nom_a":null,"nom_de":null,"slug_ville":"saint-sulpice","departement_id":0,"code_postal":"46160","population":127,"superficie_km2":"1303.57","latitude_centre":"44.5774","longitude_centre":"1.7942","dep_code":"46","dep_nom":"Lot","dep_slug":"lot","reg_code":"76","reg_nom":"Occitanie","reg_slug":"occitanie"},"departement":{"code":"46","nom":"Lot","slug":"lot"},"region":{"code":"76","nom":"Occitanie","slug":"occitanie"},"villes_proches":[{"id":22273,"code_insee":"46039","nom_standard":"Brengues","nom_a":null,"nom_de":null,"slug_ville":"brengues","departement_id":0,"code_postal":"46320","population":195,"superficie_km2":"2080.81","latitude_centre":"44.58","longitude_centre":"1.8296","distance_km":2.82},{"id":22393,"code_insee":"46183","nom_standard":"Marcilhac-sur-Célé","nom_a":null,"nom_de":null,"slug_ville":"marcilhac-sur-cele","departement_id":0,"code_postal":"46160","population":173,"superficie_km2":"2688.54","latitude_centre":"44.5486","longitude_centre":"1.78","distance_km":3.39},{"id":22266,"code_insee":"46031","nom_standard":"Blars","nom_a":null,"nom_de":null,"slug_ville":"blars","departement_id":0,"code_postal":"46330","population":137,"superficie_km2":"2582.54","latitude_centre":"44.5747","longitude_centre":"1.7277","distance_km":5.28},{"id":22318,"code_insee":"46093","nom_standard":"Espagnac-Sainte-Eulalie","nom_a":null,"nom_de":null,"slug_ville":"espagnac-sainte-eulalie","departement_id":0,"code_postal":"46320","population":97,"superficie_km2":"981.41","latitude_centre":"44.5909","longitude_centre":"1.8603","distance_km":5.45},{"id":22453,"code_insee":"46254","nom_standard":"Saint-Chels","nom_a":null,"nom_de":null,"slug_ville":"saint-chels","departement_id":0,"code_postal":"46160","population":148,"superficie_km2":"1807.79","latitude_centre":"44.53","longitude_centre":"1.8149","distance_km":5.52},{"id":22350,"code_insee":"46131","nom_standard":"Grèzes","nom_a":null,"nom_de":null,"slug_ville":"grezes","departement_id":0,"code_postal":"46320","population":155,"superficie_km2":"1110.71","latitude_centre":"44.6227","longitude_centre":"1.8267","distance_km":5.66},{"id":22319,"code_insee":"46094","nom_standard":"Espédaillac","nom_a":null,"nom_de":null,"slug_ville":"espedaillac","departement_id":0,"code_postal":"46320","population":290,"superficie_km2":"3520.32","latitude_centre":"44.6294","longitude_centre":"1.7742","distance_km":6.0},{"id":22348,"code_insee":"46129","nom_standard":"Gréalou","nom_a":null,"nom_de":null,"slug_ville":"grealou","departement_id":0,"code_postal":"46160","population":312,"superficie_km2":"1751.28","latitude_centre":"44.5401","longitude_centre":"1.8719","distance_km":7.42},{"id":22302,"code_insee":"46075","nom_standard":"Corn","nom_a":null,"nom_de":null,"slug_ville":"corn","departement_id":0,"code_postal":"46100","population":238,"superficie_km2":"1541.08","latitude_centre":"44.6027","longitude_centre":"1.8849","distance_km":7.71},{"id":22434,"code_insee":"46233","nom_standard":"Quissac-en-Quercy","nom_a":null,"nom_de":null,"slug_ville":"quissac-en-quercy","departement_id":0,"code_postal":"46320","population":107,"superficie_km2":"2505.59","latitude_centre":"44.6239","longitude_centre":"1.7177","distance_km":7.96},{"id":0,"code_insee":"46299","nom_standard":"Sauliac-sur-Célé","nom_a":null,"nom_de":null,"slug_ville":"sauliac-sur-cele","departement_id":0,"code_postal":"46330","population":114,"superficie_km2":"2514.59","latitude_centre":"44.5211","longitude_centre":"1.7173","distance_km":8.74},{"id":22387,"code_insee":"46176","nom_standard":"Livernon","nom_a":null,"nom_de":null,"slug_ville":"livernon","departement_id":0,"code_postal":"46320","population":722,"superficie_km2":"2620.44","latitude_centre":"44.6516","longitude_centre":"1.8483","distance_km":9.3},{"id":22418,"code_insee":"46212","nom_standard":"Orniac","nom_a":null,"nom_de":null,"slug_ville":"orniac","departement_id":0,"code_postal":"46330","population":73,"superficie_km2":"1700.33","latitude_centre":"44.5411","longitude_centre":"1.6812","distance_km":9.82},{"id":22369,"code_insee":"46155","nom_standard":"Larnagol","nom_a":null,"nom_de":null,"slug_ville":"larnagol","departement_id":0,"code_postal":"46160","population":135,"superficie_km2":"2413.83","latitude_centre":"44.4892","longitude_centre":"1.7806","distance_km":9.87},{"id":22270,"code_insee":"46035","nom_standard":"Boussac","nom_a":null,"nom_de":null,"slug_ville":"boussac","departement_id":0,"code_postal":"46100","population":185,"superficie_km2":"791.46","latitude_centre":"44.5967","longitude_centre":"1.9181","distance_km":10.04},{"id":0,"code_insee":"46045","nom_standard":"Cajarc","nom_a":null,"nom_de":null,"slug_ville":"cajarc","departement_id":0,"code_postal":"46160","population":1136,"superficie_km2":"2577.61","latitude_centre":"44.4919","longitude_centre":"1.838","distance_km":10.12},{"id":22275,"code_insee":"46041","nom_standard":"Cadrieu","nom_a":null,"nom_de":null,"slug_ville":"cadrieu","departement_id":0,"code_postal":"46160","population":174,"superficie_km2":"526.46","latitude_centre":"44.5013","longitude_centre":"1.8745","distance_km":10.59},{"id":22315,"code_insee":"46090","nom_standard":"Durbans","nom_a":null,"nom_de":null,"slug_ville":"durbans","departement_id":0,"code_postal":"46320","population":158,"superficie_km2":"2793.68","latitude_centre":"44.681","longitude_centre":"1.7631","distance_km":11.78},{"id":22472,"code_insee":"46276","nom_standard":"Saint-Martin-Labouval","nom_a":null,"nom_de":null,"slug_ville":"saint-martin-labouval","departement_id":0,"code_postal":"46330","population":202,"superficie_km2":"1340.72","latitude_centre":"44.481","longitude_centre":"1.7294","distance_km":11.89},{"id":22250,"code_insee":"46009","nom_standard":"Assier","nom_a":null,"nom_de":null,"slug_ville":"assier","departement_id":0,"code_postal":"46320","population":709,"superficie_km2":"1665.05","latitude_centre":"44.6721","longitude_centre":"1.8725","distance_km":12.22}]}