{"ville":{"id":14862,"code_insee":"18196","nom_standard":"Saint-Aignan-des-Noyers","nom_a":null,"nom_de":null,"slug_ville":"saint-aignan-des-noyers","departement_id":0,"code_postal":"18600","population":77,"superficie_km2":"1111.43","latitude_centre":"46.7544","longitude_centre":"2.8187","dep_code":"18","dep_nom":"Cher","dep_slug":"cher","reg_code":"24","reg_nom":"Centre-Val de Loire","reg_slug":"centre-val-de-loire"},"departement":{"code":"18","nom":"Cher","slug":"cher"},"region":{"code":"24","nom":"Centre-Val de Loire","slug":"centre-val-de-loire"},"villes_proches":[{"id":14728,"code_insee":"18029","nom_standard":"Bessais-le-Fromental","nom_a":null,"nom_de":null,"slug_ville":"bessais-le-fromental","departement_id":0,"code_postal":"18210","population":289,"superficie_km2":"2635.95","latitude_centre":"46.7508","longitude_centre":"2.781","distance_km":2.9},{"id":14719,"code_insee":"18017","nom_standard":"Augy-sur-Aubois","nom_a":null,"nom_de":null,"slug_ville":"augy-sur-aubois","departement_id":0,"code_postal":"18600","population":278,"superficie_km2":"3088.56","latitude_centre":"46.7788","longitude_centre":"2.8591","distance_km":4.1},{"id":11141,"code_insee":"03296","nom_standard":"Valigny","nom_a":null,"nom_de":null,"slug_ville":"valigny","departement_id":0,"code_postal":"03360","population":378,"superficie_km2":"2099.55","latitude_centre":"46.7153","longitude_centre":"2.8214","distance_km":4.35},{"id":14830,"code_insee":"18161","nom_standard":"Neuilly-en-Dun","nom_a":null,"nom_de":null,"slug_ville":"neuilly-en-dun","departement_id":0,"code_postal":"18600","population":228,"superficie_km2":"3020.29","latitude_centre":"46.8021","longitude_centre":"2.7837","distance_km":5.94},{"id":0,"code_insee":"03155","nom_standard":"Lurcy-Lévis","nom_a":null,"nom_de":null,"slug_ville":"lurcy-levis","departement_id":0,"code_postal":"03320","population":1821,"superficie_km2":"7213.27","latitude_centre":"46.7371","longitude_centre":"2.9111","distance_km":7.3},{"id":11002,"code_insee":"03130","nom_standard":"Isle-et-Bardais","nom_a":null,"nom_de":null,"slug_ville":"isle-et-bardais","departement_id":0,"code_postal":"03360","population":273,"superficie_km2":"4503.49","latitude_centre":"46.6866","longitude_centre":"2.7762","distance_km":8.21},{"id":0,"code_insee":"18276","nom_standard":"Vernais","nom_a":null,"nom_de":null,"slug_ville":"vernais","departement_id":0,"code_postal":"18210","population":179,"superficie_km2":"2623.25","latitude_centre":"46.7681","longitude_centre":"2.712","distance_km":8.27},{"id":10906,"code_insee":"03003","nom_standard":"Ainay-le-Château","nom_a":null,"nom_de":null,"slug_ville":"ainay-le-chateau","departement_id":0,"code_postal":"03360","population":989,"superficie_km2":"2428.69","latitude_centre":"46.7182","longitude_centre":"2.7157","distance_km":8.82},{"id":14787,"code_insee":"18102","nom_standard":"Givardon","nom_a":null,"nom_de":null,"slug_ville":"givardon","departement_id":0,"code_postal":"18600","population":300,"superficie_km2":"2219.42","latitude_centre":"46.8341","longitude_centre":"2.8031","distance_km":8.94},{"id":14722,"code_insee":"18021","nom_standard":"Bannegon","nom_a":null,"nom_de":null,"slug_ville":"bannegon","departement_id":0,"code_postal":"18210","population":233,"superficie_km2":"2150.03","latitude_centre":"46.806","longitude_centre":"2.7229","distance_km":9.28},{"id":0,"code_insee":"18242","nom_standard":"Sancoins","nom_a":null,"nom_de":null,"slug_ville":"sancoins","departement_id":0,"code_postal":"18600","population":2951,"superficie_km2":"5362.45","latitude_centre":"46.8184","longitude_centre":"2.9095","distance_km":9.92},{"id":10975,"code_insee":"03087","nom_standard":"Couleuvre","nom_a":null,"nom_de":null,"slug_ville":"couleuvre","departement_id":0,"code_postal":"03320","population":580,"superficie_km2":"5411.17","latitude_centre":"46.6747","longitude_centre":"2.9041","distance_km":11.0},{"id":14751,"code_insee":"18060","nom_standard":"Chaumont","nom_a":null,"nom_de":null,"slug_ville":"chaumont","departement_id":0,"code_postal":"18350","population":45,"superficie_km2":"215.22","latitude_centre":"46.8431","longitude_centre":"2.7529","distance_km":11.06},{"id":14861,"code_insee":"18195","nom_standard":"Sagonne","nom_a":null,"nom_de":null,"slug_ville":"sagonne","departement_id":0,"code_postal":"18600","population":190,"superficie_km2":"1896.37","latitude_centre":"46.8599","longitude_centre":"2.8253","distance_km":11.74},{"id":11057,"code_insee":"03198","nom_standard":"Neure","nom_a":null,"nom_de":null,"slug_ville":"neure","departement_id":0,"code_postal":"03320","population":202,"superficie_km2":"1213.06","latitude_centre":"46.7432","longitude_centre":"2.979","distance_km":12.28},{"id":0,"code_insee":"18052","nom_standard":"Charenton-du-Cher","nom_a":null,"nom_de":null,"slug_ville":"charenton-du-cher","departement_id":0,"code_postal":"18210","population":984,"superficie_km2":"4888.19","latitude_centre":"46.741","longitude_centre":"2.6582","distance_km":12.32},{"id":11076,"code_insee":"03221","nom_standard":"Saint-Bonnet-Tronçais","nom_a":null,"nom_de":null,"slug_ville":"saint-bonnet-troncais","departement_id":0,"code_postal":"03360","population":726,"superficie_km2":"2822.98","latitude_centre":"46.6689","longitude_centre":"2.6964","distance_km":13.32},{"id":0,"code_insee":"18275","nom_standard":"Vereaux","nom_a":null,"nom_de":null,"slug_ville":"vereaux","departement_id":0,"code_postal":"18600","population":143,"superficie_km2":"2319.77","latitude_centre":"46.8709","longitude_centre":"2.8661","distance_km":13.45},{"id":0,"code_insee":"03048","nom_standard":"Cérilly","nom_a":null,"nom_de":null,"slug_ville":"cerilly","departement_id":0,"code_postal":"03350","population":1316,"superficie_km2":"7113.31","latitude_centre":"46.6263","longitude_centre":"2.8085","distance_km":14.27},{"id":14729,"code_insee":"18031","nom_standard":"Blet","nom_a":null,"nom_de":null,"slug_ville":"blet","departement_id":0,"code_postal":"18350","population":566,"superficie_km2":"3089.56","latitude_centre":"46.8839","longitude_centre":"2.7292","distance_km":15.93}]}