{"ville":{"id":27324,"code_insee":"61367","nom_standard":"Saint-Aubin-de-Courteraie","nom_a":null,"nom_de":null,"slug_ville":"saint-aubin-de-courteraie","departement_id":0,"code_postal":"61560","population":129,"superficie_km2":"1026.23","latitude_centre":"48.6096","longitude_centre":"0.4512","dep_code":"61","dep_nom":"Orne","dep_slug":"orne","reg_code":"28","reg_nom":"Normandie","reg_slug":"normandie"},"departement":{"code":"61","nom":"Orne","slug":"orne"},"region":{"code":"28","nom":"Normandie","slug":"normandie"},"villes_proches":[{"id":27318,"code_insee":"61360","nom_standard":"Saint-Agnan-sur-Sarthe","nom_a":null,"nom_de":null,"slug_ville":"saint-agnan-sur-sarthe","departement_id":0,"code_postal":"61170","population":87,"superficie_km2":"663.48","latitude_centre":"48.6194","longitude_centre":"0.4304","distance_km":1.88},{"id":0,"code_insee":"61396","nom_standard":"Saint-Germain-de-Martigny","nom_a":null,"nom_de":null,"slug_ville":"saint-germain-de-martigny","departement_id":0,"code_postal":"61560","population":78,"superficie_km2":"391.10","latitude_centre":"48.5867","longitude_centre":"0.4656","distance_km":2.76},{"id":0,"code_insee":"61438","nom_standard":"Saint-Ouen-de-Sécherouvre","nom_a":null,"nom_de":null,"slug_ville":"saint-ouen-de-secherouvre","departement_id":0,"code_postal":"61560","population":153,"superficie_km2":"1014.95","latitude_centre":"48.5972","longitude_centre":"0.4881","distance_km":3.04},{"id":0,"code_insee":"61425","nom_standard":"Saint-Martin-des-Pézerits","nom_a":null,"nom_de":null,"slug_ville":"saint-martin-des-pezerits","departement_id":0,"code_postal":"61380","population":117,"superficie_km2":"465.65","latitude_centre":"48.6285","longitude_centre":"0.489","distance_km":3.48},{"id":27153,"code_insee":"61087","nom_standard":"Champeaux-sur-Sarthe","nom_a":null,"nom_de":null,"slug_ville":"champeaux-sur-sarthe","departement_id":0,"code_postal":"61560","population":159,"superficie_km2":"946.24","latitude_centre":"48.5743","longitude_centre":"0.4458","distance_km":3.95},{"id":27305,"code_insee":"61331","nom_standard":"Le Plantis","nom_a":null,"nom_de":null,"slug_ville":"le-plantis","departement_id":0,"code_postal":"61170","population":125,"superficie_km2":"823.86","latitude_centre":"48.6027","longitude_centre":"0.3944","distance_km":4.25},{"id":0,"code_insee":"61481","nom_standard":"Tellières-le-Plessis","nom_a":null,"nom_de":null,"slug_ville":"tellieres-le-plessis","departement_id":0,"code_postal":"61390","population":66,"superficie_km2":"550.96","latitude_centre":"48.6232","longitude_centre":"0.3942","distance_km":4.45},{"id":27284,"code_insee":"61297","nom_standard":"Moulins-la-Marche","nom_a":null,"nom_de":null,"slug_ville":"moulins-la-marche","departement_id":0,"code_postal":"61380","population":710,"superficie_km2":"1316.44","latitude_centre":"48.6522","longitude_centre":"0.4767","distance_km":5.09},{"id":27246,"code_insee":"61244","nom_standard":"Mahéru","nom_a":null,"nom_de":null,"slug_ville":"maheru","departement_id":0,"code_postal":"61380","population":278,"superficie_km2":"1976.33","latitude_centre":"48.6597","longitude_centre":"0.4392","distance_km":5.64},{"id":0,"code_insee":"61454","nom_standard":"Sainte-Scolasse-sur-Sarthe","nom_a":null,"nom_de":null,"slug_ville":"sainte-scolasse-sur-sarthe","departement_id":0,"code_postal":"61170","population":582,"superficie_km2":"1423.07","latitude_centre":"48.5816","longitude_centre":"0.3862","distance_km":5.7},{"id":0,"code_insee":"61373","nom_standard":"Sainte-Céronne-lès-Mortagne","nom_a":null,"nom_de":null,"slug_ville":"sainte-ceronne-les-mortagne","departement_id":0,"code_postal":"61380","population":251,"superficie_km2":"1276.02","latitude_centre":"48.5911","longitude_centre":"0.5241","distance_km":5.74},{"id":27113,"code_insee":"61029","nom_standard":"Bazoches-sur-Hoëne","nom_a":null,"nom_de":null,"slug_ville":"bazoches-sur-hoene","departement_id":0,"code_postal":"61560","population":827,"superficie_km2":"2151.72","latitude_centre":"48.5509","longitude_centre":"0.4644","distance_km":6.6},{"id":27198,"code_insee":"61159","nom_standard":"Fay","nom_a":null,"nom_de":null,"slug_ville":"fay","departement_id":0,"code_postal":"61390","population":69,"superficie_km2":"849.57","latitude_centre":"48.6637","longitude_centre":"0.411","distance_km":6.7},{"id":27321,"code_insee":"61363","nom_standard":"Saint-Aquilin-de-Corbion","nom_a":null,"nom_de":null,"slug_ville":"saint-aquilin-de-corbion","departement_id":0,"code_postal":"61380","population":60,"superficie_km2":"608.19","latitude_centre":"48.6416","longitude_centre":"0.5285","distance_km":6.7},{"id":27203,"code_insee":"61166","nom_standard":"Ferrières-la-Verrerie","nom_a":null,"nom_de":null,"slug_ville":"ferrieres-la-verrerie","departement_id":0,"code_postal":"61390","population":161,"superficie_km2":"1462.58","latitude_centre":"48.6534","longitude_centre":"0.3819","distance_km":7.05},{"id":27137,"code_insee":"61067","nom_standard":"Bures","nom_a":null,"nom_de":null,"slug_ville":"bures","departement_id":0,"code_postal":"61170","population":166,"superficie_km2":"960.18","latitude_centre":"48.557","longitude_centre":"0.3974","distance_km":7.06},{"id":27200,"code_insee":"61162","nom_standard":"La Ferrière-au-Doyen","nom_a":null,"nom_de":null,"slug_ville":"la-ferriere-au-doyen","departement_id":0,"code_postal":"61380","population":157,"superficie_km2":"2264.84","latitude_centre":"48.6781","longitude_centre":"0.5072","distance_km":8.66},{"id":27271,"code_insee":"61277","nom_standard":"La Mesnière","nom_a":null,"nom_de":null,"slug_ville":"la-mesniere","departement_id":0,"code_postal":"61560","population":276,"superficie_km2":"1220.95","latitude_centre":"48.5218","longitude_centre":"0.4385","distance_km":9.81},{"id":27124,"code_insee":"61048","nom_standard":"Boëcé","nom_a":null,"nom_de":null,"slug_ville":"boece","departement_id":0,"code_postal":"61560","population":125,"superficie_km2":"240.12","latitude_centre":"48.5148","longitude_centre":"0.4535","distance_km":10.54},{"id":0,"code_insee":"61389","nom_standard":"Sainte-Gauburge-Sainte-Colombe","nom_a":null,"nom_de":null,"slug_ville":"sainte-gauburge-sainte-colombe","departement_id":0,"code_postal":"61370","population":1006,"superficie_km2":"2121.37","latitude_centre":"48.7082","longitude_centre":"0.4443","distance_km":10.98}]}