{"ville":{"id":27013,"code_insee":"60592","nom_standard":"Saint-Pierre-es-Champs","nom_a":null,"nom_de":null,"slug_ville":"saint-pierre-es-champs","departement_id":0,"code_postal":"60850","population":672,"superficie_km2":"1088.56","latitude_centre":"49.4262","longitude_centre":"1.747","dep_code":"60","dep_nom":"Oise","dep_slug":"oise","reg_code":"32","reg_nom":"Hauts-de-France","reg_slug":"hauts-de-france"},"departement":{"code":"60","nom":"Oise","slug":"oise"},"region":{"code":"32","nom":"Hauts-de-France","slug":"hauts-de-france"},"villes_proches":[{"id":26959,"code_insee":"60516","nom_standard":"Puiseux-en-Bray","nom_a":null,"nom_de":null,"slug_ville":"puiseux-en-bray","departement_id":0,"code_postal":"60850","population":398,"superficie_km2":"804.50","latitude_centre":"49.4126","longitude_centre":"1.7759","distance_km":2.58},{"id":0,"code_insee":"60577","nom_standard":"Saint-Germer-de-Fly","nom_a":null,"nom_de":null,"slug_ville":"saint-germer-de-fly","departement_id":0,"code_postal":"60850","population":1662,"superficie_km2":"2000.83","latitude_centre":"49.4383","longitude_centre":"1.7809","distance_km":2.8},{"id":17410,"code_insee":"27098","nom_standard":"Bouchevilliers","nom_a":null,"nom_de":null,"slug_ville":"bouchevilliers","departement_id":0,"code_postal":"27150","population":70,"superficie_km2":"433.87","latitude_centre":"49.3981","longitude_centre":"1.7158","distance_km":3.85},{"id":0,"code_insee":"76463","nom_standard":"Neuf-Marché","nom_a":null,"nom_de":null,"slug_ville":"neuf-marche","departement_id":0,"code_postal":"76220","population":639,"superficie_km2":"1794.37","latitude_centre":"49.4218","longitude_centre":"1.6921","distance_km":4.0},{"id":0,"code_insee":"76242","nom_standard":"Ernemont-la-Villette","nom_a":null,"nom_de":null,"slug_ville":"ernemont-la-villette","departement_id":0,"code_postal":"76220","population":218,"superficie_km2":"751.48","latitude_centre":"49.4543","longitude_centre":"1.7111","distance_km":4.06},{"id":0,"code_insee":"60626","nom_standard":"Talmontiers","nom_a":null,"nom_de":null,"slug_ville":"talmontiers","departement_id":0,"code_postal":"60590","population":643,"superficie_km2":"932.45","latitude_centre":"49.3887","longitude_centre":"1.75","distance_km":4.18},{"id":26835,"code_insee":"60343","nom_standard":"Lalande-en-Son","nom_a":null,"nom_de":null,"slug_ville":"lalande-en-son","departement_id":0,"code_postal":"60590","population":606,"superficie_km2":"603.97","latitude_centre":"49.3895","longitude_centre":"1.7845","distance_km":4.9},{"id":17356,"code_insee":"27010","nom_standard":"Amécourt","nom_a":null,"nom_de":null,"slug_ville":"amecourt","departement_id":0,"code_postal":"27140","population":172,"superficie_km2":"599.68","latitude_centre":"49.3763","longitude_centre":"1.7345","distance_km":5.62},{"id":0,"code_insee":"76312","nom_standard":"Gournay-en-Bray","nom_a":null,"nom_de":null,"slug_ville":"gournay-en-bray","departement_id":0,"code_postal":"76220","population":5723,"superficie_km2":"1041.48","latitude_centre":"49.4763","longitude_centre":"1.7168","distance_km":5.98},{"id":0,"code_insee":"76450","nom_standard":"Montroty","nom_a":null,"nom_de":null,"slug_ville":"montroty","departement_id":0,"code_postal":"76220","population":250,"superficie_km2":"1085.77","latitude_centre":"49.4313","longitude_centre":"1.6642","distance_km":6.01},{"id":0,"code_insee":"60687","nom_standard":"Villers-sur-Auchy","nom_a":null,"nom_de":null,"slug_ville":"villers-sur-auchy","departement_id":0,"code_postal":"60650","population":370,"superficie_km2":"877.25","latitude_centre":"49.4752","longitude_centre":"1.7901","distance_km":6.28},{"id":26706,"code_insee":"60187","nom_standard":"Cuigy-en-Bray","nom_a":null,"nom_de":null,"slug_ville":"cuigy-en-bray","departement_id":0,"code_postal":"60850","population":987,"superficie_km2":"983.35","latitude_centre":"49.4319","longitude_centre":"1.837","distance_km":6.54},{"id":0,"code_insee":"76260","nom_standard":"Ferrières-en-Bray","nom_a":null,"nom_de":null,"slug_ville":"ferrieres-en-bray","departement_id":0,"code_postal":"76220","population":1669,"superficie_km2":"1585.89","latitude_centre":"49.4863","longitude_centre":"1.758","distance_km":6.73},{"id":26689,"code_insee":"60164","nom_standard":"Le Coudray-Saint-Germer","nom_a":null,"nom_de":null,"slug_ville":"le-coudray-saint-germer","departement_id":0,"code_postal":"60850","population":870,"superficie_km2":"1356.78","latitude_centre":"49.3991","longitude_centre":"1.8342","distance_km":6.99},{"id":17585,"code_insee":"27379","nom_standard":"Mainneville","nom_a":null,"nom_de":null,"slug_ville":"mainneville","departement_id":0,"code_postal":"27150","population":445,"superficie_km2":"813.96","latitude_centre":"49.3759","longitude_centre":"1.6845","distance_km":7.19},{"id":17603,"code_insee":"27405","nom_standard":"Mesnil-sous-Vienne","nom_a":null,"nom_de":null,"slug_ville":"mesnil-sous-vienne","departement_id":0,"code_postal":"27150","population":102,"superficie_km2":"570.11","latitude_centre":"49.3852","longitude_centre":"1.6675","distance_km":7.34},{"id":0,"code_insee":"76048","nom_standard":"Avesnes-en-Bray","nom_a":null,"nom_de":null,"slug_ville":"avesnes-en-bray","departement_id":0,"code_postal":"76220","population":280,"superficie_km2":"1187.24","latitude_centre":"49.4737","longitude_centre":"1.6749","distance_km":7.42},{"id":17546,"code_insee":"27324","nom_standard":"Hébécourt","nom_a":null,"nom_de":null,"slug_ville":"hebecourt","departement_id":0,"code_postal":"27150","population":628,"superficie_km2":"1128.10","latitude_centre":"49.3588","longitude_centre":"1.7227","distance_km":7.7},{"id":0,"code_insee":"60616","nom_standard":"Sérifontaine","nom_a":null,"nom_de":null,"slug_ville":"serifontaine","departement_id":0,"code_postal":"60590","population":2784,"superficie_km2":"2066.27","latitude_centre":"49.3597","longitude_centre":"1.7965","distance_km":8.22},{"id":0,"code_insee":"60594","nom_standard":"Saint-Quentin-des-Prés","nom_a":null,"nom_de":null,"slug_ville":"saint-quentin-des-pres","departement_id":0,"code_postal":"60380","population":285,"superficie_km2":"1085.19","latitude_centre":"49.5192","longitude_centre":"1.7456","distance_km":10.34}]}