{"ville":{"id":32650,"code_insee":"79258","nom_standard":"Saint-Jacques-de-Thouars","nom_a":null,"nom_de":null,"slug_ville":"saint-jacques-de-thouars","departement_id":0,"code_postal":"79100","population":421,"superficie_km2":"556.36","latitude_centre":"46.969","longitude_centre":"-0.2357","dep_code":"79","dep_nom":"Deux-Sèvres","dep_slug":"deux-sevres","reg_code":"75","reg_nom":"Nouvelle-Aquitaine","reg_slug":"nouvelle-aquitaine"},"departement":{"code":"79","nom":"Deux-Sèvres","slug":"deux-sevres"},"region":{"code":"75","nom":"Nouvelle-Aquitaine","slug":"nouvelle-aquitaine"},"villes_proches":[{"id":0,"code_insee":"79329","nom_standard":"Thouars","nom_a":null,"nom_de":null,"slug_ville":"thouars","departement_id":0,"code_postal":"79100","population":13891,"superficie_km2":"8180.75","latitude_centre":"46.9765","longitude_centre":"-0.2466","distance_km":1.17},{"id":0,"code_insee":"79259","nom_standard":"Saint-Jean-de-Thouars","nom_a":null,"nom_de":null,"slug_ville":"saint-jean-de-thouars","departement_id":0,"code_postal":"79100","population":1328,"superficie_km2":"497.05","latitude_centre":"46.9562","longitude_centre":"-0.221","distance_km":1.81},{"id":32608,"code_insee":"79161","nom_standard":"Luzay","nom_a":null,"nom_de":null,"slug_ville":"luzay","departement_id":0,"code_postal":"79100","population":617,"superficie_km2":"2096.17","latitude_centre":"46.9311","longitude_centre":"-0.2131","distance_km":4.55},{"id":0,"code_insee":"79300","nom_standard":"Sainte-Verge","nom_a":null,"nom_de":null,"slug_ville":"sainte-verge","departement_id":0,"code_postal":"79100","population":1404,"superficie_km2":"1283.38","latitude_centre":"47.0135","longitude_centre":"-0.2278","distance_km":4.98},{"id":0,"code_insee":"79157","nom_standard":"Louzy","nom_a":null,"nom_de":null,"slug_ville":"louzy","departement_id":0,"code_postal":"79100","population":1288,"superficie_km2":"1864.54","latitude_centre":"47.0155","longitude_centre":"-0.1832","distance_km":6.53},{"id":32606,"code_insee":"79159","nom_standard":"Luché-Thouarsais","nom_a":null,"nom_de":null,"slug_ville":"luche-thouarsais","departement_id":0,"code_postal":"79330","population":536,"superficie_km2":"1366.54","latitude_centre":"46.9132","longitude_centre":"-0.305","distance_km":8.13},{"id":0,"code_insee":"79265","nom_standard":"Saint-Léger-de-Montbrun","nom_a":null,"nom_de":null,"slug_ville":"saint-leger-de-montbrun","departement_id":0,"code_postal":"79100","population":1247,"superficie_km2":"3074.77","latitude_centre":"46.9918","longitude_centre":"-0.1296","distance_km":8.44},{"id":32643,"code_insee":"79250","nom_standard":"Sainte-Gemme","nom_a":null,"nom_de":null,"slug_ville":"sainte-gemme","departement_id":0,"code_postal":"79330","population":407,"superficie_km2":"892.13","latitude_centre":"46.8991","longitude_centre":"-0.2832","distance_km":8.57},{"id":0,"code_insee":"79299","nom_standard":"Saint-Varent","nom_a":null,"nom_de":null,"slug_ville":"saint-varent","departement_id":0,"code_postal":"79330","population":2395,"superficie_km2":"3457.83","latitude_centre":"46.8913","longitude_centre":"-0.2199","distance_km":8.72},{"id":32568,"code_insee":"79102","nom_standard":"Coulonges-Thouarsais","nom_a":null,"nom_de":null,"slug_ville":"coulonges-thouarsais","departement_id":0,"code_postal":"79330","population":443,"superficie_km2":"1717.88","latitude_centre":"46.9221","longitude_centre":"-0.3303","distance_km":8.88},{"id":32549,"code_insee":"79056","nom_standard":"Brion-près-Thouet","nom_a":null,"nom_de":null,"slug_ville":"brion-pres-thouet","departement_id":0,"code_postal":"79290","population":759,"superficie_km2":"845.98","latitude_centre":"47.0507","longitude_centre":"-0.1868","distance_km":9.81},{"id":0,"code_insee":"79014","nom_standard":"Loretz-d'Argenton","nom_a":null,"nom_de":null,"slug_ville":"loretz-d-argenton","departement_id":0,"code_postal":"79290","population":2575,"superficie_km2":"5284.77","latitude_centre":"47.0578","longitude_centre":"-0.2732","distance_km":10.28},{"id":32641,"code_insee":"79244","nom_standard":"Saint-Cyr-la-Lande","nom_a":null,"nom_de":null,"slug_ville":"saint-cyr-la-lande","departement_id":0,"code_postal":"79100","population":368,"superficie_km2":"904.98","latitude_centre":"47.0485","longitude_centre":"-0.1515","distance_km":10.9},{"id":0,"code_insee":"79063","nom_standard":"Val en Vignes","nom_a":null,"nom_de":null,"slug_ville":"val-en-vignes","departement_id":0,"code_postal":"79150","population":2020,"superficie_km2":"7897.58","latitude_centre":"47.0351","longitude_centre":"-0.345","distance_km":11.08},{"id":0,"code_insee":"79274","nom_standard":"Saint-Martin-de-Mâcon","nom_a":null,"nom_de":null,"slug_ville":"saint-martin-de-macon","departement_id":0,"code_postal":"79100","population":325,"superficie_km2":"1235.49","latitude_centre":"47.0235","longitude_centre":"-0.1114","distance_km":11.21},{"id":32645,"code_insee":"79252","nom_standard":"Saint-Généroux","nom_a":null,"nom_de":null,"slug_ville":"saint-generoux","departement_id":0,"code_postal":"79600","population":340,"superficie_km2":"2043.21","latitude_centre":"46.8868","longitude_centre":"-0.1484","distance_km":11.29},{"id":0,"code_insee":"79277","nom_standard":"Saint-Martin-de-Sanzay","nom_a":null,"nom_de":null,"slug_ville":"saint-martin-de-sanzay","departement_id":0,"code_postal":"79290","population":1030,"superficie_km2":"2431.73","latitude_centre":"47.0687","longitude_centre":"-0.1907","distance_km":11.6},{"id":32625,"code_insee":"79209","nom_standard":"Pierrefitte","nom_a":null,"nom_de":null,"slug_ville":"pierrefitte","departement_id":0,"code_postal":"79330","population":318,"superficie_km2":"1597.36","latitude_centre":"46.8667","longitude_centre":"-0.3024","distance_km":12.45},{"id":32588,"code_insee":"79134","nom_standard":"Glénay","nom_a":null,"nom_de":null,"slug_ville":"glenay","departement_id":0,"code_postal":"79330","population":523,"superficie_km2":"2131.97","latitude_centre":"46.8564","longitude_centre":"-0.245","distance_km":12.54},{"id":0,"code_insee":"49253","nom_standard":"Le Puy-Notre-Dame","nom_a":null,"nom_de":null,"slug_ville":"le-puy-notre-dame","departement_id":0,"code_postal":"49260","population":1084,"superficie_km2":"1596.12","latitude_centre":"47.1142","longitude_centre":"-0.2281","distance_km":16.16}]}