{"ville":{"id":3155,"code_insee":"34255","nom_standard":"Saint-Gély-du-Fesc","nom_a":null,"nom_de":null,"slug_ville":"saint-gely-du-fesc","departement_id":635,"code_postal":"34980","population":10537,"superficie_km2":"17.00","latitude_centre":"43.6899986","longitude_centre":"3.8099999","dep_code":"34","dep_nom":"Hérault","dep_slug":"herault","reg_code":"16","reg_nom":"Occitanie","reg_slug":"occitanie"},"departement":{"code":"34","nom":"Hérault","slug":"herault"},"region":{"code":"16","nom":"Occitanie","slug":"occitanie"},"villes_proches":[{"id":3152,"code_insee":"34247","nom_standard":"Saint-Clément-de-Rivière","nom_a":null,"nom_de":null,"slug_ville":"saint-clement-de-riviere","departement_id":635,"code_postal":"34980","population":5058,"superficie_km2":"13.00","latitude_centre":"43.6860008","longitude_centre":"3.8429999","distance_km":2.69},{"id":3067,"code_insee":"34082","nom_standard":"Combaillaux","nom_a":null,"nom_de":null,"slug_ville":"combaillaux","departement_id":635,"code_postal":"34980","population":1909,"superficie_km2":"9.00","latitude_centre":"43.6720009","longitude_centre":"3.7800000","distance_km":3.13},{"id":3103,"code_insee":"34153","nom_standard":"Les Matelles","nom_a":null,"nom_de":null,"slug_ville":"les-matelles","departement_id":635,"code_postal":"34270","population":2047,"superficie_km2":"17.00","latitude_centre":"43.7280006","longitude_centre":"3.8069999","distance_km":4.23},{"id":3081,"code_insee":"34116","nom_standard":"Grabels","nom_a":null,"nom_de":null,"slug_ville":"grabels","departement_id":635,"code_postal":"34790","population":8973,"superficie_km2":"17.00","latitude_centre":"43.6510010","longitude_centre":"3.7939999","distance_km":4.52},{"id":3138,"code_insee":"34217","nom_standard":"Prades-le-Lez","nom_a":null,"nom_de":null,"slug_ville":"prades-le-lez","departement_id":635,"code_postal":"34730","population":6107,"superficie_km2":"9.00","latitude_centre":"43.7070007","longitude_centre":"3.8650000","distance_km":4.81},{"id":3114,"code_insee":"34169","nom_standard":"Montferrier-sur-Lez","nom_a":null,"nom_de":null,"slug_ville":"montferrier-sur-lez","departement_id":635,"code_postal":"34980","population":4054,"superficie_km2":"8.00","latitude_centre":"43.6689987","longitude_centre":"3.8640001","distance_km":4.93},{"id":3063,"code_insee":"34077","nom_standard":"Clapiers","nom_a":null,"nom_de":null,"slug_ville":"clapiers","departement_id":635,"code_postal":"34830","population":5811,"superficie_km2":"8.00","latitude_centre":"43.6619988","longitude_centre":"3.8870001","distance_km":6.93},{"id":3180,"code_insee":"34320","nom_standard":"Vailhauquès","nom_a":null,"nom_de":null,"slug_ville":"vailhauques","departement_id":635,"code_postal":"34570","population":2647,"superficie_km2":"16.00","latitude_centre":"43.6640015","longitude_centre":"3.7279999","distance_km":7.2},{"id":3084,"code_insee":"34123","nom_standard":"Juvignac","nom_a":null,"nom_de":null,"slug_ville":"juvignac","departement_id":635,"code_postal":"34990","population":12783,"superficie_km2":"11.00","latitude_centre":"43.6240006","longitude_centre":"3.7960000","distance_km":7.42},{"id":3036,"code_insee":"34014","nom_standard":"Assas","nom_a":null,"nom_de":null,"slug_ville":"assas","departement_id":635,"code_postal":"34820","population":1455,"superficie_km2":"19.00","latitude_centre":"43.7099991","longitude_centre":"3.8980000","distance_km":7.42},{"id":3158,"code_insee":"34259","nom_standard":"Saint-Georges-d'Orques","nom_a":null,"nom_de":null,"slug_ville":"saint-georges-d-orques","departement_id":635,"code_postal":"34680","population":5600,"superficie_km2":"9.00","latitude_centre":"43.6170006","longitude_centre":"3.7739999","distance_km":8.62},{"id":3083,"code_insee":"34120","nom_standard":"Jacou","nom_a":null,"nom_de":null,"slug_ville":"jacou","departement_id":635,"code_postal":"34830","population":6823,"superficie_km2":"3.00","latitude_centre":"43.6629982","longitude_centre":"3.9119999","distance_km":8.74},{"id":3176,"code_insee":"34309","nom_standard":"Teyran","nom_a":null,"nom_de":null,"slug_ville":"teyran","departement_id":635,"code_postal":"34820","population":4685,"superficie_km2":"10.00","latitude_centre":"43.6850014","longitude_centre":"3.9280000","distance_km":9.5},{"id":3115,"code_insee":"34172","nom_standard":"Montpellier","nom_a":null,"nom_de":null,"slug_ville":"montpellier","departement_id":635,"code_postal":"34080","population":302454,"superficie_km2":"57.00","latitude_centre":"43.6129990","longitude_centre":"3.8680000","distance_km":9.75},{"id":3163,"code_insee":"34276","nom_standard":"Saint-Mathieu-de-Tréviers","nom_a":null,"nom_de":null,"slug_ville":"saint-mathieu-de-treviers","departement_id":635,"code_postal":"34270","population":4896,"superficie_km2":"22.00","latitude_centre":"43.7690010","longitude_centre":"3.8699999","distance_km":10.02},{"id":3110,"code_insee":"34163","nom_standard":"Montarnaud","nom_a":null,"nom_de":null,"slug_ville":"montarnaud","departement_id":635,"code_postal":"34570","population":4164,"superficie_km2":"28.00","latitude_centre":"43.6469994","longitude_centre":"3.7000000","distance_km":10.06},{"id":3055,"code_insee":"34057","nom_standard":"Castelnau-le-Lez","nom_a":null,"nom_de":null,"slug_ville":"castelnau-le-lez","departement_id":635,"code_postal":"34170","population":24888,"superficie_km2":"11.00","latitude_centre":"43.6380005","longitude_centre":"3.9130001","distance_km":10.1},{"id":3119,"code_insee":"34179","nom_standard":"Murviel-lès-Montpellier","nom_a":null,"nom_de":null,"slug_ville":"murviel-les-montpellier","departement_id":635,"code_postal":"34570","population":1930,"superficie_km2":"10.00","latitude_centre":"43.6100006","longitude_centre":"3.7390001","distance_km":10.57},{"id":3193,"code_insee":"34343","nom_standard":"Viols-le-Fort","nom_a":null,"nom_de":null,"slug_ville":"viols-le-fort","departement_id":635,"code_postal":"34380","population":1226,"superficie_km2":"17.00","latitude_centre":"43.7369995","longitude_centre":"3.6919999","distance_km":10.83},{"id":3072,"code_insee":"34090","nom_standard":"Le Crès","nom_a":null,"nom_de":null,"slug_ville":"le-cres","departement_id":635,"code_postal":"34920","population":9295,"superficie_km2":"6.00","latitude_centre":"43.6539993","longitude_centre":"3.9360001","distance_km":10.9}]}