{"ville":{"id":28807,"code_insee":"64492","nom_standard":"Saint-Michel","nom_a":null,"nom_de":null,"slug_ville":"saint-michel","departement_id":0,"code_postal":"64220","population":290,"superficie_km2":"2984.96","latitude_centre":"43.0951","longitude_centre":"-1.2381","dep_code":"64","dep_nom":"Pyrénées-Atlantiques","dep_slug":"pyrenees-atlantiques","reg_code":"75","reg_nom":"Nouvelle-Aquitaine","reg_slug":"nouvelle-aquitaine"},"departement":{"code":"64","nom":"Pyrénées-Atlantiques","slug":"pyrenees-atlantiques"},"region":{"code":"75","nom":"Nouvelle-Aquitaine","slug":"nouvelle-aquitaine"},"villes_proches":[{"id":28455,"code_insee":"64047","nom_standard":"Arnéguy","nom_a":null,"nom_de":null,"slug_ville":"arneguy","departement_id":0,"code_postal":"64220","population":237,"superficie_km2":"2116.45","latitude_centre":"43.0821","longitude_centre":"-1.2787","distance_km":3.6},{"id":0,"code_insee":"64538","nom_standard":"Uhart-Cize","nom_a":null,"nom_de":null,"slug_ville":"uhart-cize","departement_id":0,"code_postal":"64220","population":816,"superficie_km2":"1163.99","latitude_centre":"43.1289","longitude_centre":"-1.2537","distance_km":3.97},{"id":28587,"code_insee":"64218","nom_standard":"Estérençuby","nom_a":null,"nom_de":null,"slug_ville":"esterencuby","departement_id":0,"code_postal":"64220","population":303,"superficie_km2":"4583.84","latitude_centre":"43.0772","longitude_centre":"-1.1763","distance_km":5.4},{"id":28426,"code_insee":"64011","nom_standard":"Aincille","nom_a":null,"nom_de":null,"slug_ville":"aincille","departement_id":0,"code_postal":"64220","population":117,"superficie_km2":"625.02","latitude_centre":"43.1352","longitude_centre":"-1.1965","distance_km":5.59},{"id":28542,"code_insee":"64166","nom_standard":"Caro","nom_a":null,"nom_de":null,"slug_ville":"caro","departement_id":0,"code_postal":"64220","population":170,"superficie_km2":"405.51","latitude_centre":"43.1487","longitude_centre":"-1.2226","distance_km":6.09},{"id":28672,"code_insee":"64322","nom_standard":"Lasse","nom_a":null,"nom_de":null,"slug_ville":"lasse","departement_id":0,"code_postal":"64220","population":334,"superficie_km2":"1480.69","latitude_centre":"43.1377","longitude_centre":"-1.2932","distance_km":6.51},{"id":0,"code_insee":"64485","nom_standard":"Saint-Jean-Pied-de-Port","nom_a":null,"nom_de":null,"slug_ville":"saint-jean-pied-de-port","departement_id":0,"code_postal":"64220","population":1479,"superficie_km2":"275.18","latitude_centre":"43.157","longitude_centre":"-1.2338","distance_km":6.89},{"id":28439,"code_insee":"64026","nom_standard":"Anhaux","nom_a":null,"nom_de":null,"slug_ville":"anhaux","departement_id":0,"code_postal":"64220","population":389,"superficie_km2":"1235.84","latitude_centre":"43.1442","longitude_centre":"-1.3021","distance_km":7.54},{"id":28424,"code_insee":"64008","nom_standard":"Ahaxe-Alciette-Bascassan","nom_a":null,"nom_de":null,"slug_ville":"ahaxe-alciette-bascassan","departement_id":0,"code_postal":"64220","population":261,"superficie_km2":"1454.91","latitude_centre":"43.141","longitude_centre":"-1.1571","distance_km":8.32},{"id":28800,"code_insee":"64484","nom_standard":"Saint-Jean-le-Vieux","nom_a":null,"nom_de":null,"slug_ville":"saint-jean-le-vieux","departement_id":0,"code_postal":"64220","population":900,"superficie_km2":"1163.84","latitude_centre":"43.1733","longitude_centre":"-1.2071","distance_km":9.05},{"id":28676,"code_insee":"64327","nom_standard":"Lecumberry","nom_a":null,"nom_de":null,"slug_ville":"lecumberry","departement_id":0,"code_postal":"64220","population":196,"superficie_km2":"5812.93","latitude_centre":"43.085","longitude_centre":"-1.1229","distance_km":9.42},{"id":28466,"code_insee":"64066","nom_standard":"Ascarat","nom_a":null,"nom_de":null,"slug_ville":"ascarat","departement_id":0,"code_postal":"64220","population":348,"superficie_km2":"585.58","latitude_centre":"43.1826","longitude_centre":"-1.2621","distance_km":9.92},{"id":28634,"code_insee":"64275","nom_standard":"Ispoure","nom_a":null,"nom_de":null,"slug_ville":"ispoure","departement_id":0,"code_postal":"64220","population":667,"superficie_km2":"789.13","latitude_centre":"43.185","longitude_centre":"-1.2385","distance_km":10.0},{"id":28633,"code_insee":"64274","nom_standard":"Irouléguy","nom_a":null,"nom_de":null,"slug_ville":"irouleguy","departement_id":0,"code_postal":"64220","population":364,"superficie_km2":"943.98","latitude_centre":"43.1813","longitude_centre":"-1.2882","distance_km":10.41},{"id":28534,"code_insee":"64154","nom_standard":"Bussunarits-Sarrasquette","nom_a":null,"nom_de":null,"slug_ville":"bussunarits-sarrasquette","departement_id":0,"code_postal":"64220","population":210,"superficie_km2":"1199.38","latitude_centre":"43.1689","longitude_centre":"-1.1465","distance_km":11.07},{"id":28535,"code_insee":"64155","nom_standard":"Bustince-Iriberry","nom_a":null,"nom_de":null,"slug_ville":"bustince-iriberry","departement_id":0,"code_postal":"64220","population":102,"superficie_km2":"570.24","latitude_centre":"43.1895","longitude_centre":"-1.186","distance_km":11.32},{"id":28488,"code_insee":"64092","nom_standard":"Banca","nom_a":null,"nom_de":null,"slug_ville":"banca","departement_id":0,"code_postal":"64430","population":358,"superficie_km2":"4960.86","latitude_centre":"43.0919","longitude_centre":"-1.3794","distance_km":11.48},{"id":28639,"code_insee":"64283","nom_standard":"Jaxu","nom_a":null,"nom_de":null,"slug_ville":"jaxu","departement_id":0,"code_postal":"64220","population":206,"superficie_km2":"1068.34","latitude_centre":"43.2032","longitude_centre":"-1.2096","distance_km":12.24},{"id":28652,"code_insee":"64297","nom_standard":"Lacarre","nom_a":null,"nom_de":null,"slug_ville":"lacarre","departement_id":0,"code_postal":"64220","population":171,"superficie_km2":"447.08","latitude_centre":"43.19","longitude_centre":"-1.1563","distance_km":12.47},{"id":28428,"code_insee":"64013","nom_standard":"Ainhice-Mongelos","nom_a":null,"nom_de":null,"slug_ville":"ainhice-mongelos","departement_id":0,"code_postal":"64220","population":168,"superficie_km2":"1018.43","latitude_centre":"43.2136","longitude_centre":"-1.1579","distance_km":14.7}]}