{"ville":{"id":22729,"code_insee":"47274","nom_standard":"Saint-Romain-le-Noble","nom_a":null,"nom_de":null,"slug_ville":"saint-romain-le-noble","departement_id":0,"code_postal":"47270","population":412,"superficie_km2":"852.41","latitude_centre":"44.1571","longitude_centre":"0.7749","dep_code":"47","dep_nom":"Lot-et-Garonne","dep_slug":"lot-et-garonne","reg_code":"75","reg_nom":"Nouvelle-Aquitaine","reg_slug":"nouvelle-aquitaine"},"departement":{"code":"47","nom":"Lot-et-Garonne","slug":"lot-et-garonne"},"region":{"code":"75","nom":"Nouvelle-Aquitaine","slug":"nouvelle-aquitaine"},"villes_proches":[{"id":22708,"code_insee":"47248","nom_standard":"Saint-Jean-de-Thurac","nom_a":null,"nom_de":null,"slug_ville":"saint-jean-de-thurac","departement_id":0,"code_postal":"47270","population":563,"superficie_km2":"508.71","latitude_centre":"44.1552","longitude_centre":"0.7406","distance_km":2.74},{"id":22720,"code_insee":"47262","nom_standard":"Saint-Nicolas-de-la-Balerme","nom_a":null,"nom_de":null,"slug_ville":"saint-nicolas-de-la-balerme","departement_id":0,"code_postal":"47220","population":424,"superficie_km2":"476.37","latitude_centre":"44.1324","longitude_centre":"0.7587","distance_km":3.04},{"id":0,"code_insee":"47279","nom_standard":"Saint-Sixte","nom_a":null,"nom_de":null,"slug_ville":"saint-sixte","departement_id":0,"code_postal":"47220","population":363,"superficie_km2":"587.43","latitude_centre":"44.1269","longitude_centre":"0.7806","distance_km":3.39},{"id":22725,"code_insee":"47269","nom_standard":"Saint-Pierre-de-Clairac","nom_a":null,"nom_de":null,"slug_ville":"saint-pierre-de-clairac","departement_id":0,"code_postal":"47270","population":899,"superficie_km2":"1325.62","latitude_centre":"44.1832","longitude_centre":"0.7512","distance_km":3.46},{"id":0,"code_insee":"47060","nom_standard":"Caudecoste","nom_a":null,"nom_de":null,"slug_ville":"caudecoste","departement_id":0,"code_postal":"47220","population":1127,"superficie_km2":"1721.16","latitude_centre":"44.1227","longitude_centre":"0.745","distance_km":4.51},{"id":0,"code_insee":"47281","nom_standard":"Saint-Urcisse","nom_a":null,"nom_de":null,"slug_ville":"saint-urcisse","departement_id":0,"code_postal":"47270","population":242,"superficie_km2":"1095.76","latitude_centre":"44.1632","longitude_centre":"0.8311","distance_km":4.53},{"id":22682,"code_insee":"47217","nom_standard":"Puymirol","nom_a":null,"nom_de":null,"slug_ville":"puymirol","departement_id":0,"code_postal":"47270","population":899,"superficie_km2":"1964.68","latitude_centre":"44.1916","longitude_centre":"0.8076","distance_km":4.64},{"id":0,"code_insee":"82089","nom_standard":"Lamagistère","nom_a":null,"nom_de":null,"slug_ville":"lamagistere","departement_id":0,"code_postal":"82360","population":1218,"superficie_km2":"913.21","latitude_centre":"44.1309","longitude_centre":"0.8228","distance_km":4.81},{"id":22569,"code_insee":"47067","nom_standard":"Clermont-Soubiran","nom_a":null,"nom_de":null,"slug_ville":"clermont-soubiran","departement_id":0,"code_postal":"47270","population":395,"superficie_km2":"1038.81","latitude_centre":"44.1413","longitude_centre":"0.8409","distance_km":5.55},{"id":0,"code_insee":"47293","nom_standard":"Sauveterre-Saint-Denis","nom_a":null,"nom_de":null,"slug_ville":"sauveterre-saint-denis","departement_id":0,"code_postal":"47220","population":387,"superficie_km2":"824.59","latitude_centre":"44.1489","longitude_centre":"0.7022","distance_km":5.87},{"id":0,"code_insee":"47128","nom_standard":"Lafox","nom_a":null,"nom_de":null,"slug_ville":"lafox","departement_id":0,"code_postal":"47240","population":1098,"superficie_km2":"509.86","latitude_centre":"44.1654","longitude_centre":"0.6984","distance_km":6.17},{"id":22697,"code_insee":"47234","nom_standard":"Saint-Caprais-de-Lerm","nom_a":null,"nom_de":null,"slug_ville":"saint-caprais-de-lerm","departement_id":0,"code_postal":"47270","population":713,"superficie_km2":"1361.65","latitude_centre":"44.2149","longitude_centre":"0.7544","distance_km":6.63},{"id":0,"code_insee":"47051","nom_standard":"Castelculier","nom_a":null,"nom_de":null,"slug_ville":"castelculier","departement_id":0,"code_postal":"47240","population":2382,"superficie_km2":"1498.04","latitude_centre":"44.1905","longitude_centre":"0.7051","distance_km":6.69},{"id":22604,"code_insee":"47113","nom_standard":"Grayssas","nom_a":null,"nom_de":null,"slug_ville":"grayssas","departement_id":0,"code_postal":"47270","population":150,"superficie_km2":"938.05","latitude_centre":"44.1592","longitude_centre":"0.8592","distance_km":6.73},{"id":0,"code_insee":"82049","nom_standard":"Donzac","nom_a":null,"nom_de":null,"slug_ville":"donzac","departement_id":0,"code_postal":"82340","population":1042,"superficie_km2":"1333.39","latitude_centre":"44.0993","longitude_centre":"0.8169","distance_km":7.25},{"id":0,"code_insee":"47305","nom_standard":"Tayrac","nom_a":null,"nom_de":null,"slug_ville":"tayrac","departement_id":0,"code_postal":"47270","population":381,"superficie_km2":"1298.75","latitude_centre":"44.2087","longitude_centre":"0.8351","distance_km":7.48},{"id":0,"code_insee":"82050","nom_standard":"Dunes","nom_a":null,"nom_de":null,"slug_ville":"dunes","departement_id":0,"code_postal":"82340","population":1226,"superficie_km2":"2313.29","latitude_centre":"44.0866","longitude_centre":"0.776","distance_km":7.84},{"id":0,"code_insee":"47289","nom_standard":"La Sauvetat-de-Savères","nom_a":null,"nom_de":null,"slug_ville":"la-sauvetat-de-saveres","departement_id":0,"code_postal":"47270","population":479,"superficie_km2":"691.97","latitude_centre":"44.2333","longitude_centre":"0.7965","distance_km":8.65},{"id":22714,"code_insee":"47255","nom_standard":"Saint-Martin-de-Beauville","nom_a":null,"nom_de":null,"slug_ville":"saint-martin-de-beauville","departement_id":0,"code_postal":"47270","population":154,"superficie_km2":"758.51","latitude_centre":"44.2306","longitude_centre":"0.8196","distance_km":8.92},{"id":22575,"code_insee":"47076","nom_standard":"Cuq","nom_a":null,"nom_de":null,"slug_ville":"cuq","departement_id":0,"code_postal":"47220","population":278,"superficie_km2":"1694.08","latitude_centre":"44.0845","longitude_centre":"0.7181","distance_km":9.26}]}