{"ville":{"id":27349,"code_insee":"61404","nom_standard":"Saint-Hilaire-le-Châtel","nom_a":null,"nom_de":null,"slug_ville":"saint-hilaire-le-chatel","departement_id":0,"code_postal":"61400","population":667,"superficie_km2":"2255.35","latitude_centre":"48.5563","longitude_centre":"0.5456","dep_code":"61","dep_nom":"Orne","dep_slug":"orne","reg_code":"28","reg_nom":"Normandie","reg_slug":"normandie"},"departement":{"code":"61","nom":"Orne","slug":"orne"},"region":{"code":"28","nom":"Normandie","slug":"normandie"},"villes_proches":[{"id":0,"code_insee":"61507","nom_standard":"Villiers-sous-Mortagne","nom_a":null,"nom_de":null,"slug_ville":"villiers-sous-mortagne","departement_id":0,"code_postal":"61400","population":235,"superficie_km2":"1318.19","latitude_centre":"48.542","longitude_centre":"0.5954","distance_km":4.0},{"id":27328,"code_insee":"61373","nom_standard":"Sainte-Céronne-lès-Mortagne","nom_a":null,"nom_de":null,"slug_ville":"sainte-ceronne-les-mortagne","departement_id":0,"code_postal":"61380","population":251,"superficie_km2":"1276.02","latitude_centre":"48.5911","longitude_centre":"0.5241","distance_km":4.18},{"id":0,"code_insee":"61293","nom_standard":"Mortagne-au-Perche","nom_a":null,"nom_de":null,"slug_ville":"mortagne-au-perche","departement_id":0,"code_postal":"61400","population":3898,"superficie_km2":"865.64","latitude_centre":"48.5189","longitude_centre":"0.5642","distance_km":4.38},{"id":0,"code_insee":"61414","nom_standard":"Saint-Langis-lès-Mortagne","nom_a":null,"nom_de":null,"slug_ville":"saint-langis-les-mortagne","departement_id":0,"code_postal":"61400","population":877,"superficie_km2":"1278.65","latitude_centre":"48.5101","longitude_centre":"0.5335","distance_km":5.21},{"id":27113,"code_insee":"61029","nom_standard":"Bazoches-sur-Hoëne","nom_a":null,"nom_de":null,"slug_ville":"bazoches-sur-hoene","departement_id":0,"code_postal":"61560","population":827,"superficie_km2":"2151.72","latitude_centre":"48.5509","longitude_centre":"0.4644","distance_km":6.01},{"id":0,"code_insee":"61438","nom_standard":"Saint-Ouen-de-Sécherouvre","nom_a":null,"nom_de":null,"slug_ville":"saint-ouen-de-secherouvre","departement_id":0,"code_postal":"61560","population":153,"superficie_km2":"1014.95","latitude_centre":"48.5972","longitude_centre":"0.4881","distance_km":6.21},{"id":27239,"code_insee":"61229","nom_standard":"Loisail","nom_a":null,"nom_de":null,"slug_ville":"loisail","departement_id":0,"code_postal":"61400","population":135,"superficie_km2":"522.56","latitude_centre":"48.5048","longitude_centre":"0.5841","distance_km":6.39},{"id":27343,"code_insee":"61396","nom_standard":"Saint-Germain-de-Martigny","nom_a":null,"nom_de":null,"slug_ville":"saint-germain-de-martigny","departement_id":0,"code_postal":"61560","population":78,"superficie_km2":"391.10","latitude_centre":"48.5867","longitude_centre":"0.4656","distance_km":6.79},{"id":27182,"code_insee":"61130","nom_standard":"Courgeoût","nom_a":null,"nom_de":null,"slug_ville":"courgeout","departement_id":0,"code_postal":"61560","population":458,"superficie_km2":"1801.79","latitude_centre":"48.5069","longitude_centre":"0.4829","distance_km":7.18},{"id":27153,"code_insee":"61087","nom_standard":"Champeaux-sur-Sarthe","nom_a":null,"nom_de":null,"slug_ville":"champeaux-sur-sarthe","departement_id":0,"code_postal":"61560","population":159,"superficie_km2":"946.24","latitude_centre":"48.5743","longitude_centre":"0.4458","distance_km":7.61},{"id":0,"code_insee":"61475","nom_standard":"Soligny-la-Trappe","nom_a":null,"nom_de":null,"slug_ville":"soligny-la-trappe","departement_id":0,"code_postal":"61380","population":627,"superficie_km2":"1987.33","latitude_centre":"48.6256","longitude_centre":"0.5561","distance_km":7.74},{"id":27124,"code_insee":"61048","nom_standard":"Boëcé","nom_a":null,"nom_de":null,"slug_ville":"boece","departement_id":0,"code_postal":"61560","population":125,"superficie_km2":"240.12","latitude_centre":"48.5148","longitude_centre":"0.4535","distance_km":8.2},{"id":27311,"code_insee":"61348","nom_standard":"Réveillon","nom_a":null,"nom_de":null,"slug_ville":"reveillon","departement_id":0,"code_postal":"61400","population":349,"superficie_km2":"1189.61","latitude_centre":"48.4808","longitude_centre":"0.5595","distance_km":8.46},{"id":0,"code_insee":"61491","nom_standard":"Tourouvre au Perche","nom_a":null,"nom_de":null,"slug_ville":"tourouvre-au-perche","departement_id":0,"code_postal":"61190","population":2955,"superficie_km2":"9433.49","latitude_centre":"48.6065","longitude_centre":"0.6321","distance_km":8.46},{"id":0,"code_insee":"61418","nom_standard":"Saint-Mard-de-Réno","nom_a":null,"nom_de":null,"slug_ville":"saint-mard-de-reno","departement_id":0,"code_postal":"61400","population":386,"superficie_km2":"1919.54","latitude_centre":"48.5091","longitude_centre":"0.6368","distance_km":8.52},{"id":27298,"code_insee":"61322","nom_standard":"Parfondeval","nom_a":null,"nom_de":null,"slug_ville":"parfondeval","departement_id":0,"code_postal":"61400","population":102,"superficie_km2":"309.66","latitude_centre":"48.4797","longitude_centre":"0.5058","distance_km":9.01},{"id":0,"code_insee":"61425","nom_standard":"Saint-Martin-des-Pézerits","nom_a":null,"nom_de":null,"slug_ville":"saint-martin-des-pezerits","departement_id":0,"code_postal":"61380","population":117,"superficie_km2":"465.65","latitude_centre":"48.6285","longitude_centre":"0.489","distance_km":9.04},{"id":27321,"code_insee":"61363","nom_standard":"Saint-Aquilin-de-Corbion","nom_a":null,"nom_de":null,"slug_ville":"saint-aquilin-de-corbion","departement_id":0,"code_postal":"61380","population":60,"superficie_km2":"608.19","latitude_centre":"48.6416","longitude_centre":"0.5285","distance_km":9.57},{"id":27332,"code_insee":"61381","nom_standard":"Saint-Denis-sur-Huisne","nom_a":null,"nom_de":null,"slug_ville":"saint-denis-sur-huisne","departement_id":0,"code_postal":"61400","population":59,"superficie_km2":"466.81","latitude_centre":"48.4706","longitude_centre":"0.5317","distance_km":9.58},{"id":27172,"code_insee":"61113","nom_standard":"Comblot","nom_a":null,"nom_de":null,"slug_ville":"comblot","departement_id":0,"code_postal":"61400","population":58,"superficie_km2":"436.70","latitude_centre":"48.4617","longitude_centre":"0.5854","distance_km":10.92}]}