{"ville":{"id":14639,"code_insee":"17382","nom_standard":"Saint-Pierre-d'Amilly","nom_a":null,"nom_de":null,"slug_ville":"saint-pierre-d-amilly","departement_id":0,"code_postal":"17700","population":575,"superficie_km2":"1976.94","latitude_centre":"46.173","longitude_centre":"-0.6984","dep_code":"17","dep_nom":"Charente-Maritime","dep_slug":"charente-maritime","reg_code":"75","reg_nom":"Nouvelle-Aquitaine","reg_slug":"nouvelle-aquitaine"},"departement":{"code":"17","nom":"Charente-Maritime","slug":"charente-maritime"},"region":{"code":"75","nom":"Nouvelle-Aquitaine","slug":"nouvelle-aquitaine"},"villes_proches":[{"id":0,"code_insee":"17338","nom_standard":"Saint-Georges-du-Bois","nom_a":null,"nom_de":null,"slug_ville":"saint-georges-du-bois","departement_id":0,"code_postal":"17700","population":1883,"superficie_km2":"2787.27","latitude_centre":"46.1547","longitude_centre":"-0.7345","distance_km":3.45},{"id":0,"code_insee":"79170","nom_standard":"Mauzé-sur-le-Mignon","nom_a":null,"nom_de":null,"slug_ville":"mauze-sur-le-mignon","departement_id":0,"code_postal":"79210","population":2941,"superficie_km2":"2411.03","latitude_centre":"46.1907","longitude_centre":"-0.6436","distance_km":4.66},{"id":0,"code_insee":"17394","nom_standard":"Saint-Saturnin-du-Bois","nom_a":null,"nom_de":null,"slug_ville":"saint-saturnin-du-bois","departement_id":0,"code_postal":"17700","population":915,"superficie_km2":"2530.18","latitude_centre":"46.1399","longitude_centre":"-0.6581","distance_km":4.81},{"id":14480,"code_insee":"17132","nom_standard":"Cram-Chaban","nom_a":null,"nom_de":null,"slug_ville":"cram-chaban","departement_id":0,"code_postal":"17170","population":654,"superficie_km2":"1604.45","latitude_centre":"46.2198","longitude_centre":"-0.7159","distance_km":5.38},{"id":0,"code_insee":"79220","nom_standard":"Prin-Deyrançon","nom_a":null,"nom_de":null,"slug_ville":"prin-deyrancon","departement_id":0,"code_postal":"79210","population":593,"superficie_km2":"1616.19","latitude_centre":"46.2168","longitude_centre":"-0.6498","distance_km":6.14},{"id":14525,"code_insee":"17201","nom_standard":"La Laigne","nom_a":null,"nom_de":null,"slug_ville":"la-laigne","departement_id":0,"code_postal":"17170","population":500,"superficie_km2":"434.01","latitude_centre":"46.2168","longitude_centre":"-0.7562","distance_km":6.6},{"id":0,"code_insee":"17041","nom_standard":"Benon","nom_a":null,"nom_de":null,"slug_ville":"benon","departement_id":0,"code_postal":"17170","population":1859,"superficie_km2":"4752.96","latitude_centre":"46.2004","longitude_centre":"-0.7938","distance_km":7.95},{"id":0,"code_insee":"17482","nom_standard":"Vouhé","nom_a":null,"nom_de":null,"slug_ville":"vouhe","departement_id":0,"code_postal":"17700","population":674,"superficie_km2":"1578.92","latitude_centre":"46.1493","longitude_centre":"-0.7994","distance_km":8.21},{"id":0,"code_insee":"79046","nom_standard":"Le Bourdet","nom_a":null,"nom_de":null,"slug_ville":"le-bourdet","departement_id":0,"code_postal":"79210","population":564,"superficie_km2":"835.81","latitude_centre":"46.2391","longitude_centre":"-0.6422","distance_km":8.53},{"id":14541,"code_insee":"17221","nom_standard":"Marsais","nom_a":null,"nom_de":null,"slug_ville":"marsais","departement_id":0,"code_postal":"17700","population":981,"superficie_km2":"2384.72","latitude_centre":"46.1213","longitude_centre":"-0.6141","distance_km":8.67},{"id":0,"code_insee":"17359","nom_standard":"Saint-Mard","nom_a":null,"nom_de":null,"slug_ville":"saint-mard","departement_id":0,"code_postal":"17700","population":1261,"superficie_km2":"2103.50","latitude_centre":"46.0931","longitude_centre":"-0.6961","distance_km":8.89},{"id":0,"code_insee":"79334","nom_standard":"Val-du-Mignon","nom_a":null,"nom_de":null,"slug_ville":"val-du-mignon","departement_id":0,"code_postal":"79210","population":1092,"superficie_km2":"2869.75","latitude_centre":"46.1624","longitude_centre":"-0.5826","distance_km":9.0},{"id":0,"code_insee":"17434","nom_standard":"Surgères","nom_a":null,"nom_de":null,"slug_ville":"surgeres","departement_id":0,"code_postal":"17700","population":6897,"superficie_km2":"2865.93","latitude_centre":"46.0985","longitude_centre":"-0.7514","distance_km":9.24},{"id":14513,"code_insee":"17182","nom_standard":"La Grève-sur-Mignon","nom_a":null,"nom_de":null,"slug_ville":"la-greve-sur-mignon","departement_id":0,"code_postal":"17170","population":577,"superficie_km2":"1156.89","latitude_centre":"46.2507","longitude_centre":"-0.7604","distance_km":9.87},{"id":0,"code_insee":"79112","nom_standard":"Épannes","nom_a":null,"nom_de":null,"slug_ville":"epannes","departement_id":0,"code_postal":"79270","population":851,"superficie_km2":"808.40","latitude_centre":"46.2235","longitude_centre":"-0.5895","distance_km":10.09},{"id":0,"code_insee":"79257","nom_standard":"Saint-Hilaire-la-Palud","nom_a":null,"nom_de":null,"slug_ville":"saint-hilaire-la-palud","departement_id":0,"code_postal":"79210","population":1498,"superficie_km2":"3410.63","latitude_centre":"46.265","longitude_centre":"-0.7098","distance_km":10.27},{"id":0,"code_insee":"79254","nom_standard":"Saint-Georges-de-Rex","nom_a":null,"nom_de":null,"slug_ville":"saint-georges-de-rex","departement_id":0,"code_postal":"79210","population":431,"superficie_km2":"1771.80","latitude_centre":"46.2668","longitude_centre":"-0.6555","distance_km":10.94},{"id":0,"code_insee":"79009","nom_standard":"Amuré","nom_a":null,"nom_de":null,"slug_ville":"amure","departement_id":0,"code_postal":"79210","population":429,"superficie_km2":"1481.83","latitude_centre":"46.2559","longitude_centre":"-0.6109","distance_km":11.41},{"id":14610,"code_insee":"17327","nom_standard":"Saint-Félix","nom_a":null,"nom_de":null,"slug_ville":"saint-felix","departement_id":0,"code_postal":"17330","population":324,"superficie_km2":"1541.70","latitude_centre":"46.0921","longitude_centre":"-0.6042","distance_km":11.56},{"id":14438,"code_insee":"17063","nom_standard":"Breuil-la-Réorte","nom_a":null,"nom_de":null,"slug_ville":"breuil-la-reorte","departement_id":0,"code_postal":"17700","population":470,"superficie_km2":"1614.60","latitude_centre":"46.0631","longitude_centre":"-0.6923","distance_km":12.23}]}