{"ville":{"id":3737,"code_insee":"38351","nom_standard":"Saint-Agnin-sur-Bion","nom_a":null,"nom_de":null,"slug_ville":"saint-agnin-sur-bion","departement_id":639,"code_postal":"38300","population":1135,"superficie_km2":"10.00","latitude_centre":"45.5390015","longitude_centre":"5.2389998","dep_code":"38","dep_nom":"Isère","dep_slug":"isere","reg_code":"01","reg_nom":"Auvergne-Rhône-Alpes","reg_slug":"auvergne-rhone-alpes"},"departement":{"code":"38","nom":"Isère","slug":"isere"},"region":{"code":"01","nom":"Auvergne-Rhône-Alpes","slug":"auvergne-rhone-alpes"},"villes_proches":[{"id":3685,"code_insee":"38223","nom_standard":"Maubec","nom_a":null,"nom_de":null,"slug_ville":"maubec","departement_id":639,"code_postal":"38300","population":1909,"superficie_km2":"9.00","latitude_centre":"45.5660019","longitude_centre":"5.2579999","distance_km":3.35},{"id":3690,"code_insee":"38231","nom_standard":"Meyrieu-les-Étangs","nom_a":null,"nom_de":null,"slug_ville":"meyrieu-les-etangs","departement_id":639,"code_postal":"38440","population":1031,"superficie_km2":"9.00","latitude_centre":"45.5159988","longitude_centre":"5.1989999","distance_km":4.03},{"id":3689,"code_insee":"38230","nom_standard":"Meyrié","nom_a":null,"nom_de":null,"slug_ville":"meyrie","departement_id":639,"code_postal":"38300","population":1067,"superficie_km2":"3.00","latitude_centre":"45.5600014","longitude_centre":"5.2849998","distance_km":4.28},{"id":3647,"code_insee":"38149","nom_standard":"Domarin","nom_a":null,"nom_de":null,"slug_ville":"domarin","departement_id":639,"code_postal":"38300","population":1681,"superficie_km2":"3.00","latitude_centre":"45.5820007","longitude_centre":"5.2449999","distance_km":4.8},{"id":3738,"code_insee":"38352","nom_standard":"Saint-Alban-de-Roche","nom_a":null,"nom_de":null,"slug_ville":"saint-alban-de-roche","departement_id":639,"code_postal":"38080","population":2113,"superficie_km2":"4.00","latitude_centre":"45.5870018","longitude_centre":"5.2249999","distance_km":5.45},{"id":3659,"code_insee":"38172","nom_standard":"Four","nom_a":null,"nom_de":null,"slug_ville":"four","departement_id":639,"code_postal":"38080","population":1656,"superficie_km2":"12.00","latitude_centre":"45.5769997","longitude_centre":"5.1939998","distance_km":5.49},{"id":3583,"code_insee":"38015","nom_standard":"Artas","nom_a":null,"nom_de":null,"slug_ville":"artas","departement_id":639,"code_postal":"38440","population":1832,"superficie_km2":"14.00","latitude_centre":"45.5369988","longitude_centre":"5.1669998","distance_km":5.61},{"id":3704,"code_insee":"38276","nom_standard":"Nivolas-Vermelle","nom_a":null,"nom_de":null,"slug_ville":"nivolas-vermelle","departement_id":639,"code_postal":"38300","population":2632,"superficie_km2":"6.00","latitude_centre":"45.5620003","longitude_centre":"5.3070002","distance_km":5.88},{"id":3623,"code_insee":"38094","nom_standard":"Châtonnay","nom_a":null,"nom_de":null,"slug_ville":"chatonnay","departement_id":639,"code_postal":"38440","population":1983,"superficie_km2":"31.00","latitude_centre":"45.4770012","longitude_centre":"5.2220001","distance_km":7.02},{"id":3650,"code_insee":"38152","nom_standard":"Eclose-Badinières","nom_a":null,"nom_de":null,"slug_ville":"eclose-badinieres","departement_id":639,"code_postal":"38300","population":1487,"superficie_km2":"10.00","latitude_centre":"45.4920006","longitude_centre":"5.3030000","distance_km":7.22},{"id":3603,"code_insee":"38053","nom_standard":"Bourgoin-Jallieu","nom_a":null,"nom_de":null,"slug_ville":"bourgoin-jallieu","departement_id":639,"code_postal":"38300","population":29577,"superficie_km2":"25.00","latitude_centre":"45.6020012","longitude_centre":"5.2740002","distance_km":7.52},{"id":3729,"code_insee":"38339","nom_standard":"Roche","nom_a":null,"nom_de":null,"slug_ville":"roche","departement_id":639,"code_postal":"38090","population":2137,"superficie_km2":"20.00","latitude_centre":"45.5740013","longitude_centre":"5.1560001","distance_km":7.54},{"id":3799,"code_insee":"38481","nom_standard":"Sérézin-de-la-Tour","nom_a":null,"nom_de":null,"slug_ville":"serezin-de-la-tour","departement_id":639,"code_postal":"38300","population":1133,"superficie_km2":"9.00","latitude_centre":"45.5550003","longitude_centre":"5.3400002","distance_km":8.06},{"id":3759,"code_insee":"38399","nom_standard":"Saint-Jean-de-Bournay","nom_a":null,"nom_de":null,"slug_ville":"saint-jean-de-bournay","departement_id":639,"code_postal":"38440","population":4687,"superficie_km2":"27.00","latitude_centre":"45.4980011","longitude_centre":"5.1479998","distance_km":8.43},{"id":3674,"code_insee":"38193","nom_standard":"L'Isle-d'Abeau","nom_a":null,"nom_de":null,"slug_ville":"l-isle-d-abeau","departement_id":639,"code_postal":"38080","population":17206,"superficie_km2":"13.00","latitude_centre":"45.6180000","longitude_centre":"5.2230001","distance_km":8.87},{"id":3821,"code_insee":"38530","nom_standard":"Vaulx-Milieu","nom_a":null,"nom_de":null,"slug_ville":"vaulx-milieu","departement_id":639,"code_postal":"38090","population":2505,"superficie_km2":"9.00","latitude_centre":"45.6160011","longitude_centre":"5.1859999","distance_km":9.5},{"id":3618,"code_insee":"38081","nom_standard":"Charantonnay","nom_a":null,"nom_de":null,"slug_ville":"charantonnay","departement_id":639,"code_postal":"38790","population":1991,"superficie_km2":"11.00","latitude_centre":"45.5379982","longitude_centre":"5.1160002","distance_km":9.58},{"id":3612,"code_insee":"38069","nom_standard":"Champier","nom_a":null,"nom_de":null,"slug_ville":"champier","departement_id":639,"code_postal":"38260","population":1510,"superficie_km2":"14.00","latitude_centre":"45.4580002","longitude_centre":"5.2919998","distance_km":9.91},{"id":3735,"code_insee":"38348","nom_standard":"Ruy-Montceau","nom_a":null,"nom_de":null,"slug_ville":"ruy-montceau","departement_id":639,"code_postal":"38300","population":4752,"superficie_km2":"21.00","latitude_centre":"45.5900002","longitude_centre":"5.3439999","distance_km":9.95},{"id":3831,"code_insee":"38553","nom_standard":"Villefontaine","nom_a":null,"nom_de":null,"slug_ville":"villefontaine","departement_id":639,"code_postal":"38090","population":19083,"superficie_km2":"10.00","latitude_centre":"45.6139984","longitude_centre":"5.1560001","distance_km":10.55}]}