{"ville":{"id":10761,"code_insee":"02670","nom_standard":"Saint-Algis","nom_a":null,"nom_de":null,"slug_ville":"saint-algis","departement_id":0,"code_postal":"02260","population":148,"superficie_km2":"691.53","latitude_centre":"49.8946","longitude_centre":"3.8257","dep_code":"02","dep_nom":"Aisne","dep_slug":"aisne","reg_code":"32","reg_nom":"Hauts-de-France","reg_slug":"hauts-de-france"},"departement":{"code":"02","nom":"Aisne","slug":"aisne"},"region":{"code":"32","nom":"Hauts-de-France","slug":"hauts-de-france"},"villes_proches":[{"id":10226,"code_insee":"02040","nom_standard":"Autreppes","nom_a":null,"nom_de":null,"slug_ville":"autreppes","departement_id":0,"code_postal":"02580","population":175,"superficie_km2":"684.61","latitude_centre":"49.8963","longitude_centre":"3.8571","distance_km":2.26},{"id":10504,"code_insee":"02377","nom_standard":"Haution","nom_a":null,"nom_de":null,"slug_ville":"haution","departement_id":0,"code_postal":"02140","population":131,"superficie_km2":"950.50","latitude_centre":"49.8709","longitude_centre":"3.8352","distance_km":2.72},{"id":10584,"code_insee":"02469","nom_standard":"Marly-Gomont","nom_a":null,"nom_de":null,"slug_ville":"marly-gomont","departement_id":0,"code_postal":"02120","population":483,"superficie_km2":"1305.34","latitude_centre":"49.8894","longitude_centre":"3.7856","distance_km":2.93},{"id":10436,"code_insee":"02284","nom_standard":"Erloy","nom_a":null,"nom_de":null,"slug_ville":"erloy","departement_id":0,"code_postal":"02260","population":98,"superficie_km2":"745.61","latitude_centre":"49.9204","longitude_centre":"3.8394","distance_km":3.03},{"id":10428,"code_insee":"02276","nom_standard":"Englancourt","nom_a":null,"nom_de":null,"slug_ville":"englancourt","departement_id":0,"code_postal":"02260","population":122,"superficie_km2":"802.21","latitude_centre":"49.9251","longitude_centre":"3.8081","distance_km":3.62},{"id":10523,"code_insee":"02401","nom_standard":"Laigny","nom_a":null,"nom_de":null,"slug_ville":"laigny","departement_id":0,"code_postal":"02140","population":189,"superficie_km2":"1086.90","latitude_centre":"49.8634","longitude_centre":"3.8573","distance_km":4.14},{"id":0,"code_insee":"02728","nom_standard":"Sorbais","nom_a":null,"nom_de":null,"slug_ville":"sorbais","departement_id":0,"code_postal":"02580","population":266,"superficie_km2":"1393.64","latitude_centre":"49.9104","longitude_centre":"3.8808","distance_km":4.32},{"id":0,"code_insee":"02759","nom_standard":"La Vallée-au-Blé","nom_a":null,"nom_de":null,"slug_ville":"la-vallee-au-ble","departement_id":0,"code_postal":"02140","population":355,"superficie_km2":"522.10","latitude_centre":"49.8572","longitude_centre":"3.794","distance_km":4.74},{"id":10719,"code_insee":"02624","nom_standard":"Proisy","nom_a":null,"nom_de":null,"slug_ville":"proisy","departement_id":0,"code_postal":"02120","population":276,"superficie_km2":"533.10","latitude_centre":"49.8891","longitude_centre":"3.7548","distance_km":5.12},{"id":10349,"code_insee":"02188","nom_standard":"Chigny","nom_a":null,"nom_de":null,"slug_ville":"chigny","departement_id":0,"code_postal":"02120","population":140,"superficie_km2":"1059.18","latitude_centre":"49.9291","longitude_centre":"3.7728","distance_km":5.39},{"id":0,"code_insee":"02826","nom_standard":"Voulpaix","nom_a":null,"nom_de":null,"slug_ville":"voulpaix","departement_id":0,"code_postal":"02140","population":348,"superficie_km2":"1158.29","latitude_centre":"49.8408","longitude_centre":"3.8332","distance_km":6.01},{"id":0,"code_insee":"02731","nom_standard":"Le Sourd","nom_a":null,"nom_de":null,"slug_ville":"le-sourd","departement_id":0,"code_postal":"02140","population":155,"superficie_km2":"743.83","latitude_centre":"49.8664","longitude_centre":"3.7518","distance_km":6.15},{"id":10398,"code_insee":"02244","nom_standard":"Crupilly","nom_a":null,"nom_de":null,"slug_ville":"crupilly","departement_id":0,"code_postal":"02120","population":64,"superficie_km2":"348.93","latitude_centre":"49.9299","longitude_centre":"3.7555","distance_km":6.38},{"id":10746,"code_insee":"02654","nom_standard":"Romery","nom_a":null,"nom_de":null,"slug_ville":"romery","departement_id":0,"code_postal":"02120","population":83,"superficie_km2":"399.88","latitude_centre":"49.8899","longitude_centre":"3.7362","distance_km":6.43},{"id":0,"code_insee":"02135","nom_standard":"Buironfosse","nom_a":null,"nom_de":null,"slug_ville":"buironfosse","departement_id":0,"code_postal":"02620","population":1122,"superficie_km2":"1765.01","latitude_centre":"49.958","longitude_centre":"3.8371","distance_km":7.1},{"id":10539,"code_insee":"02418","nom_standard":"Lerzy","nom_a":null,"nom_de":null,"slug_ville":"lerzy","departement_id":0,"code_postal":"02260","population":223,"superficie_km2":"1155.61","latitude_centre":"49.9504","longitude_centre":"3.8831","distance_km":7.44},{"id":10537,"code_insee":"02416","nom_standard":"Lemé","nom_a":null,"nom_de":null,"slug_ville":"leme","departement_id":0,"code_postal":"02140","population":409,"superficie_km2":"1159.81","latitude_centre":"49.8422","longitude_centre":"3.758","distance_km":7.58},{"id":0,"code_insee":"02688","nom_standard":"Saint-Pierre-lès-Franqueville","nom_a":null,"nom_de":null,"slug_ville":"saint-pierre-les-franqueville","departement_id":0,"code_postal":"02140","population":39,"superficie_km2":"716.37","latitude_centre":"49.8246","longitude_centre":"3.8189","distance_km":7.8},{"id":10540,"code_insee":"02419","nom_standard":"Leschelle","nom_a":null,"nom_de":null,"slug_ville":"leschelle","departement_id":0,"code_postal":"02170","population":269,"superficie_km2":"1467.88","latitude_centre":"49.963","longitude_centre":"3.7739","distance_km":8.46},{"id":10466,"code_insee":"02331","nom_standard":"Franqueville","nom_a":null,"nom_de":null,"slug_ville":"franqueville","departement_id":0,"code_postal":"02140","population":106,"superficie_km2":"290.68","latitude_centre":"49.8187","longitude_centre":"3.7974","distance_km":8.68}]}