{"ville":{"id":14650,"code_insee":"17401","nom_standard":"Saint-Séverin-sur-Boutonne","nom_a":null,"nom_de":null,"slug_ville":"saint-severin-sur-boutonne","departement_id":0,"code_postal":"17330","population":93,"superficie_km2":"803.10","latitude_centre":"46.0933","longitude_centre":"-0.4268","dep_code":"17","dep_nom":"Charente-Maritime","dep_slug":"charente-maritime","reg_code":"75","reg_nom":"Nouvelle-Aquitaine","reg_slug":"nouvelle-aquitaine"},"departement":{"code":"17","nom":"Charente-Maritime","slug":"charente-maritime"},"region":{"code":"75","nom":"Nouvelle-Aquitaine","slug":"nouvelle-aquitaine"},"villes_proches":[{"id":0,"code_insee":"79346","nom_standard":"Le Vert","nom_a":null,"nom_de":null,"slug_ville":"le-vert","departement_id":0,"code_postal":"79170","population":117,"superficie_km2":"1186.47","latitude_centre":"46.103","longitude_centre":"-0.3939","distance_km":2.76},{"id":14485,"code_insee":"17138","nom_standard":"Dampierre-sur-Boutonne","nom_a":null,"nom_de":null,"slug_ville":"dampierre-sur-boutonne","departement_id":0,"code_postal":"17470","population":267,"superficie_km2":"1410.71","latitude_centre":"46.0746","longitude_centre":"-0.3893","distance_km":3.56},{"id":14468,"code_insee":"17114","nom_standard":"Coivert","nom_a":null,"nom_de":null,"slug_ville":"coivert","departement_id":0,"code_postal":"17330","population":190,"superficie_km2":"1498.99","latitude_centre":"46.0668","longitude_centre":"-0.4576","distance_km":3.79},{"id":14428,"code_insee":"17049","nom_standard":"Blanzay-sur-Boutonne","nom_a":null,"nom_de":null,"slug_ville":"blanzay-sur-boutonne","departement_id":0,"code_postal":"17470","population":76,"superficie_km2":"580.42","latitude_centre":"46.0537","longitude_centre":"-0.4205","distance_km":4.43},{"id":0,"code_insee":"17474","nom_standard":"Villeneuve-la-Comtesse","nom_a":null,"nom_de":null,"slug_ville":"villeneuve-la-comtesse","departement_id":0,"code_postal":"17330","population":743,"superficie_km2":"1610.08","latitude_centre":"46.0959","longitude_centre":"-0.4941","distance_km":5.2},{"id":0,"code_insee":"79090","nom_standard":"Chizé","nom_a":null,"nom_de":null,"slug_ville":"chize","departement_id":0,"code_postal":"79170","population":862,"superficie_km2":"2316.17","latitude_centre":"46.111","longitude_centre":"-0.3589","distance_km":5.59},{"id":14626,"code_insee":"17361","nom_standard":"Saint-Martial","nom_a":null,"nom_de":null,"slug_ville":"saint-martial","departement_id":0,"code_postal":"17330","population":109,"superficie_km2":"412.16","latitude_centre":"46.044","longitude_centre":"-0.4555","distance_km":5.91},{"id":0,"code_insee":"79350","nom_standard":"Villiers-en-Bois","nom_a":null,"nom_de":null,"slug_ville":"villiers-en-bois","departement_id":0,"code_postal":"79360","population":127,"superficie_km2":"1863.06","latitude_centre":"46.1449","longitude_centre":"-0.4075","distance_km":5.93},{"id":0,"code_insee":"79078","nom_standard":"Plaine-d'Argenson","nom_a":null,"nom_de":null,"slug_ville":"plaine-d-argenson","departement_id":0,"code_postal":"79360","population":1006,"superficie_km2":"4584.29","latitude_centre":"46.1316","longitude_centre":"-0.4813","distance_km":5.98},{"id":14484,"code_insee":"17137","nom_standard":"La Croix-Comtesse","nom_a":null,"nom_de":null,"slug_ville":"la-croix-comtesse","departement_id":0,"code_postal":"17330","population":223,"superficie_km2":"265.49","latitude_centre":"46.0817","longitude_centre":"-0.5056","distance_km":6.21},{"id":14571,"code_insee":"17268","nom_standard":"Rives-de-Boutonne","nom_a":null,"nom_de":null,"slug_ville":"rives-de-boutonne","departement_id":0,"code_postal":"17470","population":419,"superficie_km2":"2126.85","latitude_centre":"46.0307","longitude_centre":"-0.4043","distance_km":7.17},{"id":14641,"code_insee":"17384","nom_standard":"Saint-Pierre-de-l'Isle","nom_a":null,"nom_de":null,"slug_ville":"saint-pierre-de-l-isle","departement_id":0,"code_postal":"17330","population":248,"superficie_km2":"648.92","latitude_centre":"46.0302","longitude_centre":"-0.4464","distance_km":7.18},{"id":0,"code_insee":"17464","nom_standard":"Vergné","nom_a":null,"nom_de":null,"slug_ville":"vergne","departement_id":0,"code_postal":"17330","population":172,"superficie_km2":"802.90","latitude_centre":"46.0714","longitude_centre":"-0.5157","distance_km":7.28},{"id":14521,"code_insee":"17195","nom_standard":"La Jarrie-Audouin","nom_a":null,"nom_de":null,"slug_ville":"la-jarrie-audouin","departement_id":0,"code_postal":"17330","population":270,"superficie_km2":"847.12","latitude_centre":"46.035","longitude_centre":"-0.4791","distance_km":7.64},{"id":0,"code_insee":"79055","nom_standard":"Brieuil-sur-Chizé","nom_a":null,"nom_de":null,"slug_ville":"brieuil-sur-chize","departement_id":0,"code_postal":"79170","population":86,"superficie_km2":"812.17","latitude_centre":"46.1248","longitude_centre":"-0.3298","distance_km":8.26},{"id":14534,"code_insee":"17211","nom_standard":"Loulay","nom_a":null,"nom_de":null,"slug_ville":"loulay","departement_id":0,"code_postal":"17330","population":760,"superficie_km2":"736.47","latitude_centre":"46.0445","longitude_centre":"-0.5129","distance_km":8.58},{"id":0,"code_insee":"79126","nom_standard":"Les Fosses","nom_a":null,"nom_de":null,"slug_ville":"les-fosses","departement_id":0,"code_postal":"79360","population":425,"superficie_km2":"1221.08","latitude_centre":"46.1688","longitude_centre":"-0.3682","distance_km":9.53},{"id":14638,"code_insee":"17381","nom_standard":"Saint-Pardoult","nom_a":null,"nom_de":null,"slug_ville":"saint-pardoult","departement_id":0,"code_postal":"17400","population":211,"superficie_km2":"556.51","latitude_centre":"46.0057","longitude_centre":"-0.4563","distance_km":10.0},{"id":0,"code_insee":"79031","nom_standard":"Beauvoir-sur-Niort","nom_a":null,"nom_de":null,"slug_ville":"beauvoir-sur-niort","departement_id":0,"code_postal":"79360","population":1765,"superficie_km2":"2361.02","latitude_centre":"46.1842","longitude_centre":"-0.477","distance_km":10.82},{"id":0,"code_insee":"79166","nom_standard":"Marigny","nom_a":null,"nom_de":null,"slug_ville":"marigny","departement_id":0,"code_postal":"79360","population":902,"superficie_km2":"3214.48","latitude_centre":"46.1932","longitude_centre":"-0.4141","distance_km":11.15}]}