{"ville":{"id":32004,"code_insee":"76598","nom_standard":"Saint-Léger-aux-Bois","nom_a":null,"nom_de":null,"slug_ville":"saint-leger-aux-bois","departement_id":0,"code_postal":"76340","population":474,"superficie_km2":"1118.77","latitude_centre":"49.823","longitude_centre":"1.6144","dep_code":"76","dep_nom":"Seine-Maritime","dep_slug":"seine-maritime","reg_code":"28","reg_nom":"Normandie","reg_slug":"normandie"},"departement":{"code":"76","nom":"Seine-Maritime","slug":"seine-maritime"},"region":{"code":"28","nom":"Normandie","slug":"normandie"},"villes_proches":[{"id":31953,"code_insee":"76523","nom_standard":"Rétonval","nom_a":null,"nom_de":null,"slug_ville":"retonval","departement_id":0,"code_postal":"76340","population":172,"superficie_km2":"564.80","latitude_centre":"49.8118","longitude_centre":"1.5943","distance_km":1.91},{"id":31956,"code_insee":"76527","nom_standard":"Richemont","nom_a":null,"nom_de":null,"slug_ville":"richemont","departement_id":0,"code_postal":"76390","population":445,"superficie_km2":"1074.53","latitude_centre":"49.812","longitude_centre":"1.6434","distance_km":2.41},{"id":31612,"code_insee":"76029","nom_standard":"Aubermesnil-aux-Érables","nom_a":null,"nom_de":null,"slug_ville":"aubermesnil-aux-erables","departement_id":0,"code_postal":"76340","population":195,"superficie_km2":"840.78","latitude_centre":"49.81","longitude_centre":"1.569","distance_km":3.56},{"id":0,"code_insee":"76612","nom_standard":"Saint-Martin-au-Bosc","nom_a":null,"nom_de":null,"slug_ville":"saint-martin-au-bosc","departement_id":0,"code_postal":"76340","population":261,"superficie_km2":"715.84","latitude_centre":"49.8318","longitude_centre":"1.6686","distance_km":4.01},{"id":0,"code_insee":"76744","nom_standard":"Villers-sous-Foucarmont","nom_a":null,"nom_de":null,"slug_ville":"villers-sous-foucarmont","departement_id":0,"code_postal":"76340","population":181,"superficie_km2":"705.57","latitude_centre":"49.8172","longitude_centre":"1.554","distance_km":4.38},{"id":31856,"code_insee":"76381","nom_standard":"Landes-Vieilles-et-Neuves","nom_a":null,"nom_de":null,"slug_ville":"landes-vieilles-et-neuves","departement_id":0,"code_postal":"76390","population":125,"superficie_km2":"713.32","latitude_centre":"49.7847","longitude_centre":"1.633","distance_km":4.46},{"id":31951,"code_insee":"76520","nom_standard":"Réalcamp","nom_a":null,"nom_de":null,"slug_ville":"realcamp","departement_id":0,"code_postal":"76340","population":594,"superficie_km2":"1154.84","latitude_centre":"49.8644","longitude_centre":"1.6182","distance_km":4.61},{"id":31784,"code_insee":"76278","nom_standard":"Foucarmont","nom_a":null,"nom_de":null,"slug_ville":"foucarmont","departement_id":0,"code_postal":"76340","population":816,"superficie_km2":"731.82","latitude_centre":"49.8474","longitude_centre":"1.5595","distance_km":4.78},{"id":31611,"code_insee":"76028","nom_standard":"Aubéguimont","nom_a":null,"nom_de":null,"slug_ville":"aubeguimont","departement_id":0,"code_postal":"76390","population":186,"superficie_km2":"488.48","latitude_centre":"49.8097","longitude_centre":"1.6816","distance_km":5.04},{"id":31699,"code_insee":"76154","nom_standard":"Campneuseville","nom_a":null,"nom_de":null,"slug_ville":"campneuseville","departement_id":0,"code_postal":"76340","population":440,"superficie_km2":"1242.66","latitude_centre":"49.8629","longitude_centre":"1.6608","distance_km":5.55},{"id":31707,"code_insee":"76166","nom_standard":"Le Caule-Sainte-Beuve","nom_a":null,"nom_de":null,"slug_ville":"le-caule-sainte-beuve","departement_id":0,"code_postal":"76390","population":473,"superficie_km2":"1676.05","latitude_centre":"49.7731","longitude_centre":"1.5886","distance_km":5.85},{"id":31773,"code_insee":"76257","nom_standard":"Fallencourt","nom_a":null,"nom_de":null,"slug_ville":"fallencourt","departement_id":0,"code_postal":"76340","population":176,"superficie_km2":"1210.24","latitude_centre":"49.8673","longitude_centre":"1.5652","distance_km":6.06},{"id":31923,"code_insee":"76479","nom_standard":"Nullemont","nom_a":null,"nom_de":null,"slug_ville":"nullemont","departement_id":0,"code_postal":"76390","population":152,"superficie_km2":"573.05","latitude_centre":"49.7709","longitude_centre":"1.6484","distance_km":6.29},{"id":0,"code_insee":"76739","nom_standard":"Vieux-Rouen-sur-Bresle","nom_a":null,"nom_de":null,"slug_ville":"vieux-rouen-sur-bresle","departement_id":0,"code_postal":"76390","population":583,"superficie_km2":"1490.39","latitude_centre":"49.8337","longitude_centre":"1.7013","distance_km":6.35},{"id":31874,"code_insee":"76411","nom_standard":"Marques","nom_a":null,"nom_de":null,"slug_ville":"marques","departement_id":0,"code_postal":"76390","population":236,"superficie_km2":"1320.01","latitude_centre":"49.7797","longitude_centre":"1.6831","distance_km":6.89},{"id":31935,"code_insee":"76500","nom_standard":"Pierrecourt","nom_a":null,"nom_de":null,"slug_ville":"pierrecourt","departement_id":0,"code_postal":"76340","population":474,"superficie_km2":"960.70","latitude_centre":"49.8857","longitude_centre":"1.6369","distance_km":7.16},{"id":0,"code_insee":"76645","nom_standard":"Saint-Riquier-en-Rivière","nom_a":null,"nom_de":null,"slug_ville":"saint-riquier-en-riviere","departement_id":0,"code_postal":"76340","population":159,"superficie_km2":"998.39","latitude_centre":"49.8841","longitude_centre":"1.5662","distance_km":7.62},{"id":31619,"code_insee":"76042","nom_standard":"Auvilliers","nom_a":null,"nom_de":null,"slug_ville":"auvilliers","departement_id":0,"code_postal":"76270","population":101,"superficie_km2":"484.84","latitude_centre":"49.7572","longitude_centre":"1.5739","distance_km":7.87},{"id":31851,"code_insee":"76372","nom_standard":"Illois","nom_a":null,"nom_de":null,"slug_ville":"illois","departement_id":0,"code_postal":"76390","population":381,"superficie_km2":"1460.63","latitude_centre":"49.746","longitude_centre":"1.6526","distance_km":8.99},{"id":31912,"code_insee":"76460","nom_standard":"Nesle-Normandeuse","nom_a":null,"nom_de":null,"slug_ville":"nesle-normandeuse","departement_id":0,"code_postal":"76340","population":503,"superficie_km2":"903.28","latitude_centre":"49.9003","longitude_centre":"1.6631","distance_km":9.28}]}