{"ville":{"id":14305,"code_insee":"16301","nom_standard":"Saint-Aulais-la-Chapelle","nom_a":null,"nom_de":null,"slug_ville":"saint-aulais-la-chapelle","departement_id":0,"code_postal":"16300","population":219,"superficie_km2":"1480.87","latitude_centre":"45.4463","longitude_centre":"-0.048","dep_code":"16","dep_nom":"Charente","dep_slug":"charente","reg_code":"75","reg_nom":"Nouvelle-Aquitaine","reg_slug":"nouvelle-aquitaine"},"departement":{"code":"16","nom":"Charente","slug":"charente"},"region":{"code":"75","nom":"Nouvelle-Aquitaine","slug":"nouvelle-aquitaine"},"villes_proches":[{"id":14147,"code_insee":"16062","nom_standard":"Brie-sous-Barbezieux","nom_a":null,"nom_de":null,"slug_ville":"brie-sous-barbezieux","departement_id":0,"code_postal":"16300","population":109,"superficie_km2":"647.88","latitude_centre":"45.4242","longitude_centre":"-0.0418","distance_km":2.5},{"id":14130,"code_insee":"16041","nom_standard":"Bessac","nom_a":null,"nom_de":null,"slug_ville":"bessac","departement_id":0,"code_postal":"16250","population":122,"superficie_km2":"1054.74","latitude_centre":"45.4306","longitude_centre":"-0.0118","distance_km":3.32},{"id":14156,"code_insee":"16074","nom_standard":"Challignac","nom_a":null,"nom_de":null,"slug_ville":"challignac","departement_id":0,"code_postal":"16300","population":335,"superficie_km2":"1319.59","latitude_centre":"45.4263","longitude_centre":"-0.0811","distance_km":3.41},{"id":14113,"code_insee":"16014","nom_standard":"Angeduc","nom_a":null,"nom_de":null,"slug_ville":"angeduc","departement_id":0,"code_postal":"16300","population":145,"superficie_km2":"357.63","latitude_centre":"45.4787","longitude_centre":"-0.0552","distance_km":3.65},{"id":0,"code_insee":"16303","nom_standard":"Saint-Bonnet","nom_a":null,"nom_de":null,"slug_ville":"saint-bonnet","departement_id":0,"code_postal":"16300","population":409,"superficie_km2":"1779.63","latitude_centre":"45.4701","longitude_centre":"-0.0895","distance_km":4.18},{"id":14134,"code_insee":"16046","nom_standard":"Coteaux-du-Blanzacais","nom_a":null,"nom_de":null,"slug_ville":"coteaux-du-blanzacais","departement_id":0,"code_postal":"16250","population":1013,"superficie_km2":"2393.67","latitude_centre":"45.4586","longitude_centre":"0.0214","distance_km":5.58},{"id":0,"code_insee":"16360","nom_standard":"Salles-de-Barbezieux","nom_a":null,"nom_de":null,"slug_ville":"salles-de-barbezieux","departement_id":0,"code_postal":"16300","population":407,"superficie_km2":"985.11","latitude_centre":"45.4542","longitude_centre":"-0.1259","distance_km":6.14},{"id":14286,"code_insee":"16267","nom_standard":"Poullignac","nom_a":null,"nom_de":null,"slug_ville":"poullignac","departement_id":0,"code_postal":"16190","population":107,"superficie_km2":"899.03","latitude_centre":"45.3969","longitude_centre":"-0.0087","distance_km":6.29},{"id":14185,"code_insee":"16118","nom_standard":"Deviat","nom_a":null,"nom_de":null,"slug_ville":"deviat","departement_id":0,"code_postal":"16190","population":135,"superficie_km2":"843.34","latitude_centre":"45.4112","longitude_centre":"0.0174","distance_km":6.42},{"id":14129,"code_insee":"16040","nom_standard":"Berneuil","nom_a":null,"nom_de":null,"slug_ville":"berneuil","departement_id":0,"code_postal":"16480","population":325,"superficie_km2":"1650.92","latitude_centre":"45.3903","longitude_centre":"-0.0714","distance_km":6.49},{"id":0,"code_insee":"16175","nom_standard":"Val des Vignes","nom_a":null,"nom_de":null,"slug_ville":"val-des-vignes","departement_id":0,"code_postal":"16250","population":1352,"superficie_km2":"5097.83","latitude_centre":"45.5065","longitude_centre":"-0.0142","distance_km":7.19},{"id":14224,"code_insee":"16177","nom_standard":"Ladiville","nom_a":null,"nom_de":null,"slug_ville":"ladiville","departement_id":0,"code_postal":"16120","population":135,"superficie_km2":"721.51","latitude_centre":"45.5112","longitude_centre":"-0.0628","distance_km":7.31},{"id":0,"code_insee":"16405","nom_standard":"Vignolles","nom_a":null,"nom_de":null,"slug_ville":"vignolles","departement_id":0,"code_postal":"16300","population":170,"superficie_km2":"880.08","latitude_centre":"45.5086","longitude_centre":"-0.0997","distance_km":8.01},{"id":0,"code_insee":"16354","nom_standard":"Sainte-Souline","nom_a":null,"nom_de":null,"slug_ville":"sainte-souline","departement_id":0,"code_postal":"16480","population":112,"superficie_km2":"735.97","latitude_centre":"45.3757","longitude_centre":"-0.0201","distance_km":8.15},{"id":14175,"code_insee":"16105","nom_standard":"Condéon","nom_a":null,"nom_de":null,"slug_ville":"condeon","departement_id":0,"code_postal":"16360","population":606,"superficie_km2":"3113.53","latitude_centre":"45.4034","longitude_centre":"-0.138","distance_km":8.49},{"id":0,"code_insee":"16338","nom_standard":"Saint-Médard","nom_a":null,"nom_de":null,"slug_ville":"saint-medard","departement_id":0,"code_postal":"16300","population":303,"superficie_km2":"830.53","latitude_centre":"45.507","longitude_centre":"-0.1322","distance_km":9.42},{"id":14196,"code_insee":"16133","nom_standard":"Étriac","nom_a":null,"nom_de":null,"slug_ville":"etriac","departement_id":0,"code_postal":"16250","population":206,"superficie_km2":"958.02","latitude_centre":"45.5281","longitude_centre":"-0.0081","distance_km":9.61},{"id":0,"code_insee":"16315","nom_standard":"Saint-Félix","nom_a":null,"nom_de":null,"slug_ville":"saint-felix","departement_id":0,"code_postal":"16480","population":102,"superficie_km2":"811.51","latitude_centre":"45.3692","longitude_centre":"0.0123","distance_km":9.78},{"id":14171,"code_insee":"16099","nom_standard":"Chillac","nom_a":null,"nom_de":null,"slug_ville":"chillac","departement_id":0,"code_postal":"16480","population":227,"superficie_km2":"1476.38","latitude_centre":"45.3573","longitude_centre":"-0.0845","distance_km":10.3},{"id":14280,"code_insee":"16256","nom_standard":"Passirac","nom_a":null,"nom_de":null,"slug_ville":"passirac","departement_id":0,"code_postal":"16480","population":250,"superficie_km2":"1470.22","latitude_centre":"45.343","longitude_centre":"-0.0608","distance_km":11.53}]}