{"ville":{"id":22710,"code_insee":"47250","nom_standard":"Saint-Léger","nom_a":null,"nom_de":null,"slug_ville":"saint-leger","departement_id":0,"code_postal":"47160","population":177,"superficie_km2":"575.36","latitude_centre":"44.2988","longitude_centre":"0.3138","dep_code":"47","dep_nom":"Lot-et-Garonne","dep_slug":"lot-et-garonne","reg_code":"75","reg_nom":"Nouvelle-Aquitaine","reg_slug":"nouvelle-aquitaine"},"departement":{"code":"47","nom":"Lot-et-Garonne","slug":"lot-et-garonne"},"region":{"code":"75","nom":"Nouvelle-Aquitaine","slug":"nouvelle-aquitaine"},"villes_proches":[{"id":0,"code_insee":"47078","nom_standard":"Damazan","nom_a":null,"nom_de":null,"slug_ville":"damazan","departement_id":0,"code_postal":"47160","population":1358,"superficie_km2":"1645.26","latitude_centre":"44.2827","longitude_centre":"0.2765","distance_km":3.47},{"id":22666,"code_insee":"47196","nom_standard":"Nicole","nom_a":null,"nom_de":null,"slug_ville":"nicole","departement_id":0,"code_postal":"47190","population":237,"superficie_km2":"475.16","latitude_centre":"44.3303","longitude_centre":"0.3309","distance_km":3.76},{"id":0,"code_insee":"47004","nom_standard":"Aiguillon","nom_a":null,"nom_de":null,"slug_ville":"aiguillon","departement_id":0,"code_postal":"47190","population":3968,"superficie_km2":"2839.29","latitude_centre":"44.2989","longitude_centre":"0.362","distance_km":3.84},{"id":22650,"code_insee":"47177","nom_standard":"Monheurt","nom_a":null,"nom_de":null,"slug_ville":"monheurt","departement_id":0,"code_postal":"47160","population":190,"superficie_km2":"1138.69","latitude_centre":"44.3366","longitude_centre":"0.3095","distance_km":4.22},{"id":0,"code_insee":"47308","nom_standard":"Thouars-sur-Garonne","nom_a":null,"nom_de":null,"slug_ville":"thouars-sur-garonne","departement_id":0,"code_postal":"47230","population":228,"superficie_km2":"401.56","latitude_centre":"44.2557","longitude_centre":"0.3304","distance_km":4.97},{"id":0,"code_insee":"47043","nom_standard":"Buzet-sur-Baïse","nom_a":null,"nom_de":null,"slug_ville":"buzet-sur-baise","departement_id":0,"code_postal":"47160","population":1245,"superficie_km2":"2132.32","latitude_centre":"44.2515","longitude_centre":"0.304","distance_km":5.32},{"id":22680,"code_insee":"47214","nom_standard":"Puch-d'Agenais","nom_a":null,"nom_de":null,"slug_ville":"puch-d-agenais","departement_id":0,"code_postal":"47160","population":718,"superficie_km2":"2323.13","latitude_centre":"44.3323","longitude_centre":"0.2604","distance_km":5.65},{"id":0,"code_insee":"47267","nom_standard":"Saint-Pierre-de-Buzet","nom_a":null,"nom_de":null,"slug_ville":"saint-pierre-de-buzet","departement_id":0,"code_postal":"47160","population":274,"superficie_km2":"854.50","latitude_centre":"44.2594","longitude_centre":"0.2673","distance_km":5.74},{"id":22617,"code_insee":"47129","nom_standard":"Lagarrigue","nom_a":null,"nom_de":null,"slug_ville":"lagarrigue","departement_id":0,"code_postal":"47190","population":272,"superficie_km2":"442.65","latitude_centre":"44.2904","longitude_centre":"0.3849","distance_km":5.74},{"id":0,"code_insee":"47210","nom_standard":"Port-Sainte-Marie","nom_a":null,"nom_de":null,"slug_ville":"port-sainte-marie","departement_id":0,"code_postal":"47130","population":1887,"superficie_km2":"1903.91","latitude_centre":"44.2649","longitude_centre":"0.3735","distance_km":6.07},{"id":0,"code_insee":"47251","nom_standard":"Saint-Léon","nom_a":null,"nom_de":null,"slug_ville":"saint-leon","departement_id":0,"code_postal":"47160","population":329,"superficie_km2":"958.62","latitude_centre":"44.2874","longitude_centre":"0.2386","distance_km":6.12},{"id":0,"code_insee":"47320","nom_standard":"Villefranche-du-Queyran","nom_a":null,"nom_de":null,"slug_ville":"villefranche-du-queyran","departement_id":0,"code_postal":"47160","population":415,"superficie_km2":"1677.92","latitude_centre":"44.3064","longitude_centre":"0.2185","distance_km":7.63},{"id":22599,"code_insee":"47107","nom_standard":"Galapian","nom_a":null,"nom_de":null,"slug_ville":"galapian","departement_id":0,"code_postal":"47190","population":333,"superficie_km2":"939.06","latitude_centre":"44.2985","longitude_centre":"0.4102","distance_km":7.67},{"id":22550,"code_insee":"47038","nom_standard":"Bourran","nom_a":null,"nom_de":null,"slug_ville":"bourran","departement_id":0,"code_postal":"47320","population":610,"superficie_km2":"1830.55","latitude_centre":"44.3314","longitude_centre":"0.4016","distance_km":7.87},{"id":0,"code_insee":"47325","nom_standard":"Villeton","nom_a":null,"nom_de":null,"slug_ville":"villeton","departement_id":0,"code_postal":"47400","population":475,"superficie_km2":"1082.79","latitude_centre":"44.3716","longitude_centre":"0.2791","distance_km":8.55},{"id":22527,"code_insee":"47008","nom_standard":"Ambrus","nom_a":null,"nom_de":null,"slug_ville":"ambrus","departement_id":0,"code_postal":"47160","population":110,"superficie_km2":"1229.85","latitude_centre":"44.2319","longitude_centre":"0.2455","distance_km":9.22},{"id":0,"code_insee":"47318","nom_standard":"Vianne","nom_a":null,"nom_de":null,"slug_ville":"vianne","departement_id":0,"code_postal":"47230","population":979,"superficie_km2":"989.32","latitude_centre":"44.2149","longitude_centre":"0.3202","distance_km":9.34},{"id":0,"code_insee":"47310","nom_standard":"Tonneins","nom_a":null,"nom_de":null,"slug_ville":"tonneins","departement_id":0,"code_postal":"47400","population":9459,"superficie_km2":"3482.36","latitude_centre":"44.3842","longitude_centre":"0.3296","distance_km":9.58},{"id":22649,"code_insee":"47176","nom_standard":"Montgaillard-en-Albret","nom_a":null,"nom_de":null,"slug_ville":"montgaillard-en-albret","departement_id":0,"code_postal":"47230","population":167,"superficie_km2":"859.12","latitude_centre":"44.2097","longitude_centre":"0.2982","distance_km":9.99},{"id":0,"code_insee":"47097","nom_standard":"Feugarolles","nom_a":null,"nom_de":null,"slug_ville":"feugarolles","departement_id":0,"code_postal":"47230","population":1015,"superficie_km2":"2401.17","latitude_centre":"44.2134","longitude_centre":"0.3623","distance_km":10.25}]}