{"ville":{"id":16173,"code_insee":"23222","nom_standard":"Saint-Michel-de-Veisse","nom_a":null,"nom_de":null,"slug_ville":"saint-michel-de-veisse","departement_id":0,"code_postal":"23480","population":165,"superficie_km2":"1557.69","latitude_centre":"45.9504","longitude_centre":"2.0514","dep_code":"23","dep_nom":"Creuse","dep_slug":"creuse","reg_code":"75","reg_nom":"Nouvelle-Aquitaine","reg_slug":"nouvelle-aquitaine"},"departement":{"code":"23","nom":"Creuse","slug":"creuse"},"region":{"code":"75","nom":"Nouvelle-Aquitaine","slug":"nouvelle-aquitaine"},"villes_proches":[{"id":0,"code_insee":"23257","nom_standard":"Vallière","nom_a":null,"nom_de":null,"slug_ville":"valliere","departement_id":0,"code_postal":"23120","population":705,"superficie_km2":"4817.63","latitude_centre":"45.909","longitude_centre":"2.0389","distance_km":4.7},{"id":15993,"code_insee":"23016","nom_standard":"Banize","nom_a":null,"nom_de":null,"slug_ville":"banize","departement_id":0,"code_postal":"23120","population":183,"superficie_km2":"1533.47","latitude_centre":"45.9376","longitude_centre":"1.9932","distance_km":4.72},{"id":16139,"code_insee":"23183","nom_standard":"Saint-Avit-le-Pauvre","nom_a":null,"nom_de":null,"slug_ville":"saint-avit-le-pauvre","departement_id":0,"code_postal":"23480","population":93,"superficie_km2":"493.99","latitude_centre":"45.9933","longitude_centre":"2.0459","distance_km":4.79},{"id":0,"code_insee":"23246","nom_standard":"Saint-Sulpice-les-Champs","nom_a":null,"nom_de":null,"slug_ville":"saint-sulpice-les-champs","departement_id":0,"code_postal":"23480","population":340,"superficie_km2":"2170.39","latitude_centre":"45.9918","longitude_centre":"2.0295","distance_km":4.9},{"id":16000,"code_insee":"23024","nom_standard":"Blessac","nom_a":null,"nom_de":null,"slug_ville":"blessac","departement_id":0,"code_postal":"23200","population":525,"superficie_km2":"1785.08","latitude_centre":"45.9706","longitude_centre":"2.1093","distance_km":5.01},{"id":16163,"code_insee":"23211","nom_standard":"Saint-Marc-à-Frongier","nom_a":null,"nom_de":null,"slug_ville":"saint-marc-a-frongier","departement_id":0,"code_postal":"23200","population":428,"superficie_km2":"2544.95","latitude_centre":"45.9161","longitude_centre":"2.1095","distance_km":5.89},{"id":15986,"code_insee":"23007","nom_standard":"Ars","nom_a":null,"nom_de":null,"slug_ville":"ars","departement_id":0,"code_postal":"23480","population":239,"superficie_km2":"2175.79","latitude_centre":"46.0034","longitude_centre":"2.0829","distance_km":6.38},{"id":16032,"code_insee":"23060","nom_standard":"Chavanat","nom_a":null,"nom_de":null,"slug_ville":"chavanat","departement_id":0,"code_postal":"23250","population":137,"superficie_km2":"1275.22","latitude_centre":"45.9513","longitude_centre":"1.9624","distance_km":6.88},{"id":16149,"code_insee":"23197","nom_standard":"Saint-Georges-la-Pouge","nom_a":null,"nom_de":null,"slug_ville":"saint-georges-la-pouge","departement_id":0,"code_postal":"23250","population":355,"superficie_km2":"2407.96","latitude_centre":"45.9975","longitude_centre":"1.9604","distance_km":8.77},{"id":15982,"code_insee":"23003","nom_standard":"Alleyrat","nom_a":null,"nom_de":null,"slug_ville":"alleyrat","departement_id":0,"code_postal":"23200","population":144,"superficie_km2":"949.24","latitude_centre":"45.9862","longitude_centre":"2.1529","distance_km":8.8},{"id":16117,"code_insee":"23157","nom_standard":"La Pouge","nom_a":null,"nom_de":null,"slug_ville":"la-pouge","departement_id":0,"code_postal":"23250","population":96,"superficie_km2":"757.45","latitude_centre":"45.9735","longitude_centre":"1.9379","distance_km":9.14},{"id":16054,"code_insee":"23086","nom_standard":"Fransèches","nom_a":null,"nom_de":null,"slug_ville":"franseches","departement_id":0,"code_postal":"23480","population":240,"superficie_km2":"1833.01","latitude_centre":"46.033","longitude_centre":"2.04","distance_km":9.23},{"id":16096,"code_insee":"23134","nom_standard":"Le Monteil-au-Vicomte","nom_a":null,"nom_de":null,"slug_ville":"le-monteil-au-vicomte","departement_id":0,"code_postal":"23460","population":215,"superficie_km2":"1448.62","latitude_centre":"45.9064","longitude_centre":"1.9477","distance_km":9.39},{"id":0,"code_insee":"23249","nom_standard":"Saint-Yrieix-la-Montagne","nom_a":null,"nom_de":null,"slug_ville":"saint-yrieix-la-montagne","departement_id":0,"code_postal":"23460","population":219,"superficie_km2":"2392.46","latitude_centre":"45.8733","longitude_centre":"2.0002","distance_km":9.44},{"id":0,"code_insee":"23238","nom_standard":"Saint-Quentin-la-Chabanne","nom_a":null,"nom_de":null,"slug_ville":"saint-quentin-la-chabanne","departement_id":0,"code_postal":"23500","population":362,"superficie_km2":"3001.58","latitude_centre":"45.8889","longitude_centre":"2.1509","distance_km":10.3},{"id":16171,"code_insee":"23220","nom_standard":"Saint-Médard-la-Rochette","nom_a":null,"nom_de":null,"slug_ville":"saint-medard-la-rochette","departement_id":0,"code_postal":"23200","population":559,"superficie_km2":"3887.92","latitude_centre":"46.0194","longitude_centre":"2.1464","distance_km":10.62},{"id":16046,"code_insee":"23074","nom_standard":"Le Donzeil","nom_a":null,"nom_de":null,"slug_ville":"le-donzeil","departement_id":0,"code_postal":"23480","population":186,"superficie_km2":"1352.36","latitude_centre":"46.0364","longitude_centre":"1.9882","distance_km":10.74},{"id":16015,"code_insee":"23043","nom_standard":"Chamberaud","nom_a":null,"nom_de":null,"slug_ville":"chamberaud","departement_id":0,"code_postal":"23480","population":94,"superficie_km2":"731.84","latitude_centre":"46.0494","longitude_centre":"2.0436","distance_km":11.02},{"id":16166,"code_insee":"23214","nom_standard":"Saint-Martial-le-Mont","nom_a":null,"nom_de":null,"slug_ville":"saint-martial-le-mont","departement_id":0,"code_postal":"23150","population":265,"superficie_km2":"1026.44","latitude_centre":"46.0522","longitude_centre":"2.0934","distance_km":11.78},{"id":16105,"code_insee":"23144","nom_standard":"La Nouaille","nom_a":null,"nom_de":null,"slug_ville":"la-nouaille","departement_id":0,"code_postal":"23500","population":224,"superficie_km2":"4795.31","latitude_centre":"45.8355","longitude_centre":"2.0713","distance_km":12.87}]}