{"ville":{"id":8771,"code_insee":"82169","nom_standard":"Saint-Nicolas-de-la-Grave","nom_a":null,"nom_de":null,"slug_ville":"saint-nicolas-de-la-grave","departement_id":683,"code_postal":"82210","population":2293,"superficie_km2":"29.00","latitude_centre":"44.0660019","longitude_centre":"1.0200000","dep_code":"82","dep_nom":"Tarn-et-Garonne","dep_slug":"tarn-et-garonne","reg_code":"16","reg_nom":"Occitanie","reg_slug":"occitanie"},"departement":{"code":"82","nom":"Tarn-et-Garonne","slug":"tarn-et-garonne"},"region":{"code":"16","nom":"Occitanie","slug":"occitanie"},"villes_proches":[{"id":8748,"code_insee":"82101","nom_standard":"Malause","nom_a":null,"nom_de":null,"slug_ville":"malause","departement_id":683,"code_postal":"82200","population":1227,"superficie_km2":"12.00","latitude_centre":"44.0900002","longitude_centre":"0.9720000","distance_km":4.67},{"id":8724,"code_insee":"82031","nom_standard":"Castelmayran","nom_a":null,"nom_de":null,"slug_ville":"castelmayran","departement_id":683,"code_postal":"82210","population":1201,"superficie_km2":"16.00","latitude_centre":"44.0229988","longitude_centre":"1.0470001","distance_km":5.25},{"id":8725,"code_insee":"82033","nom_standard":"Castelsarrasin","nom_a":null,"nom_de":null,"slug_ville":"castelsarrasin","departement_id":683,"code_postal":"82100","population":14178,"superficie_km2":"77.00","latitude_centre":"44.0489998","longitude_centre":"1.1240000","distance_km":8.52},{"id":8752,"code_insee":"82112","nom_standard":"Moissac","nom_a":null,"nom_de":null,"slug_ville":"moissac","departement_id":683,"code_postal":"82200","population":13748,"superficie_km2":"86.00","latitude_centre":"44.1259995","longitude_centre":"1.0980001","distance_km":9.13},{"id":8775,"code_insee":"82186","nom_standard":"Valence","nom_a":null,"nom_de":null,"slug_ville":"valence","departement_id":683,"code_postal":"82400","population":5256,"superficie_km2":"14.00","latitude_centre":"44.1069984","longitude_centre":"0.8980000","distance_km":10.76},{"id":8735,"code_insee":"82072","nom_standard":"Golfech","nom_a":null,"nom_de":null,"slug_ville":"golfech","departement_id":683,"code_postal":"82400","population":1011,"superficie_km2":"10.00","latitude_centre":"44.1100006","longitude_centre":"0.8570000","distance_km":13.91},{"id":8746,"code_insee":"82097","nom_standard":"Lavit","nom_a":null,"nom_de":null,"slug_ville":"lavit","departement_id":683,"code_postal":"82120","population":1633,"superficie_km2":"26.00","latitude_centre":"43.9560013","longitude_centre":"0.9250000","distance_km":14.4},{"id":8772,"code_insee":"82171","nom_standard":"Saint-Porquier","nom_a":null,"nom_de":null,"slug_ville":"saint-porquier","departement_id":683,"code_postal":"82700","population":1362,"superficie_km2":"16.00","latitude_centre":"44.0079994","longitude_centre":"1.1820000","distance_km":14.47},{"id":8739,"code_insee":"82080","nom_standard":"Labastide-du-Temple","nom_a":null,"nom_de":null,"slug_ville":"labastide-du-temple","departement_id":683,"code_postal":"82100","population":1143,"superficie_km2":"11.00","latitude_centre":"44.0810013","longitude_centre":"1.2020000","distance_km":14.63},{"id":8745,"code_insee":"82096","nom_standard":"La Ville-Dieu-du-Temple","nom_a":null,"nom_de":null,"slug_ville":"la-ville-dieu-du-temple","departement_id":683,"code_postal":"82290","population":3251,"superficie_km2":"26.00","latitude_centre":"44.0429993","longitude_centre":"1.2210000","distance_km":16.26},{"id":8733,"code_insee":"82052","nom_standard":"Escatalens","nom_a":null,"nom_de":null,"slug_ville":"escatalens","departement_id":683,"code_postal":"82700","population":1115,"superficie_km2":"18.00","latitude_centre":"43.9819984","longitude_centre":"1.1940000","distance_km":16.76},{"id":8731,"code_insee":"82049","nom_standard":"Donzac","nom_a":null,"nom_de":null,"slug_ville":"donzac","departement_id":683,"code_postal":"82340","population":1035,"superficie_km2":"13.00","latitude_centre":"44.1020012","longitude_centre":"0.8140000","distance_km":16.93},{"id":8750,"code_insee":"82108","nom_standard":"Meauzac","nom_a":null,"nom_de":null,"slug_ville":"meauzac","departement_id":683,"code_postal":"82290","population":1424,"superficie_km2":"12.00","latitude_centre":"44.0960007","longitude_centre":"1.2300000","distance_km":17.1},{"id":8742,"code_insee":"82089","nom_standard":"Lamagistère","nom_a":null,"nom_de":null,"slug_ville":"lamagistere","departement_id":683,"code_postal":"82360","population":1198,"superficie_km2":"9.00","latitude_centre":"44.1320000","longitude_centre":"0.8220000","distance_km":17.43},{"id":8741,"code_insee":"82087","nom_standard":"Lafrançaise","nom_a":null,"nom_de":null,"slug_ville":"lafrancaise","departement_id":683,"code_postal":"82130","population":2852,"superficie_km2":"50.00","latitude_centre":"44.1360016","longitude_centre":"1.2400000","distance_km":19.21},{"id":8732,"code_insee":"82050","nom_standard":"Dunes","nom_a":null,"nom_de":null,"slug_ville":"dunes","departement_id":683,"code_postal":"82340","population":1210,"superficie_km2":"23.00","latitude_centre":"44.0859985","longitude_centre":"0.7740000","distance_km":19.78},{"id":8773,"code_insee":"82173","nom_standard":"Saint-Sardos","nom_a":null,"nom_de":null,"slug_ville":"saint-sardos","departement_id":683,"code_postal":"82600","population":1151,"superficie_km2":"27.00","latitude_centre":"43.9020004","longitude_centre":"1.1240000","distance_km":20.04},{"id":8758,"code_insee":"82124","nom_standard":"Montbeton","nom_a":null,"nom_de":null,"slug_ville":"montbeton","departement_id":683,"code_postal":"82290","population":4299,"superficie_km2":"16.00","latitude_centre":"44.0139999","longitude_centre":"1.2700000","distance_km":20.8},{"id":8719,"code_insee":"82013","nom_standard":"Beaumont-de-Lomagne","nom_a":null,"nom_de":null,"slug_ville":"beaumont-de-lomagne","departement_id":683,"code_postal":"82500","population":3768,"superficie_km2":"46.00","latitude_centre":"43.8769989","longitude_centre":"1.0110000","distance_km":21.03},{"id":8759,"code_insee":"82125","nom_standard":"Montech","nom_a":null,"nom_de":null,"slug_ville":"montech","departement_id":683,"code_postal":"82700","population":6650,"superficie_km2":"50.00","latitude_centre":"43.9519997","longitude_centre":"1.2380000","distance_km":21.56}]}