{"ville":{"id":30896,"code_insee":"71392","nom_standard":"Saint-Boil","nom_a":null,"nom_de":null,"slug_ville":"saint-boil","departement_id":0,"code_postal":"71390","population":491,"superficie_km2":"1177.81","latitude_centre":"46.6426","longitude_centre":"4.7007","dep_code":"71","dep_nom":"Saône-et-Loire","dep_slug":"saone-et-loire","reg_code":"27","reg_nom":"Bourgogne-Franche-Comté","reg_slug":"bourgogne-franche-comte"},"departement":{"code":"71","nom":"Saône-et-Loire","slug":"saone-et-loire"},"region":{"code":"27","nom":"Bourgogne-Franche-Comté","slug":"bourgogne-franche-comte"},"villes_proches":[{"id":0,"code_insee":"71503","nom_standard":"Saules","nom_a":null,"nom_de":null,"slug_ville":"saules","departement_id":0,"code_postal":"71390","population":125,"superficie_km2":"206.95","latitude_centre":"46.6553","longitude_centre":"4.6795","distance_km":2.15},{"id":30691,"code_insee":"71124","nom_standard":"Chenôves","nom_a":null,"nom_de":null,"slug_ville":"chenoves","departement_id":0,"code_postal":"71390","population":211,"superficie_km2":"1058.99","latitude_centre":"46.6642","longitude_centre":"4.6982","distance_km":2.41},{"id":0,"code_insee":"71498","nom_standard":"Santilly","nom_a":null,"nom_de":null,"slug_ville":"santilly","departement_id":0,"code_postal":"71460","population":156,"superficie_km2":"724.03","latitude_centre":"46.6212","longitude_centre":"4.7055","distance_km":2.41},{"id":30715,"code_insee":"71159","nom_standard":"Culles-les-Roches","nom_a":null,"nom_de":null,"slug_ville":"culles-les-roches","departement_id":0,"code_postal":"71460","population":199,"superficie_km2":"890.57","latitude_centre":"46.6459","longitude_centre":"4.6511","distance_km":3.8},{"id":30821,"code_insee":"71296","nom_standard":"Messey-sur-Grosne","nom_a":null,"nom_de":null,"slug_ville":"messey-sur-grosne","departement_id":0,"code_postal":"71390","population":742,"superficie_km2":"1526.59","latitude_centre":"46.6513","longitude_centre":"4.7533","distance_km":4.13},{"id":0,"code_insee":"71417","nom_standard":"Saint-Gengoux-le-National","nom_a":null,"nom_de":null,"slug_ville":"saint-gengoux-le-national","departement_id":0,"code_postal":"71460","population":1046,"superficie_km2":"950.02","latitude_centre":"46.6092","longitude_centre":"4.6654","distance_km":4.59},{"id":30664,"code_insee":"71089","nom_standard":"La Chapelle-de-Bragny","nom_a":null,"nom_de":null,"slug_ville":"la-chapelle-de-bragny","departement_id":0,"code_postal":"71240","population":241,"superficie_km2":"1591.03","latitude_centre":"46.6203","longitude_centre":"4.7523","distance_km":4.66},{"id":0,"code_insee":"71515","nom_standard":"Sercy","nom_a":null,"nom_de":null,"slug_ville":"sercy","departement_id":0,"code_postal":"71460","population":103,"superficie_km2":"579.66","latitude_centre":"46.5989","longitude_centre":"4.6911","distance_km":4.91},{"id":0,"code_insee":"71485","nom_standard":"Saint-Vallerin","nom_a":null,"nom_de":null,"slug_ville":"saint-vallerin","departement_id":0,"code_postal":"71390","population":253,"superficie_km2":"676.53","latitude_centre":"46.6851","longitude_centre":"4.6774","distance_km":5.05},{"id":30785,"code_insee":"71247","nom_standard":"Jully-lès-Buxy","nom_a":null,"nom_de":null,"slug_ville":"jully-les-buxy","departement_id":0,"code_postal":"71390","population":343,"superficie_km2":"1671.89","latitude_centre":"46.6872","longitude_centre":"4.7291","distance_km":5.41},{"id":30639,"code_insee":"71058","nom_standard":"Bresse-sur-Grosne","nom_a":null,"nom_de":null,"slug_ville":"bresse-sur-grosne","departement_id":0,"code_postal":"71460","population":184,"superficie_km2":"1010.37","latitude_centre":"46.5944","longitude_centre":"4.7319","distance_km":5.87},{"id":30747,"code_insee":"71201","nom_standard":"Fley","nom_a":null,"nom_de":null,"slug_ville":"fley","departement_id":0,"code_postal":"71390","population":192,"superficie_km2":"855.99","latitude_centre":"46.6762","longitude_centre":"4.6384","distance_km":6.05},{"id":0,"code_insee":"71461","nom_standard":"Saint-Maurice-des-Champs","nom_a":null,"nom_de":null,"slug_ville":"saint-maurice-des-champs","departement_id":0,"code_postal":"71460","population":61,"superficie_km2":"583.73","latitude_centre":"46.6224","longitude_centre":"4.6256","distance_km":6.16},{"id":30647,"code_insee":"71067","nom_standard":"Burnand","nom_a":null,"nom_de":null,"slug_ville":"burnand","departement_id":0,"code_postal":"71460","population":121,"superficie_km2":"651.39","latitude_centre":"46.6015","longitude_centre":"4.6327","distance_km":6.92},{"id":30826,"code_insee":"71302","nom_standard":"Montagny-lès-Buxy","nom_a":null,"nom_de":null,"slug_ville":"montagny-les-buxy","departement_id":0,"code_postal":"71390","population":197,"superficie_km2":"529.60","latitude_centre":"46.706","longitude_centre":"4.6706","distance_km":7.41},{"id":0,"code_insee":"71507","nom_standard":"Savigny-sur-Grosne","nom_a":null,"nom_de":null,"slug_ville":"savigny-sur-grosne","departement_id":0,"code_postal":"71460","population":170,"superficie_km2":"655.68","latitude_centre":"46.5808","longitude_centre":"4.6642","distance_km":7.42},{"id":30657,"code_insee":"71080","nom_standard":"Champagny-sous-Uxelles","nom_a":null,"nom_de":null,"slug_ville":"champagny-sous-uxelles","departement_id":0,"code_postal":"71460","population":82,"superficie_km2":"503.50","latitude_centre":"46.5795","longitude_centre":"4.7499","distance_km":7.96},{"id":0,"code_insee":"71070","nom_standard":"Buxy","nom_a":null,"nom_de":null,"slug_ville":"buxy","departement_id":0,"code_postal":"71390","population":2150,"superficie_km2":"1197.26","latitude_centre":"46.7136","longitude_centre":"4.7149","distance_km":7.97},{"id":30804,"code_insee":"71272","nom_standard":"Malay","nom_a":null,"nom_de":null,"slug_ville":"malay","departement_id":0,"code_postal":"71460","population":225,"superficie_km2":"1233.58","latitude_centre":"46.5681","longitude_centre":"4.6855","distance_km":8.37},{"id":30623,"code_insee":"71036","nom_standard":"Bissy-sous-Uxelles","nom_a":null,"nom_de":null,"slug_ville":"bissy-sous-uxelles","departement_id":0,"code_postal":"71460","population":67,"superficie_km2":"316.37","latitude_centre":"46.5695","longitude_centre":"4.7276","distance_km":8.38}]}