{"ville":{"id":3771,"code_insee":"38422","nom_standard":"Saint-Martin-d'Uriage","nom_a":null,"nom_de":null,"slug_ville":"saint-martin-d-uriage","departement_id":639,"code_postal":"38410","population":5483,"superficie_km2":"35.00","latitude_centre":"45.1529999","longitude_centre":"5.8569999","dep_code":"38","dep_nom":"Isère","dep_slug":"isere","reg_code":"01","reg_nom":"Auvergne-Rhône-Alpes","reg_slug":"auvergne-rhone-alpes"},"departement":{"code":"38","nom":"Isère","slug":"isere"},"region":{"code":"01","nom":"Auvergne-Rhône-Alpes","slug":"auvergne-rhone-alpes"},"villes_proches":[{"id":3820,"code_insee":"38529","nom_standard":"Vaulnaveys-le-Haut","nom_a":null,"nom_de":null,"slug_ville":"vaulnaveys-le-haut","departement_id":639,"code_postal":"38410","population":4000,"superficie_km2":"17.00","latitude_centre":"45.1150017","longitude_centre":"5.8400002","distance_km":4.43},{"id":3725,"code_insee":"38334","nom_standard":"Revel","nom_a":null,"nom_de":null,"slug_ville":"revel","departement_id":639,"code_postal":"38420","population":1308,"superficie_km2":"29.00","latitude_centre":"45.1679993","longitude_centre":"5.9099998","distance_km":4.48},{"id":3670,"code_insee":"38188","nom_standard":"Herbeys","nom_a":null,"nom_de":null,"slug_ville":"herbeys","departement_id":639,"code_postal":"38320","population":1378,"superficie_km2":"8.00","latitude_centre":"45.1440010","longitude_centre":"5.7969999","distance_km":4.81},{"id":3648,"code_insee":"38150","nom_standard":"Domène","nom_a":null,"nom_de":null,"slug_ville":"domene","departement_id":639,"code_postal":"38420","population":6720,"superficie_km2":"5.00","latitude_centre":"45.2039986","longitude_centre":"5.8379998","distance_km":5.86},{"id":3663,"code_insee":"38179","nom_standard":"Gières","nom_a":null,"nom_de":null,"slug_ville":"gieres","departement_id":639,"code_postal":"38610","population":7161,"superficie_km2":"7.00","latitude_centre":"45.1819992","longitude_centre":"5.7919998","distance_km":6.03},{"id":3714,"code_insee":"38309","nom_standard":"Poisat","nom_a":null,"nom_de":null,"slug_ville":"poisat","departement_id":639,"code_postal":"38320","population":2123,"superficie_km2":"3.00","latitude_centre":"45.1539993","longitude_centre":"5.7700000","distance_km":6.82},{"id":3606,"code_insee":"38059","nom_standard":"Brié-et-Angonnes","nom_a":null,"nom_de":null,"slug_ville":"brie-et-angonnes","departement_id":639,"code_postal":"38320","population":2521,"superficie_km2":"10.00","latitude_centre":"45.1230011","longitude_centre":"5.7789998","distance_km":6.97},{"id":3819,"code_insee":"38528","nom_standard":"Vaulnaveys-le-Bas","nom_a":null,"nom_de":null,"slug_ville":"vaulnaveys-le-bas","departement_id":639,"code_postal":"38410","population":1360,"superficie_km2":"12.00","latitude_centre":"45.0989990","longitude_centre":"5.8119998","distance_km":6.97},{"id":3770,"code_insee":"38421","nom_standard":"Saint-Martin-d'Hères","nom_a":null,"nom_de":null,"slug_ville":"saint-martin-d-heres","departement_id":639,"code_postal":"38400","population":38454,"superficie_km2":"9.00","latitude_centre":"45.1759987","longitude_centre":"5.7649999","distance_km":7.65},{"id":3824,"code_insee":"38538","nom_standard":"Le Versoud","nom_a":null,"nom_de":null,"slug_ville":"le-versoud","departement_id":639,"code_postal":"38420","population":4973,"superficie_km2":"6.00","latitude_centre":"45.2220001","longitude_centre":"5.8590002","distance_km":7.67},{"id":3697,"code_insee":"38249","nom_standard":"Montbonnot-Saint-Martin","nom_a":null,"nom_de":null,"slug_ville":"montbonnot-saint-martin","departement_id":639,"code_postal":"38330","population":5495,"superficie_km2":"7.00","latitude_centre":"45.2220001","longitude_centre":"5.8160000","distance_km":8.32},{"id":3681,"code_insee":"38212","nom_standard":"Livet-et-Gavet","nom_a":null,"nom_de":null,"slug_ville":"livet-et-gavet","departement_id":639,"code_postal":"38220","population":1264,"superficie_km2":"62.00","latitude_centre":"45.0909996","longitude_centre":"5.9190001","distance_km":8.44},{"id":3653,"code_insee":"38158","nom_standard":"Eybens","nom_a":null,"nom_de":null,"slug_ville":"eybens","departement_id":639,"code_postal":"38320","population":9974,"superficie_km2":"5.00","latitude_centre":"45.1520004","longitude_centre":"5.7480001","distance_km":8.55},{"id":3688,"code_insee":"38229","nom_standard":"Meylan","nom_a":null,"nom_de":null,"slug_ville":"meylan","departement_id":639,"code_postal":"38240","population":18573,"superficie_km2":"13.00","latitude_centre":"45.2120018","longitude_centre":"5.7839999","distance_km":8.71},{"id":3796,"code_insee":"38478","nom_standard":"Séchilienne","nom_a":null,"nom_de":null,"slug_ville":"sechilienne","departement_id":639,"code_postal":"38220","population":1024,"superficie_km2":"20.00","latitude_centre":"45.0730019","longitude_centre":"5.8299999","distance_km":9.14},{"id":3679,"code_insee":"38200","nom_standard":"Jarrie","nom_a":null,"nom_de":null,"slug_ville":"jarrie","departement_id":639,"code_postal":"38560","population":3903,"superficie_km2":"13.00","latitude_centre":"45.1110001","longitude_centre":"5.7470002","distance_km":9.81},{"id":3829,"code_insee":"38547","nom_standard":"Villard-Bonnot","nom_a":null,"nom_de":null,"slug_ville":"villard-bonnot","departement_id":639,"code_postal":"38190","population":7331,"superficie_km2":"6.00","latitude_centre":"45.2449989","longitude_centre":"5.8889999","distance_km":10.53},{"id":3840,"code_insee":"38562","nom_standard":"Vizille","nom_a":null,"nom_de":null,"slug_ville":"vizille","departement_id":639,"code_postal":"38220","population":7293,"superficie_km2":"11.00","latitude_centre":"45.0750008","longitude_centre":"5.7800002","distance_km":10.57},{"id":3815,"code_insee":"38516","nom_standard":"La Tronche","nom_a":null,"nom_de":null,"slug_ville":"la-tronche","departement_id":639,"code_postal":"38700","population":6470,"superficie_km2":"6.00","latitude_centre":"45.2099991","longitude_centre":"5.7430000","distance_km":10.95},{"id":3598,"code_insee":"38045","nom_standard":"Biviers","nom_a":null,"nom_de":null,"slug_ville":"biviers","departement_id":639,"code_postal":"38330","population":2319,"superficie_km2":"6.00","latitude_centre":"45.2430000","longitude_centre":"5.7979999","distance_km":11.02}]}