{"ville":{"id":34078,"code_insee":"86237","nom_standard":"Saint-Pierre-d'Exideuil","nom_a":null,"nom_de":null,"slug_ville":"saint-pierre-d-exideuil","departement_id":0,"code_postal":"86400","population":717,"superficie_km2":"1946.25","latitude_centre":"46.157","longitude_centre":"0.2536","dep_code":"86","dep_nom":"Vienne","dep_slug":"vienne","reg_code":"75","reg_nom":"Nouvelle-Aquitaine","reg_slug":"nouvelle-aquitaine"},"departement":{"code":"86","nom":"Vienne","slug":"vienne"},"region":{"code":"75","nom":"Nouvelle-Aquitaine","slug":"nouvelle-aquitaine"},"villes_proches":[{"id":0,"code_insee":"86247","nom_standard":"Val-de-Comporté","nom_a":null,"nom_de":null,"slug_ville":"val-de-comporte","departement_id":0,"code_postal":"86400","population":999,"superficie_km2":"2159.92","latitude_centre":"46.1423","longitude_centre":"0.2283","distance_km":2.54},{"id":0,"code_insee":"86078","nom_standard":"Civray","nom_a":null,"nom_de":null,"slug_ville":"civray","departement_id":0,"code_postal":"86400","population":2522,"superficie_km2":"869.75","latitude_centre":"46.1427","longitude_centre":"0.2994","distance_km":3.87},{"id":34018,"code_insee":"86134","nom_standard":"Linazay","nom_a":null,"nom_de":null,"slug_ville":"linazay","departement_id":0,"code_postal":"86400","population":216,"superficie_km2":"922.75","latitude_centre":"46.1654","longitude_centre":"0.1932","distance_km":4.74},{"id":34070,"code_insee":"86220","nom_standard":"Saint-Gaudent","nom_a":null,"nom_de":null,"slug_ville":"saint-gaudent","departement_id":0,"code_postal":"86400","population":303,"superficie_km2":"1181.63","latitude_centre":"46.1123","longitude_centre":"0.2856","distance_km":5.55},{"id":0,"code_insee":"86255","nom_standard":"Savigné","nom_a":null,"nom_de":null,"slug_ville":"savigne","departement_id":0,"code_postal":"86400","population":1256,"superficie_km2":"3662.78","latitude_centre":"46.1682","longitude_centre":"0.3266","distance_km":5.76},{"id":33970,"code_insee":"86051","nom_standard":"Champagné-le-Sec","nom_a":null,"nom_de":null,"slug_ville":"champagne-le-sec","departement_id":0,"code_postal":"86510","population":215,"superficie_km2":"802.37","latitude_centre":"46.1903","longitude_centre":"0.1895","distance_km":6.17},{"id":33957,"code_insee":"86029","nom_standard":"Blanzay","nom_a":null,"nom_de":null,"slug_ville":"blanzay","departement_id":0,"code_postal":"86400","population":819,"superficie_km2":"3560.48","latitude_centre":"46.2128","longitude_centre":"0.2529","distance_km":6.2},{"id":32600,"code_insee":"79150","nom_standard":"Limalonges","nom_a":null,"nom_de":null,"slug_ville":"limalonges","departement_id":0,"code_postal":"79190","population":843,"superficie_km2":"2438.95","latitude_centre":"46.1361","longitude_centre":"0.1757","distance_km":6.44},{"id":0,"code_insee":"86295","nom_standard":"Voulême","nom_a":null,"nom_de":null,"slug_ville":"vouleme","departement_id":0,"code_postal":"86400","population":390,"superficie_km2":"1126.67","latitude_centre":"46.1001","longitude_centre":"0.2327","distance_km":6.53},{"id":0,"code_insee":"86068","nom_standard":"Chaunay","nom_a":null,"nom_de":null,"slug_ville":"chaunay","departement_id":0,"code_postal":"86510","population":1194,"superficie_km2":"3877.11","latitude_centre":"46.1986","longitude_centre":"0.1674","distance_km":8.09},{"id":33972,"code_insee":"86054","nom_standard":"Champniers","nom_a":null,"nom_de":null,"slug_ville":"champniers","departement_id":0,"code_postal":"86400","population":358,"superficie_km2":"2012.34","latitude_centre":"46.2157","longitude_centre":"0.328","distance_km":8.68},{"id":34020,"code_insee":"86136","nom_standard":"Lizant","nom_a":null,"nom_de":null,"slug_ville":"lizant","departement_id":0,"code_postal":"86400","population":393,"superficie_km2":"1696.67","latitude_centre":"46.0792","longitude_centre":"0.2783","distance_km":8.86},{"id":33999,"code_insee":"86104","nom_standard":"Genouillé","nom_a":null,"nom_de":null,"slug_ville":"genouille","departement_id":0,"code_postal":"86250","population":504,"superficie_km2":"3006.24","latitude_centre":"46.0971","longitude_centre":"0.3396","distance_km":9.4},{"id":14105,"code_insee":"16002","nom_standard":"Les Adjots","nom_a":null,"nom_de":null,"slug_ville":"les-adjots","departement_id":0,"code_postal":"16700","population":538,"superficie_km2":"1130.30","latitude_centre":"46.0781","longitude_centre":"0.2028","distance_km":9.61},{"id":0,"code_insee":"79307","nom_standard":"Sauzé-entre-Bois","nom_a":null,"nom_de":null,"slug_ville":"sauze-entre-bois","departement_id":0,"code_postal":"79190","population":2271,"superficie_km2":"6591.23","latitude_centre":"46.1625","longitude_centre":"0.1257","distance_km":9.87},{"id":14355,"code_insee":"16378","nom_standard":"Taizé-Aizie","nom_a":null,"nom_de":null,"slug_ville":"taize-aizie","departement_id":0,"code_postal":"16700","population":593,"superficie_km2":"1486.82","latitude_centre":"46.0669","longitude_centre":"0.2537","distance_km":10.02},{"id":33963,"code_insee":"86039","nom_standard":"Brux","nom_a":null,"nom_de":null,"slug_ville":"brux","departement_id":0,"code_postal":"86510","population":777,"superficie_km2":"3609.88","latitude_centre":"46.2488","longitude_centre":"0.1902","distance_km":11.31},{"id":34067,"code_insee":"86211","nom_standard":"Romagne","nom_a":null,"nom_de":null,"slug_ville":"romagne","departement_id":0,"code_postal":"86700","population":801,"superficie_km2":"4126.01","latitude_centre":"46.2629","longitude_centre":"0.3032","distance_km":12.38},{"id":14174,"code_insee":"16104","nom_standard":"Condac","nom_a":null,"nom_de":null,"slug_ville":"condac","departement_id":0,"code_postal":"16700","population":456,"superficie_km2":"958.99","latitude_centre":"46.0303","longitude_centre":"0.232","distance_km":14.19},{"id":14132,"code_insee":"16044","nom_standard":"Bioussac","nom_a":null,"nom_de":null,"slug_ville":"bioussac","departement_id":0,"code_postal":"16700","population":206,"superficie_km2":"1586.00","latitude_centre":"46.0296","longitude_centre":"0.2671","distance_km":14.2}]}