{"ville":{"id":32646,"code_insee":"79253","nom_standard":"Saint-Georges-de-Noisné","nom_a":null,"nom_de":null,"slug_ville":"saint-georges-de-noisne","departement_id":0,"code_postal":"79400","population":684,"superficie_km2":"2493.92","latitude_centre":"46.4804","longitude_centre":"-0.2408","dep_code":"79","dep_nom":"Deux-Sèvres","dep_slug":"deux-sevres","reg_code":"75","reg_nom":"Nouvelle-Aquitaine","reg_slug":"nouvelle-aquitaine"},"departement":{"code":"79","nom":"Deux-Sèvres","slug":"deux-sevres"},"region":{"code":"75","nom":"Nouvelle-Aquitaine","slug":"nouvelle-aquitaine"},"villes_proches":[{"id":32565,"code_insee":"79092","nom_standard":"Clavé","nom_a":null,"nom_de":null,"slug_ville":"clave","departement_id":0,"code_postal":"79420","population":348,"superficie_km2":"1973.64","latitude_centre":"46.4986","longitude_centre":"-0.2012","distance_km":3.65},{"id":0,"code_insee":"79302","nom_standard":"Saivres","nom_a":null,"nom_de":null,"slug_ville":"saivres","departement_id":0,"code_postal":"79400","population":1306,"superficie_km2":"2132.20","latitude_centre":"46.4397","longitude_centre":"-0.2382","distance_km":4.53},{"id":32537,"code_insee":"79020","nom_standard":"Augé","nom_a":null,"nom_de":null,"slug_ville":"auge","departement_id":0,"code_postal":"79400","population":892,"superficie_km2":"2334.58","latitude_centre":"46.452","longitude_centre":"-0.2872","distance_km":4.75},{"id":0,"code_insee":"79345","nom_standard":"Verruyes","nom_a":null,"nom_de":null,"slug_ville":"verruyes","departement_id":0,"code_postal":"79310","population":900,"superficie_km2":"2653.08","latitude_centre":"46.5159","longitude_centre":"-0.2792","distance_km":4.92},{"id":0,"code_insee":"79267","nom_standard":"Saint-Lin","nom_a":null,"nom_de":null,"slug_ville":"saint-lin","departement_id":0,"code_postal":"79420","population":310,"superficie_km2":"1136.88","latitude_centre":"46.5301","longitude_centre":"-0.2269","distance_km":5.63},{"id":0,"code_insee":"79114","nom_standard":"Exireuil","nom_a":null,"nom_de":null,"slug_ville":"exireuil","departement_id":0,"code_postal":"79400","population":1578,"superficie_km2":"2109.19","latitude_centre":"46.4536","longitude_centre":"-0.1782","distance_km":5.65},{"id":32554,"code_insee":"79070","nom_standard":"La Chapelle-Bâton","nom_a":null,"nom_de":null,"slug_ville":"la-chapelle-baton","departement_id":0,"code_postal":"79220","population":415,"superficie_km2":"1695.12","latitude_centre":"46.4662","longitude_centre":"-0.3244","distance_km":6.59},{"id":32631,"code_insee":"79225","nom_standard":"Reffannes","nom_a":null,"nom_de":null,"slug_ville":"reffannes","departement_id":0,"code_postal":"79420","population":386,"superficie_km2":"855.82","latitude_centre":"46.5369","longitude_centre":"-0.1865","distance_km":7.53},{"id":0,"code_insee":"79270","nom_standard":"Saint-Maixent-l'École","nom_a":null,"nom_de":null,"slug_ville":"saint-maixent-l-ecole","departement_id":0,"code_postal":"79400","population":7595,"superficie_km2":"521.61","latitude_centre":"46.4145","longitude_centre":"-0.2122","distance_km":7.65},{"id":0,"code_insee":"79172","nom_standard":"Mazières-en-Gâtine","nom_a":null,"nom_de":null,"slug_ville":"mazieres-en-gatine","departement_id":0,"code_postal":"79310","population":1047,"superficie_km2":"1928.53","latitude_centre":"46.5245","longitude_centre":"-0.3216","distance_km":7.89},{"id":0,"code_insee":"79024","nom_standard":"Azay-le-Brûlé","nom_a":null,"nom_de":null,"slug_ville":"azay-le-brule","departement_id":0,"code_postal":"79400","population":1927,"superficie_km2":"2218.06","latitude_centre":"46.4058","longitude_centre":"-0.2658","distance_km":8.51},{"id":32570,"code_insee":"79105","nom_standard":"Les Châteliers","nom_a":null,"nom_de":null,"slug_ville":"les-chateliers","departement_id":0,"code_postal":"79340","population":445,"superficie_km2":"2653.91","latitude_centre":"46.503","longitude_centre":"-0.1333","distance_km":8.6},{"id":0,"code_insee":"79189","nom_standard":"Nanteuil","nom_a":null,"nom_de":null,"slug_ville":"nanteuil","departement_id":0,"code_postal":"79400","population":1684,"superficie_km2":"2047.70","latitude_centre":"46.4253","longitude_centre":"-0.1599","distance_km":8.71},{"id":0,"code_insee":"79354","nom_standard":"Vouhé","nom_a":null,"nom_de":null,"slug_ville":"vouhe","departement_id":0,"code_postal":"79310","population":356,"superficie_km2":"1418.48","latitude_centre":"46.5601","longitude_centre":"-0.2566","distance_km":8.94},{"id":0,"code_insee":"79341","nom_standard":"Vautebis","nom_a":null,"nom_de":null,"slug_ville":"vautebis","departement_id":0,"code_postal":"79420","population":127,"superficie_km2":"726.15","latitude_centre":"46.5321","longitude_centre":"-0.1501","distance_km":9.01},{"id":32638,"code_insee":"79241","nom_standard":"Saint-Christophe-sur-Roc","nom_a":null,"nom_de":null,"slug_ville":"saint-christophe-sur-roc","departement_id":0,"code_postal":"79220","population":558,"superficie_km2":"1094.00","latitude_centre":"46.4579","longitude_centre":"-0.3611","distance_km":9.55},{"id":0,"code_insee":"79276","nom_standard":"Saint-Martin-de-Saint-Maixent","nom_a":null,"nom_de":null,"slug_ville":"saint-martin-de-saint-maixent","departement_id":0,"code_postal":"79400","population":1062,"superficie_km2":"1282.05","latitude_centre":"46.3888","longitude_centre":"-0.2017","distance_km":10.62},{"id":32540,"code_insee":"79029","nom_standard":"Beaulieu-sous-Parthenay","nom_a":null,"nom_de":null,"slug_ville":"beaulieu-sous-parthenay","departement_id":0,"code_postal":"79420","population":680,"superficie_km2":"2686.94","latitude_centre":"46.5762","longitude_centre":"-0.2136","distance_km":10.85},{"id":0,"code_insee":"79285","nom_standard":"Saint-Pardoux-Soutiers","nom_a":null,"nom_de":null,"slug_ville":"saint-pardoux-soutiers","departement_id":0,"code_postal":"79310","population":1869,"superficie_km2":"4021.17","latitude_centre":"46.5738","longitude_centre":"-0.3049","distance_km":11.49},{"id":0,"code_insee":"79283","nom_standard":"Sainte-Néomaye","nom_a":null,"nom_de":null,"slug_ville":"sainte-neomaye","departement_id":0,"code_postal":"79260","population":1359,"superficie_km2":"1074.21","latitude_centre":"46.3606","longitude_centre":"-0.2598","distance_km":13.4}]}