{"ville":{"id":9127,"code_insee":"85246","nom_standard":"Saint-Martin-des-Noyers","nom_a":null,"nom_de":null,"slug_ville":"saint-martin-des-noyers","departement_id":686,"code_postal":"85140","population":2520,"superficie_km2":"41.00","latitude_centre":"46.7239990","longitude_centre":"-1.2040000","dep_code":"85","dep_nom":"Vendée","dep_slug":"vendee","reg_code":"17","reg_nom":"Pays de la Loire","reg_slug":"pays-de-la-loire"},"departement":{"code":"85","nom":"Vendée","slug":"vendee"},"region":{"code":"17","nom":"Pays de la Loire","slug":"pays-de-la-loire"},"villes_proches":[{"id":9119,"code_insee":"85232","nom_standard":"Saint-Hilaire-le-Vouhis","nom_a":null,"nom_de":null,"slug_ville":"saint-hilaire-le-vouhis","departement_id":686,"code_postal":"85480","population":1090,"superficie_km2":"29.00","latitude_centre":"46.6860008","longitude_centre":"-1.1520000","distance_km":5.79},{"id":9103,"code_insee":"85202","nom_standard":"Sainte-Cécile","nom_a":null,"nom_de":null,"slug_ville":"sainte-cecile","departement_id":686,"code_postal":"85110","population":1584,"superficie_km2":"32.00","latitude_centre":"46.7309990","longitude_centre":"-1.1210001","distance_km":6.37},{"id":9033,"code_insee":"85084","nom_standard":"Essarts-en-Bocage","nom_a":null,"nom_de":null,"slug_ville":"essarts-en-bocage","departement_id":686,"code_postal":"85140","population":9399,"superficie_km2":"57.00","latitude_centre":"46.7809982","longitude_centre":"-1.2290000","distance_km":6.62},{"id":9039,"code_insee":"85093","nom_standard":"Fougeré","nom_a":null,"nom_de":null,"slug_ville":"fougere","departement_id":686,"code_postal":"85480","population":1236,"superficie_km2":"27.00","latitude_centre":"46.6619988","longitude_centre":"-1.2359999","distance_km":7.31},{"id":9068,"code_insee":"85142","nom_standard":"La Merlatière","nom_a":null,"nom_de":null,"slug_ville":"la-merlatiere","departement_id":686,"code_postal":"85140","population":1011,"superficie_km2":"15.00","latitude_centre":"46.7560005","longitude_centre":"-1.2980000","distance_km":8},{"id":9012,"code_insee":"85046","nom_standard":"La Chaize-le-Vicomte","nom_a":null,"nom_de":null,"slug_ville":"la-chaize-le-vicomte","departement_id":686,"code_postal":"85310","population":3838,"superficie_km2":"50.00","latitude_centre":"46.6730003","longitude_centre":"-1.2920001","distance_km":8.79},{"id":9036,"code_insee":"85089","nom_standard":"La Ferrière","nom_a":null,"nom_de":null,"slug_ville":"la-ferriere","departement_id":686,"code_postal":"85280","population":5398,"superficie_km2":"47.00","latitude_centre":"46.7220001","longitude_centre":"-1.3350000","distance_km":9.99},{"id":9005,"code_insee":"85034","nom_standard":"Bournezeau","nom_a":null,"nom_de":null,"slug_ville":"bournezeau","departement_id":686,"code_postal":"85480","population":3451,"superficie_km2":"61.00","latitude_centre":"46.6300011","longitude_centre":"-1.1410000","distance_km":11.5},{"id":9146,"code_insee":"85291","nom_standard":"Thorigny","nom_a":null,"nom_de":null,"slug_ville":"thorigny","departement_id":686,"code_postal":"85480","population":1253,"superficie_km2":"32.00","latitude_centre":"46.6180000","longitude_centre":"-1.2490000","distance_km":12.28},{"id":9113,"code_insee":"85220","nom_standard":"Saint-Germain-de-Prinçay","nom_a":null,"nom_de":null,"slug_ville":"saint-germain-de-princay","departement_id":686,"code_postal":"85110","population":1606,"superficie_km2":"25.00","latitude_centre":"46.7360001","longitude_centre":"-1.0430000","distance_km":12.34},{"id":9022,"code_insee":"85064","nom_standard":"Chauché","nom_a":null,"nom_de":null,"slug_ville":"chauche","departement_id":686,"code_postal":"85140","population":2506,"superficie_km2":"42.00","latitude_centre":"46.8279991","longitude_centre":"-1.2710000","distance_km":12.64},{"id":9154,"code_insee":"85301","nom_standard":"Vendrennes","nom_a":null,"nom_de":null,"slug_ville":"vendrennes","departement_id":686,"code_postal":"85250","population":1791,"superficie_km2":"17.00","latitude_centre":"46.8230019","longitude_centre":"-1.1160001","distance_km":12.89},{"id":9099,"code_insee":"85196","nom_standard":"Saint-André-Goule-d'Oie","nom_a":null,"nom_de":null,"slug_ville":"saint-andre-goule-d-oie","departement_id":686,"code_postal":"85250","population":1924,"superficie_km2":"20.00","latitude_centre":"46.8409996","longitude_centre":"-1.1960000","distance_km":13.02},{"id":9075,"code_insee":"85153","nom_standard":"Mouchamps","nom_a":null,"nom_de":null,"slug_ville":"mouchamps","departement_id":686,"code_postal":"85640","population":2957,"superficie_km2":"55.00","latitude_centre":"46.7869988","longitude_centre":"-1.0540000","distance_km":13.4},{"id":9030,"code_insee":"85081","nom_standard":"Dompierre-sur-Yon","nom_a":null,"nom_de":null,"slug_ville":"dompierre-sur-yon","departement_id":686,"code_postal":"85170","population":4457,"superficie_km2":"34.00","latitude_centre":"46.7599983","longitude_centre":"-1.3730000","distance_km":13.49},{"id":9016,"code_insee":"85051","nom_standard":"Chantonnay","nom_a":null,"nom_de":null,"slug_ville":"chantonnay","departement_id":686,"code_postal":"85110","population":8447,"superficie_km2":"84.00","latitude_centre":"46.6689987","longitude_centre":"-1.0440000","distance_km":13.65},{"id":9093,"code_insee":"85186","nom_standard":"La Rabatelière","nom_a":null,"nom_de":null,"slug_ville":"la-rabateliere","departement_id":686,"code_postal":"85250","population":1013,"superficie_km2":"8.00","latitude_centre":"46.8580017","longitude_centre":"-1.2570000","distance_km":15.44},{"id":9070,"code_insee":"85144","nom_standard":"Mesnard-la-Barotière","nom_a":null,"nom_de":null,"slug_ville":"mesnard-la-barotiere","departement_id":686,"code_postal":"85500","population":1561,"superficie_km2":"12.00","latitude_centre":"46.8520012","longitude_centre":"-1.1100000","distance_km":15.93},{"id":9108,"code_insee":"85213","nom_standard":"Rives de l'Yon","nom_a":null,"nom_de":null,"slug_ville":"rives-de-l-yon","departement_id":686,"code_postal":"85310","population":4245,"superficie_km2":"37.00","latitude_centre":"46.6059990","longitude_centre":"-1.3350000","distance_km":16.5},{"id":9110,"code_insee":"85215","nom_standard":"Saint-Fulgent","nom_a":null,"nom_de":null,"slug_ville":"saint-fulgent","departement_id":686,"code_postal":"85250","population":3860,"superficie_km2":"37.00","latitude_centre":"46.8709984","longitude_centre":"-1.1619999","distance_km":16.66}]}