{"ville":{"id":19049,"code_insee":"31510","nom_standard":"Saint-Pé-Delbosc","nom_a":null,"nom_de":null,"slug_ville":"saint-pe-delbosc","departement_id":0,"code_postal":"31350","population":142,"superficie_km2":"551.57","latitude_centre":"43.2681","longitude_centre":"0.6964","dep_code":"31","dep_nom":"Haute-Garonne","dep_slug":"haute-garonne","reg_code":"76","reg_nom":"Occitanie","reg_slug":"occitanie"},"departement":{"code":"31","nom":"Haute-Garonne","slug":"haute-garonne"},"region":{"code":"76","nom":"Occitanie","slug":"occitanie"},"villes_proches":[{"id":18959,"code_insee":"31378","nom_standard":"Montgaillard-sur-Save","nom_a":null,"nom_de":null,"slug_ville":"montgaillard-sur-save","departement_id":0,"code_postal":"31350","population":66,"superficie_km2":"414.34","latitude_centre":"43.2545","longitude_centre":"0.7145","distance_km":2.11},{"id":18938,"code_insee":"31350","nom_standard":"Mondilhan","nom_a":null,"nom_de":null,"slug_ville":"mondilhan","departement_id":0,"code_postal":"31350","population":88,"superficie_km2":"1003.97","latitude_centre":"43.2902","longitude_centre":"0.7091","distance_km":2.66},{"id":18792,"code_insee":"31141","nom_standard":"Ciadoux","nom_a":null,"nom_de":null,"slug_ville":"ciadoux","departement_id":0,"code_postal":"31350","population":234,"superficie_km2":"971.41","latitude_centre":"43.2553","longitude_centre":"0.7354","distance_km":3.46},{"id":18789,"code_insee":"31138","nom_standard":"Charlas","nom_a":null,"nom_de":null,"slug_ville":"charlas","departement_id":0,"code_postal":"31350","population":243,"superficie_km2":"1141.50","latitude_centre":"43.2366","longitude_centre":"0.6951","distance_km":3.5},{"id":0,"code_insee":"31528","nom_standard":"Saman","nom_a":null,"nom_de":null,"slug_ville":"saman","departement_id":0,"code_postal":"31350","population":143,"superficie_km2":"557.93","latitude_centre":"43.2398","longitude_centre":"0.7223","distance_km":3.78},{"id":18739,"code_insee":"31070","nom_standard":"Blajan","nom_a":null,"nom_de":null,"slug_ville":"blajan","departement_id":0,"code_postal":"31350","population":426,"superficie_km2":"1277.39","latitude_centre":"43.2519","longitude_centre":"0.6488","distance_km":4.25},{"id":0,"code_insee":"31080","nom_standard":"Boulogne-sur-Gesse","nom_a":null,"nom_de":null,"slug_ville":"boulogne-sur-gesse","departement_id":0,"code_postal":"31350","population":1673,"superficie_km2":"2460.73","latitude_centre":"43.2903","longitude_centre":"0.649","distance_km":4.56},{"id":18894,"code_insee":"31295","nom_standard":"Lespugue","nom_a":null,"nom_de":null,"slug_ville":"lespugue","departement_id":0,"code_postal":"31350","population":75,"superficie_km2":"488.38","latitude_centre":"43.2311","longitude_centre":"0.6652","distance_km":4.83},{"id":18810,"code_insee":"31170","nom_standard":"Escanecrabe","nom_a":null,"nom_de":null,"slug_ville":"escanecrabe","departement_id":0,"code_postal":"31350","population":210,"superficie_km2":"1613.08","latitude_centre":"43.2734","longitude_centre":"0.7577","distance_km":5.0},{"id":19038,"code_insee":"31493","nom_standard":"Saint-Lary-Boujean","nom_a":null,"nom_de":null,"slug_ville":"saint-lary-boujean","departement_id":0,"code_postal":"31350","population":127,"superficie_km2":"838.87","latitude_centre":"43.2206","longitude_centre":"0.7397","distance_km":6.34},{"id":18982,"code_insee":"31412","nom_standard":"Péguilhan","nom_a":null,"nom_de":null,"slug_ville":"peguilhan","departement_id":0,"code_postal":"31350","population":274,"superficie_km2":"2371.73","latitude_centre":"43.3256","longitude_centre":"0.703","distance_km":6.42},{"id":18963,"code_insee":"31385","nom_standard":"Montmaurin","nom_a":null,"nom_de":null,"slug_ville":"montmaurin","departement_id":0,"code_postal":"31350","population":192,"superficie_km2":"848.68","latitude_centre":"43.2254","longitude_centre":"0.638","distance_km":6.7},{"id":0,"code_insee":"31532","nom_standard":"Sarremezan","nom_a":null,"nom_de":null,"slug_ville":"sarremezan","departement_id":0,"code_postal":"31350","population":89,"superficie_km2":"427.41","latitude_centre":"43.211","longitude_centre":"0.6673","distance_km":6.77},{"id":18947,"code_insee":"31363","nom_standard":"Montbernard","nom_a":null,"nom_de":null,"slug_ville":"montbernard","departement_id":0,"code_postal":"31230","population":215,"superficie_km2":"1817.75","latitude_centre":"43.3031","longitude_centre":"0.7683","distance_km":7.0},{"id":18774,"code_insee":"31121","nom_standard":"Castéra-Vignoles","nom_a":null,"nom_de":null,"slug_ville":"castera-vignoles","departement_id":0,"code_postal":"31350","population":64,"superficie_km2":"420.60","latitude_centre":"43.2782","longitude_centre":"0.7828","distance_km":7.08},{"id":0,"code_insee":"32185","nom_standard":"Lalanne-Arqué","nom_a":null,"nom_de":null,"slug_ville":"lalanne-arque","departement_id":0,"code_postal":"32140","population":149,"superficie_km2":"1109.48","latitude_centre":"43.3264","longitude_centre":"0.6399","distance_km":7.93},{"id":18765,"code_insee":"31108","nom_standard":"Cardeilhac","nom_a":null,"nom_de":null,"slug_ville":"cardeilhac","departement_id":0,"code_postal":"31350","population":259,"superficie_km2":"1844.94","latitude_centre":"43.1964","longitude_centre":"0.6788","distance_km":8.1},{"id":19031,"code_insee":"31479","nom_standard":"Saint-Ferréol-de-Comminges","nom_a":null,"nom_de":null,"slug_ville":"saint-ferreol-de-comminges","departement_id":0,"code_postal":"31350","population":59,"superficie_km2":"588.31","latitude_centre":"43.341","longitude_centre":"0.738","distance_km":8.78},{"id":18878,"code_insee":"31268","nom_standard":"Lalouret-Laffiteau","nom_a":null,"nom_de":null,"slug_ville":"lalouret-laffiteau","departement_id":0,"code_postal":"31800","population":134,"superficie_km2":"545.09","latitude_centre":"43.1864","longitude_centre":"0.6987","distance_km":9.09},{"id":18971,"code_insee":"31397","nom_standard":"Nénigan","nom_a":null,"nom_de":null,"slug_ville":"nenigan","departement_id":0,"code_postal":"31350","population":51,"superficie_km2":"236.60","latitude_centre":"43.3532","longitude_centre":"0.7095","distance_km":9.52}]}