{"ville":{"id":19758,"code_insee":"33404","nom_standard":"Sainte-Gemme","nom_a":null,"nom_de":null,"slug_ville":"sainte-gemme","departement_id":0,"code_postal":"33580","population":192,"superficie_km2":"955.99","latitude_centre":"44.6196","longitude_centre":"0.0693","dep_code":"33","dep_nom":"Gironde","dep_slug":"gironde","reg_code":"75","reg_nom":"Nouvelle-Aquitaine","reg_slug":"nouvelle-aquitaine"},"departement":{"code":"33","nom":"Gironde","slug":"gironde"},"region":{"code":"75","nom":"Nouvelle-Aquitaine","slug":"nouvelle-aquitaine"},"villes_proches":[{"id":0,"code_insee":"33481","nom_standard":"Saint-Sulpice-de-Guilleragues","nom_a":null,"nom_de":null,"slug_ville":"saint-sulpice-de-guilleragues","departement_id":0,"code_postal":"33580","population":234,"superficie_km2":"693.02","latitude_centre":"44.626","longitude_centre":"0.0495","distance_km":1.72},{"id":19628,"code_insee":"33171","nom_standard":"Fossès-et-Baleyssac","nom_a":null,"nom_de":null,"slug_ville":"fosses-et-baleyssac","departement_id":0,"code_postal":"33190","population":222,"superficie_km2":"947.77","latitude_centre":"44.5991","longitude_centre":"0.0522","distance_km":2.65},{"id":0,"code_insee":"33289","nom_standard":"Monségur","nom_a":null,"nom_de":null,"slug_ville":"monsegur","departement_id":0,"code_postal":"33580","population":1579,"superficie_km2":"993.12","latitude_centre":"44.647","longitude_centre":"0.0861","distance_km":3.32},{"id":0,"code_insee":"33453","nom_standard":"Saint-Michel-de-Lapujade","nom_a":null,"nom_de":null,"slug_ville":"saint-michel-de-lapujade","departement_id":0,"code_postal":"33190","population":211,"superficie_km2":"747.84","latitude_centre":"44.586","longitude_centre":"0.0781","distance_km":3.8},{"id":19730,"code_insee":"33359","nom_standard":"Roquebrune","nom_a":null,"nom_de":null,"slug_ville":"roquebrune","departement_id":0,"code_postal":"33580","population":279,"superficie_km2":"661.03","latitude_centre":"44.6228","longitude_centre":"0.018","distance_km":4.08},{"id":0,"code_insee":"33491","nom_standard":"Saint-Vivien-de-Monségur","nom_a":null,"nom_de":null,"slug_ville":"saint-vivien-de-monsegur","departement_id":0,"code_postal":"33580","population":391,"superficie_km2":"1584.33","latitude_centre":"44.6167","longitude_centre":"0.1208","distance_km":4.09},{"id":19723,"code_insee":"33345","nom_standard":"Le Puy","nom_a":null,"nom_de":null,"slug_ville":"le-puy","departement_id":0,"code_postal":"33580","population":393,"superficie_km2":"852.57","latitude_centre":"44.6602","longitude_centre":"0.0632","distance_km":4.54},{"id":19606,"code_insee":"33139","nom_standard":"Coutures","nom_a":null,"nom_de":null,"slug_ville":"coutures","departement_id":0,"code_postal":"33580","population":89,"superficie_km2":"338.58","latitude_centre":"44.6566","longitude_centre":"0.0318","distance_km":5.07},{"id":0,"code_insee":"33418","nom_standard":"Saint-Hilaire-de-la-Noaille","nom_a":null,"nom_de":null,"slug_ville":"saint-hilaire-de-la-noaille","departement_id":0,"code_postal":"33190","population":382,"superficie_km2":"1144.86","latitude_centre":"44.6053","longitude_centre":"0.0063","distance_km":5.23},{"id":19703,"code_insee":"33304","nom_standard":"Neuffons","nom_a":null,"nom_de":null,"slug_ville":"neuffons","departement_id":0,"code_postal":"33580","population":154,"superficie_km2":"469.32","latitude_centre":"44.6481","longitude_centre":"0.0125","distance_km":5.5},{"id":0,"code_insee":"33221","nom_standard":"Lamothe-Landerron","nom_a":null,"nom_de":null,"slug_ville":"lamothe-landerron","departement_id":0,"code_postal":"33190","population":1114,"superficie_km2":"918.98","latitude_centre":"44.5662","longitude_centre":"0.0602","distance_km":5.98},{"id":0,"code_insee":"47257","nom_standard":"Saint-Martin-Petit","nom_a":null,"nom_de":null,"slug_ville":"saint-martin-petit","departement_id":0,"code_postal":"47180","population":620,"superficie_km2":"640.02","latitude_centre":"44.5683","longitude_centre":"0.0921","distance_km":5.98},{"id":19604,"code_insee":"33136","nom_standard":"Cours-de-Monségur","nom_a":null,"nom_de":null,"slug_ville":"cours-de-monsegur","departement_id":0,"code_postal":"33580","population":237,"superficie_km2":"961.89","latitude_centre":"44.6489","longitude_centre":"0.1353","distance_km":6.16},{"id":0,"code_insee":"47131","nom_standard":"Lagupie","nom_a":null,"nom_de":null,"slug_ville":"lagupie","departement_id":0,"code_postal":"47180","population":680,"superficie_km2":"871.93","latitude_centre":"44.5707","longitude_centre":"0.1099","distance_km":6.32},{"id":19693,"code_insee":"33287","nom_standard":"Mongauzy","nom_a":null,"nom_de":null,"slug_ville":"mongauzy","departement_id":0,"code_postal":"33190","population":667,"superficie_km2":"684.16","latitude_centre":"44.5705","longitude_centre":"0.0217","distance_km":6.63},{"id":19695,"code_insee":"33291","nom_standard":"Montagoudin","nom_a":null,"nom_de":null,"slug_ville":"montagoudin","departement_id":0,"code_postal":"33190","population":165,"superficie_km2":"336.39","latitude_centre":"44.5808","longitude_centre":"0.0055","distance_km":6.64},{"id":19613,"code_insee":"33150","nom_standard":"Dieulivol","nom_a":null,"nom_de":null,"slug_ville":"dieulivol","departement_id":0,"code_postal":"33580","population":334,"superficie_km2":"1045.57","latitude_centre":"44.6817","longitude_centre":"0.1062","distance_km":7.5},{"id":19726,"code_insee":"33353","nom_standard":"Rimons","nom_a":null,"nom_de":null,"slug_ville":"rimons","departement_id":0,"code_postal":"33580","population":198,"superficie_km2":"1436.48","latitude_centre":"44.6738","longitude_centre":"0.0129","distance_km":7.5},{"id":0,"code_insee":"47056","nom_standard":"Castelnau-sur-Gupie","nom_a":null,"nom_de":null,"slug_ville":"castelnau-sur-gupie","departement_id":0,"code_postal":"47180","population":917,"superficie_km2":"1538.18","latitude_centre":"44.5747","longitude_centre":"0.1409","distance_km":7.55},{"id":19755,"code_insee":"33400","nom_standard":"Saint-Ferme","nom_a":null,"nom_de":null,"slug_ville":"saint-ferme","departement_id":0,"code_postal":"33580","population":328,"superficie_km2":"2010.10","latitude_centre":"44.6951","longitude_centre":"0.0593","distance_km":8.43}]}