{"ville":{"id":14618,"code_insee":"17345","nom_standard":"Saint-Hilaire-du-Bois","nom_a":null,"nom_de":null,"slug_ville":"saint-hilaire-du-bois","departement_id":0,"code_postal":"17500","population":294,"superficie_km2":"754.64","latitude_centre":"45.4335","longitude_centre":"-0.4895","dep_code":"17","dep_nom":"Charente-Maritime","dep_slug":"charente-maritime","reg_code":"75","reg_nom":"Nouvelle-Aquitaine","reg_slug":"nouvelle-aquitaine"},"departement":{"code":"17","nom":"Charente-Maritime","slug":"charente-maritime"},"region":{"code":"75","nom":"Nouvelle-Aquitaine","slug":"nouvelle-aquitaine"},"villes_proches":[{"id":14517,"code_insee":"17187","nom_standard":"Guitinières","nom_a":null,"nom_de":null,"slug_ville":"guitinieres","departement_id":0,"code_postal":"17500","population":479,"superficie_km2":"923.71","latitude_centre":"45.4431","longitude_centre":"-0.5111","distance_km":1.99},{"id":14569,"code_insee":"17263","nom_standard":"Nieul-le-Virouil","nom_a":null,"nom_de":null,"slug_ville":"nieul-le-virouil","departement_id":0,"code_postal":"17150","population":573,"superficie_km2":"2258.82","latitude_centre":"45.416","longitude_centre":"-0.5235","distance_km":3.29},{"id":0,"code_insee":"17403","nom_standard":"Saint-Simon-de-Bordes","nom_a":null,"nom_de":null,"slug_ville":"saint-simon-de-bordes","departement_id":0,"code_postal":"17500","population":762,"superficie_km2":"1406.41","latitude_centre":"45.4119","longitude_centre":"-0.4546","distance_km":3.63},{"id":14538,"code_insee":"17215","nom_standard":"Lussac","nom_a":null,"nom_de":null,"slug_ville":"lussac","departement_id":0,"code_postal":"17500","population":39,"superficie_km2":"174.70","latitude_centre":"45.4672","longitude_centre":"-0.4741","distance_km":3.94},{"id":0,"code_insee":"17402","nom_standard":"Saint-Sigismond-de-Clermont","nom_a":null,"nom_de":null,"slug_ville":"saint-sigismond-de-clermont","departement_id":0,"code_postal":"17240","population":161,"superficie_km2":"535.08","latitude_centre":"45.4467","longitude_centre":"-0.5454","distance_km":4.6},{"id":14465,"code_insee":"17111","nom_standard":"Clion","nom_a":null,"nom_de":null,"slug_ville":"clion","departement_id":0,"code_postal":"17240","population":843,"superficie_km2":"1597.74","latitude_centre":"45.473","longitude_centre":"-0.5096","distance_km":4.66},{"id":0,"code_insee":"17339","nom_standard":"Saint-Germain-de-Lusignan","nom_a":null,"nom_de":null,"slug_ville":"saint-germain-de-lusignan","departement_id":0,"code_postal":"17500","population":1299,"superficie_km2":"1813.95","latitude_centre":"45.4635","longitude_centre":"-0.4419","distance_km":4.99},{"id":0,"code_insee":"17197","nom_standard":"Jonzac","nom_a":null,"nom_de":null,"slug_ville":"jonzac","departement_id":0,"code_postal":"17500","population":3602,"superficie_km2":"1305.35","latitude_centre":"45.4413","longitude_centre":"-0.4237","distance_km":5.21},{"id":14396,"code_insee":"17005","nom_standard":"Allas-Bocage","nom_a":null,"nom_de":null,"slug_ville":"allas-bocage","departement_id":0,"code_postal":"17150","population":194,"superficie_km2":"1094.03","latitude_centre":"45.3852","longitude_centre":"-0.5019","distance_km":5.46},{"id":0,"code_insee":"17363","nom_standard":"Saint-Martial-de-Vitaterne","nom_a":null,"nom_de":null,"slug_ville":"saint-martial-de-vitaterne","departement_id":0,"code_postal":"17500","population":552,"superficie_km2":"281.44","latitude_centre":"45.4644","longitude_centre":"-0.4331","distance_km":5.58},{"id":14394,"code_insee":"17002","nom_standard":"Agudelle","nom_a":null,"nom_de":null,"slug_ville":"agudelle","departement_id":0,"code_postal":"17500","population":131,"superficie_km2":"540.08","latitude_centre":"45.3836","longitude_centre":"-0.4694","distance_km":5.77},{"id":14613,"code_insee":"17332","nom_standard":"Saint-Georges-Antignac","nom_a":null,"nom_de":null,"slug_ville":"saint-georges-antignac","departement_id":0,"code_postal":"17240","population":416,"superficie_km2":"1021.41","latitude_centre":"45.49","longitude_centre":"-0.4846","distance_km":6.29},{"id":14607,"code_insee":"17324","nom_standard":"Saint-Dizant-du-Bois","nom_a":null,"nom_de":null,"slug_ville":"saint-dizant-du-bois","departement_id":0,"code_postal":"17150","population":113,"superficie_km2":"416.86","latitude_centre":"45.4045","longitude_centre":"-0.5707","distance_km":7.11},{"id":0,"code_insee":"17476","nom_standard":"Villexavier","nom_a":null,"nom_de":null,"slug_ville":"villexavier","departement_id":0,"code_postal":"17500","population":267,"superficie_km2":"996.12","latitude_centre":"45.3789","longitude_centre":"-0.4399","distance_km":7.2},{"id":14463,"code_insee":"17108","nom_standard":"Clam","nom_a":null,"nom_de":null,"slug_ville":"clam","departement_id":0,"code_postal":"17500","population":418,"superficie_km2":"696.31","latitude_centre":"45.4928","longitude_centre":"-0.4425","distance_km":7.54},{"id":14559,"code_insee":"17250","nom_standard":"Mosnac","nom_a":null,"nom_de":null,"slug_ville":"mosnac","departement_id":0,"code_postal":"17240","population":494,"superficie_km2":"1273.58","latitude_centre":"45.5042","longitude_centre":"-0.539","distance_km":8.76},{"id":14617,"code_insee":"17343","nom_standard":"Saint-Grégoire-d'Ardennes","nom_a":null,"nom_de":null,"slug_ville":"saint-gregoire-d-ardennes","departement_id":0,"code_postal":"17240","population":143,"superficie_km2":"355.14","latitude_centre":"45.5115","longitude_centre":"-0.51","distance_km":8.82},{"id":0,"code_insee":"17430","nom_standard":"Soubran","nom_a":null,"nom_de":null,"slug_ville":"soubran","departement_id":0,"code_postal":"17150","population":414,"superficie_km2":"1313.05","latitude_centre":"45.3547","longitude_centre":"-0.5212","distance_km":9.11},{"id":0,"code_insee":"17417","nom_standard":"Salignac-de-Mirambeau","nom_a":null,"nom_de":null,"slug_ville":"salignac-de-mirambeau","departement_id":0,"code_postal":"17130","population":163,"superficie_km2":"759.83","latitude_centre":"45.3478","longitude_centre":"-0.4821","distance_km":9.55},{"id":14540,"code_insee":"17220","nom_standard":"Marignac","nom_a":null,"nom_de":null,"slug_ville":"marignac","departement_id":0,"code_postal":"17800","population":412,"superficie_km2":"1348.65","latitude_centre":"45.5189","longitude_centre":"-0.4699","distance_km":9.62}]}