{"ville":{"id":33843,"code_insee":"84115","nom_standard":"Saint-Pierre-de-Vassols","nom_a":null,"nom_de":null,"slug_ville":"saint-pierre-de-vassols","departement_id":0,"code_postal":"84330","population":499,"superficie_km2":"499.89","latitude_centre":"44.0983","longitude_centre":"5.1463","dep_code":"84","dep_nom":"Vaucluse","dep_slug":"vaucluse","reg_code":"93","reg_nom":"Provence-Alpes-Côte d'Azur","reg_slug":"provence-alpes-cote-d-azur"},"departement":{"code":"84","nom":"Vaucluse","slug":"vaucluse"},"region":{"code":"93","nom":"Provence-Alpes-Côte d'Azur","slug":"provence-alpes-cote-d-azur"},"villes_proches":[{"id":33823,"code_insee":"84077","nom_standard":"Modène","nom_a":null,"nom_de":null,"slug_ville":"modene","departement_id":0,"code_postal":"84330","population":458,"superficie_km2":"476.61","latitude_centre":"44.1092","longitude_centre":"5.1285","distance_km":1.87},{"id":33809,"code_insee":"84041","nom_standard":"Crillon-le-Brave","nom_a":null,"nom_de":null,"slug_ville":"crillon-le-brave","departement_id":0,"code_postal":"84410","population":488,"superficie_km2":"765.67","latitude_centre":"44.1187","longitude_centre":"5.152","distance_km":2.31},{"id":0,"code_insee":"84030","nom_standard":"Caromb","nom_a":null,"nom_de":null,"slug_ville":"caromb","departement_id":0,"code_postal":"84330","population":3479,"superficie_km2":"1788.25","latitude_centre":"44.11","longitude_centre":"5.1078","distance_km":3.34},{"id":0,"code_insee":"84082","nom_standard":"Mormoiron","nom_a":null,"nom_de":null,"slug_ville":"mormoiron","departement_id":0,"code_postal":"84570","population":1884,"superficie_km2":"2522.77","latitude_centre":"44.0686","longitude_centre":"5.1918","distance_km":4.91},{"id":0,"code_insee":"84072","nom_standard":"Mazan","nom_a":null,"nom_de":null,"slug_ville":"mazan","departement_id":0,"code_postal":"84380","population":6285,"superficie_km2":"3796.11","latitude_centre":"44.0528","longitude_centre":"5.1333","distance_km":5.16},{"id":33837,"code_insee":"84109","nom_standard":"Saint-Hippolyte-le-Graveyron","nom_a":null,"nom_de":null,"slug_ville":"saint-hippolyte-le-graveyron","departement_id":0,"code_postal":"84330","population":168,"superficie_km2":"494.30","latitude_centre":"44.1175","longitude_centre":"5.0775","distance_km":5.89},{"id":33796,"code_insee":"84008","nom_standard":"Le Barroux","nom_a":null,"nom_de":null,"slug_ville":"le-barroux","departement_id":0,"code_postal":"84330","population":662,"superficie_km2":"1604.61","latitude_centre":"44.1591","longitude_centre":"5.1046","distance_km":7.54},{"id":0,"code_insee":"84017","nom_standard":"Bédoin","nom_a":null,"nom_de":null,"slug_ville":"bedoin","departement_id":0,"code_postal":"84410","population":3106,"superficie_km2":"9061.30","latitude_centre":"44.1337","longitude_centre":"5.2342","distance_km":8.05},{"id":0,"code_insee":"84031","nom_standard":"Carpentras","nom_a":null,"nom_de":null,"slug_ville":"carpentras","departement_id":0,"code_postal":"84200","population":31619,"superficie_km2":"3792.10","latitude_centre":"44.0629","longitude_centre":"5.0584","distance_km":8.05},{"id":33833,"code_insee":"84100","nom_standard":"La Roque-Alric","nom_a":null,"nom_de":null,"slug_ville":"la-roque-alric","departement_id":0,"code_postal":"84190","population":50,"superficie_km2":"490.11","latitude_centre":"44.1458","longitude_centre":"5.0683","distance_km":8.16},{"id":0,"code_insee":"84004","nom_standard":"Aubignan","nom_a":null,"nom_de":null,"slug_ville":"aubignan","departement_id":0,"code_postal":"84810","population":5981,"superficie_km2":"1571.58","latitude_centre":"44.0962","longitude_centre":"5.0331","distance_km":9.04},{"id":0,"code_insee":"84070","nom_standard":"Malemort-du-Comtat","nom_a":null,"nom_de":null,"slug_ville":"malemort-du-comtat","departement_id":0,"code_postal":"84570","population":1969,"superficie_km2":"1198.13","latitude_centre":"44.0171","longitude_centre":"5.1646","distance_km":9.15},{"id":0,"code_insee":"84069","nom_standard":"Malaucène","nom_a":null,"nom_de":null,"slug_ville":"malaucene","departement_id":0,"code_postal":"84340","population":2758,"superficie_km2":"4534.23","latitude_centre":"44.1804","longitude_centre":"5.1559","distance_km":9.16},{"id":33811,"code_insee":"84046","nom_standard":"Flassan","nom_a":null,"nom_de":null,"slug_ville":"flassan","departement_id":0,"code_postal":"84410","population":453,"superficie_km2":"2086.48","latitude_centre":"44.0995","longitude_centre":"5.2613","distance_km":9.18},{"id":0,"code_insee":"84148","nom_standard":"Villes-sur-Auzon","nom_a":null,"nom_de":null,"slug_ville":"villes-sur-auzon","departement_id":0,"code_postal":"84570","population":1306,"superficie_km2":"2719.43","latitude_centre":"44.0658","longitude_centre":"5.2572","distance_km":9.57},{"id":33816,"code_insee":"84059","nom_standard":"Lafare","nom_a":null,"nom_de":null,"slug_ville":"lafare","departement_id":0,"code_postal":"84190","population":130,"superficie_km2":"452.80","latitude_centre":"44.1535","longitude_centre":"5.0501","distance_km":9.83},{"id":0,"code_insee":"84108","nom_standard":"Saint-Didier","nom_a":null,"nom_de":null,"slug_ville":"saint-didier","departement_id":0,"code_postal":"84210","population":2208,"superficie_km2":"365.99","latitude_centre":"44.0108","longitude_centre":"5.1093","distance_km":10.17},{"id":33801,"code_insee":"84018","nom_standard":"Blauvac","nom_a":null,"nom_de":null,"slug_ville":"blauvac","departement_id":0,"code_postal":"84570","population":573,"superficie_km2":"2106.14","latitude_centre":"44.0356","longitude_centre":"5.2418","distance_km":10.34},{"id":33800,"code_insee":"84015","nom_standard":"Beaumont-du-Ventoux","nom_a":null,"nom_de":null,"slug_ville":"beaumont-du-ventoux","departement_id":0,"code_postal":"84340","population":308,"superficie_km2":"2812.60","latitude_centre":"44.182","longitude_centre":"5.2197","distance_km":11.0},{"id":0,"code_insee":"84143","nom_standard":"Venasque","nom_a":null,"nom_de":null,"slug_ville":"venasque","departement_id":0,"code_postal":"84210","population":1082,"superficie_km2":"3507.05","latitude_centre":"43.9866","longitude_centre":"5.1684","distance_km":12.55}]}