{"ville":{"id":9140,"code_insee":"85278","nom_standard":"Saint-Vincent-sur-Jard","nom_a":null,"nom_de":null,"slug_ville":"saint-vincent-sur-jard","departement_id":686,"code_postal":"85520","population":1463,"superficie_km2":"15.00","latitude_centre":"46.4300003","longitude_centre":"-1.5500000","dep_code":"85","dep_nom":"Vendée","dep_slug":"vendee","reg_code":"17","reg_nom":"Pays de la Loire","reg_slug":"pays-de-la-loire"},"departement":{"code":"85","nom":"Vendée","slug":"vendee"},"region":{"code":"17","nom":"Pays de la Loire","slug":"pays-de-la-loire"},"villes_proches":[{"id":9054,"code_insee":"85114","nom_standard":"Jard-sur-Mer","nom_a":null,"nom_de":null,"slug_ville":"jard-sur-mer","departement_id":686,"code_postal":"85520","population":2858,"superficie_km2":"17.00","latitude_centre":"46.4249992","longitude_centre":"-1.6000000","distance_km":3.87},{"id":9060,"code_insee":"85127","nom_standard":"Longeville-sur-Mer","nom_a":null,"nom_de":null,"slug_ville":"longeville-sur-mer","departement_id":686,"code_postal":"85560","population":2413,"superficie_km2":"38.00","latitude_centre":"46.4090004","longitude_centre":"-1.4770000","distance_km":6.06},{"id":8987,"code_insee":"85010","nom_standard":"Avrillé","nom_a":null,"nom_de":null,"slug_ville":"avrille","departement_id":686,"code_postal":"85440","population":1415,"superficie_km2":"26.00","latitude_centre":"46.4739990","longitude_centre":"-1.4950000","distance_km":6.46},{"id":9144,"code_insee":"85288","nom_standard":"Talmont-Saint-Hilaire","nom_a":null,"nom_de":null,"slug_ville":"talmont-saint-hilaire","departement_id":686,"code_postal":"85440","population":8161,"superficie_km2":"90.00","latitude_centre":"46.4760017","longitude_centre":"-1.6280000","distance_km":7.87},{"id":8999,"code_insee":"85022","nom_standard":"Le Bernard","nom_a":null,"nom_de":null,"slug_ville":"le-bernard","departement_id":686,"code_postal":"85560","population":1293,"superficie_km2":"28.00","latitude_centre":"46.4480019","longitude_centre":"-1.4400001","distance_km":8.66},{"id":9091,"code_insee":"85179","nom_standard":"Poiroux","nom_a":null,"nom_de":null,"slug_ville":"poiroux","departement_id":686,"code_postal":"85440","population":1214,"superficie_km2":"26.00","latitude_centre":"46.5110016","longitude_centre":"-1.5390000","distance_km":9.05},{"id":9078,"code_insee":"85156","nom_standard":"Moutiers-les-Mauxfaits","nom_a":null,"nom_de":null,"slug_ville":"moutiers-les-mauxfaits","departement_id":686,"code_postal":"85540","population":2298,"superficie_km2":"9.00","latitude_centre":"46.4889984","longitude_centre":"-1.4360000","distance_km":10.92},{"id":9102,"code_insee":"85200","nom_standard":"Saint-Avaugourd-des-Landes","nom_a":null,"nom_de":null,"slug_ville":"saint-avaugourd-des-landes","departement_id":686,"code_postal":"85540","population":1121,"superficie_km2":"21.00","latitude_centre":"46.5139999","longitude_centre":"-1.4750000","distance_km":10.96},{"id":9148,"code_insee":"85294","nom_standard":"La Tranche-sur-Mer","nom_a":null,"nom_de":null,"slug_ville":"la-tranche-sur-mer","departement_id":686,"code_postal":"85360","population":3054,"superficie_km2":"21.00","latitude_centre":"46.3559990","longitude_centre":"-1.4310000","distance_km":12.29},{"id":8982,"code_insee":"85004","nom_standard":"Angles","nom_a":null,"nom_de":null,"slug_ville":"angles","departement_id":686,"code_postal":"85750","population":2926,"superficie_km2":"33.00","latitude_centre":"46.3870010","longitude_centre":"-1.4000000","distance_km":12.45},{"id":9047,"code_insee":"85103","nom_standard":"Grosbreuil","nom_a":null,"nom_de":null,"slug_ville":"grosbreuil","departement_id":686,"code_postal":"85440","population":2220,"superficie_km2":"37.00","latitude_centre":"46.5390015","longitude_centre":"-1.6070000","distance_km":12.88},{"id":9139,"code_insee":"85277","nom_standard":"Saint-Vincent-sur-Graon","nom_a":null,"nom_de":null,"slug_ville":"saint-vincent-sur-graon","departement_id":686,"code_postal":"85540","population":1570,"superficie_km2":"49.00","latitude_centre":"46.5040016","longitude_centre":"-1.3830000","distance_km":15.21},{"id":9082,"code_insee":"85161","nom_standard":"Nieul-le-Dolent","nom_a":null,"nom_de":null,"slug_ville":"nieul-le-dolent","departement_id":686,"code_postal":"85430","population":2535,"superficie_km2":"28.00","latitude_centre":"46.5680008","longitude_centre":"-1.5160000","distance_km":15.56},{"id":9109,"code_insee":"85214","nom_standard":"Sainte-Foy","nom_a":null,"nom_de":null,"slug_ville":"sainte-foy","departement_id":686,"code_postal":"85150","population":2465,"superficie_km2":"16.00","latitude_centre":"46.5330010","longitude_centre":"-1.6920000","distance_km":15.79},{"id":9045,"code_insee":"85099","nom_standard":"Le Girouard","nom_a":null,"nom_de":null,"slug_ville":"le-girouard","departement_id":686,"code_postal":"85150","population":1124,"superficie_km2":"26.00","latitude_centre":"46.5730019","longitude_centre":"-1.5890000","distance_km":16.18},{"id":9002,"code_insee":"85026","nom_standard":"La Boissière-des-Landes","nom_a":null,"nom_de":null,"slug_ville":"la-boissiere-des-landes","departement_id":686,"code_postal":"85430","population":1449,"superficie_km2":"24.00","latitude_centre":"46.5579987","longitude_centre":"-1.4440000","distance_km":16.38},{"id":9015,"code_insee":"85050","nom_standard":"Le Champ-Saint-Père","nom_a":null,"nom_de":null,"slug_ville":"le-champ-saint-pere","departement_id":686,"code_postal":"85540","population":1947,"superficie_km2":"25.00","latitude_centre":"46.5159988","longitude_centre":"-1.3400000","distance_km":18.71},{"id":9129,"code_insee":"85250","nom_standard":"Saint-Mathurin","nom_a":null,"nom_de":null,"slug_ville":"saint-mathurin","departement_id":686,"code_postal":"85150","population":2390,"superficie_km2":"24.00","latitude_centre":"46.5690002","longitude_centre":"-1.7079999","distance_km":19.63},{"id":9098,"code_insee":"85194","nom_standard":"Les Sables-d'Olonne","nom_a":null,"nom_de":null,"slug_ville":"les-sables-d-olonne","departement_id":686,"code_postal":"85180","population":48402,"superficie_km2":"9.00","latitude_centre":"46.5009995","longitude_centre":"-1.7930000","distance_km":20.22},{"id":8985,"code_insee":"85008","nom_standard":"Aubigny-Les Clouzeaux","nom_a":null,"nom_de":null,"slug_ville":"aubigny-les-clouzeaux","departement_id":686,"code_postal":"85430","population":7069,"superficie_km2":"26.00","latitude_centre":"46.6030006","longitude_centre":"-1.4670000","distance_km":20.26}]}