{"ville":{"id":6597,"code_insee":"63349","nom_standard":"Saint-Georges-de-Mons","nom_a":null,"nom_de":null,"slug_ville":"saint-georges-de-mons","departement_id":664,"code_postal":"63780","population":1959,"superficie_km2":"34.00","latitude_centre":"45.9430008","longitude_centre":"2.8650000","dep_code":"63","dep_nom":"Puy-de-Dôme","dep_slug":"puy-de-dome","reg_code":"01","reg_nom":"Auvergne-Rhône-Alpes","reg_slug":"auvergne-rhone-alpes"},"departement":{"code":"63","nom":"Puy-de-Dôme","slug":"puy-de-dome"},"region":{"code":"01","nom":"Auvergne-Rhône-Alpes","slug":"auvergne-rhone-alpes"},"villes_proches":[{"id":6507,"code_insee":"63004","nom_standard":"Les Ancizes-Comps","nom_a":null,"nom_de":null,"slug_ville":"les-ancizes-comps","departement_id":664,"code_postal":"63770","population":1699,"superficie_km2":"22.00","latitude_centre":"45.9329987","longitude_centre":"2.8050001","distance_km":4.77},{"id":6530,"code_insee":"63085","nom_standard":"Chapdes-Beaufort","nom_a":null,"nom_de":null,"slug_ville":"chapdes-beaufort","departement_id":664,"code_postal":"63230","population":1137,"superficie_km2":"32.00","latitude_centre":"45.8919983","longitude_centre":"2.8550000","distance_km":5.72},{"id":6560,"code_insee":"63206","nom_standard":"Manzat","nom_a":null,"nom_de":null,"slug_ville":"manzat","departement_id":664,"code_postal":"63410","population":1408,"superficie_km2":"39.00","latitude_centre":"45.9449997","longitude_centre":"2.9400001","distance_km":5.8},{"id":6600,"code_insee":"63354","nom_standard":"Saint-Gervais-d'Auvergne","nom_a":null,"nom_de":null,"slug_ville":"saint-gervais-d-auvergne","departement_id":664,"code_postal":"63390","population":1231,"superficie_km2":"48.00","latitude_centre":"46.0190010","longitude_centre":"2.8310001","distance_km":8.85},{"id":6532,"code_insee":"63092","nom_standard":"Charbonnières-les-Varennes","nom_a":null,"nom_de":null,"slug_ville":"charbonnieres-les-varennes","departement_id":664,"code_postal":"63410","population":1874,"superficie_km2":"32.00","latitude_centre":"45.8979988","longitude_centre":"2.9800000","distance_km":10.21},{"id":6556,"code_insee":"63198","nom_standard":"Loubeyrat","nom_a":null,"nom_de":null,"slug_ville":"loubeyrat","departement_id":664,"code_postal":"63410","population":1424,"superficie_km2":"24.00","latitude_centre":"45.9370003","longitude_centre":"3.0070000","distance_km":11},{"id":6602,"code_insee":"63381","nom_standard":"Saint-Ours","nom_a":null,"nom_de":null,"slug_ville":"saint-ours","departement_id":664,"code_postal":"63230","population":1660,"superficie_km2":"56.00","latitude_centre":"45.8390007","longitude_centre":"2.9159999","distance_km":12.22},{"id":6533,"code_insee":"63093","nom_standard":"Charbonnières-les-Vieilles","nom_a":null,"nom_de":null,"slug_ville":"charbonnieres-les-vieilles","departement_id":664,"code_postal":"63410","population":1153,"superficie_km2":"33.00","latitude_centre":"45.9920006","longitude_centre":"3.0079999","distance_km":12.32},{"id":6614,"code_insee":"63470","nom_standard":"Volvic","nom_a":null,"nom_de":null,"slug_ville":"volvic","departement_id":664,"code_postal":"63530","population":4740,"superficie_km2":"28.00","latitude_centre":"45.8680000","longitude_centre":"3.0190001","distance_km":14.54},{"id":6548,"code_insee":"63150","nom_standard":"Enval","nom_a":null,"nom_de":null,"slug_ville":"enval","departement_id":664,"code_postal":"63530","population":1569,"superficie_km2":"5.00","latitude_centre":"45.8969994","longitude_centre":"3.0530000","distance_km":15.42},{"id":6535,"code_insee":"63103","nom_standard":"Châtel-Guyon","nom_a":null,"nom_de":null,"slug_ville":"chatel-guyon","departement_id":664,"code_postal":"63140","population":6294,"superficie_km2":"14.00","latitude_centre":"45.9210014","longitude_centre":"3.0630000","distance_km":15.51},{"id":6538,"code_insee":"63116","nom_standard":"Combronde","nom_a":null,"nom_de":null,"slug_ville":"combronde","departement_id":664,"code_postal":"63460","population":2148,"superficie_km2":"18.00","latitude_centre":"45.9860001","longitude_centre":"3.0810001","distance_km":17.37},{"id":6608,"code_insee":"63417","nom_standard":"Sayat","nom_a":null,"nom_de":null,"slug_ville":"sayat","departement_id":664,"code_postal":"63530","population":2491,"superficie_km2":"8.00","latitude_centre":"45.8390007","longitude_centre":"3.0339999","distance_km":17.46},{"id":6558,"code_insee":"63203","nom_standard":"Malauzat","nom_a":null,"nom_de":null,"slug_ville":"malauzat","departement_id":664,"code_postal":"63200","population":1160,"superficie_km2":"6.00","latitude_centre":"45.8600006","longitude_centre":"3.0610001","distance_km":17.75},{"id":6574,"code_insee":"63245","nom_standard":"Mozac","nom_a":null,"nom_de":null,"slug_ville":"mozac","departement_id":664,"code_postal":"63200","population":3863,"superficie_km2":"4.00","latitude_centre":"45.8919983","longitude_centre":"3.0850000","distance_km":17.94},{"id":6563,"code_insee":"63212","nom_standard":"Marsat","nom_a":null,"nom_de":null,"slug_ville":"marsat","departement_id":664,"code_postal":"63200","population":1479,"superficie_km2":"4.00","latitude_centre":"45.8730011","longitude_centre":"3.0829999","distance_km":18.58},{"id":6515,"code_insee":"63035","nom_standard":"Beauregard-Vendon","nom_a":null,"nom_de":null,"slug_ville":"beauregard-vendon","departement_id":664,"code_postal":"63460","population":1298,"superficie_km2":"7.00","latitude_centre":"45.9659996","longitude_centre":"3.1129999","distance_km":19.34},{"id":6594,"code_insee":"63327","nom_standard":"Saint-Bonnet-près-Riom","nom_a":null,"nom_de":null,"slug_ville":"saint-bonnet-pres-riom","departement_id":664,"code_postal":"63200","population":2072,"superficie_km2":"7.00","latitude_centre":"45.9280014","longitude_centre":"3.1159999","distance_km":19.48},{"id":6577,"code_insee":"63263","nom_standard":"Orcines","nom_a":null,"nom_de":null,"slug_ville":"orcines","departement_id":664,"code_postal":"63870","population":3566,"superficie_km2":"43.00","latitude_centre":"45.7869988","longitude_centre":"2.9970000","distance_km":20.13},{"id":6534,"code_insee":"63099","nom_standard":"Châteaugay","nom_a":null,"nom_de":null,"slug_ville":"chateaugay","departement_id":664,"code_postal":"63119","population":3096,"superficie_km2":"9.00","latitude_centre":"45.8540001","longitude_centre":"3.0929999","distance_km":20.23}]}