{"ville":{"id":8867,"code_insee":"83120","nom_standard":"Saint-Zacharie","nom_a":null,"nom_de":null,"slug_ville":"saint-zacharie","departement_id":684,"code_postal":"83640","population":5931,"superficie_km2":"27.00","latitude_centre":"43.3779984","longitude_centre":"5.7179999","dep_code":"83","dep_nom":"Var","dep_slug":"var","reg_code":"18","reg_nom":"Provence-Alpes-Côte d'Azur","reg_slug":"provence-alpes-cote-d-azur"},"departement":{"code":"83","nom":"Var","slug":"var"},"region":{"code":"18","nom":"Provence-Alpes-Côte d'Azur","slug":"provence-alpes-cote-d-azur"},"villes_proches":[{"id":8844,"code_insee":"83093","nom_standard":"Plan-d'Aups-Sainte-Baume","nom_a":null,"nom_de":null,"slug_ville":"plan-d-aups-sainte-baume","departement_id":684,"code_postal":"83640","population":2333,"superficie_km2":"25.00","latitude_centre":"43.3339996","longitude_centre":"5.7389998","distance_km":5.18},{"id":836,"code_insee":"13007","nom_standard":"Auriol","nom_a":null,"nom_de":null,"slug_ville":"auriol","departement_id":613,"code_postal":"13390","population":12839,"superficie_km2":"45.00","latitude_centre":"43.3610001","longitude_centre":"5.6580000","distance_km":5.21},{"id":8839,"code_insee":"83087","nom_standard":"Nans-les-Pins","nom_a":null,"nom_de":null,"slug_ville":"nans-les-pins","departement_id":684,"code_postal":"83860","population":4968,"superficie_km2":"49.00","latitude_centre":"43.3790016","longitude_centre":"5.7849998","distance_km":5.42},{"id":930,"code_insee":"13110","nom_standard":"Trets","nom_a":null,"nom_de":null,"slug_ville":"trets","departement_id":613,"code_postal":"13530","population":10678,"superficie_km2":"70.00","latitude_centre":"43.4379997","longitude_centre":"5.6999998","distance_km":6.83},{"id":841,"code_insee":"13016","nom_standard":"La Bouilladisse","nom_a":null,"nom_de":null,"slug_ville":"la-bouilladisse","departement_id":613,"code_postal":"13720","population":6341,"superficie_km2":"13.00","latitude_centre":"43.3969994","longitude_centre":"5.6199999","distance_km":8.2},{"id":856,"code_insee":"13031","nom_standard":"La Destrousse","nom_a":null,"nom_de":null,"slug_ville":"la-destrousse","departement_id":613,"code_postal":"13112","population":3913,"superficie_km2":"3.00","latitude_centre":"43.3759995","longitude_centre":"5.5990000","distance_km":9.62},{"id":895,"code_insee":"13072","nom_standard":"Peynier","nom_a":null,"nom_de":null,"slug_ville":"peynier","departement_id":613,"code_postal":"13790","population":3650,"superficie_km2":"25.00","latitude_centre":"43.4399986","longitude_centre":"5.6250000","distance_km":10.2},{"id":909,"code_insee":"13086","nom_standard":"Roquevaire","nom_a":null,"nom_de":null,"slug_ville":"roquevaire","departement_id":613,"code_postal":"13360","population":8673,"superficie_km2":"24.00","latitude_centre":"43.3440018","longitude_centre":"5.5980001","distance_km":10.41},{"id":867,"code_insee":"13042","nom_standard":"Gémenos","nom_a":null,"nom_de":null,"slug_ville":"gemenos","departement_id":613,"code_postal":"13420","population":6794,"superficie_km2":"33.00","latitude_centre":"43.2980003","longitude_centre":"5.6440001","distance_km":10.72},{"id":8858,"code_insee":"83110","nom_standard":"Rougiers","nom_a":null,"nom_de":null,"slug_ville":"rougiers","departement_id":684,"code_postal":"83170","population":1686,"superficie_km2":"21.00","latitude_centre":"43.3820000","longitude_centre":"5.8509998","distance_km":10.76},{"id":855,"code_insee":"13030","nom_standard":"Cuges-les-Pins","nom_a":null,"nom_de":null,"slug_ville":"cuges-les-pins","departement_id":613,"code_postal":"13780","population":5662,"superficie_km2":"40.00","latitude_centre":"43.2809982","longitude_centre":"5.7100000","distance_km":10.81},{"id":8846,"code_insee":"83096","nom_standard":"Pourcieux","nom_a":null,"nom_de":null,"slug_ville":"pourcieux","departement_id":684,"code_postal":"83470","population":1567,"superficie_km2":"21.00","latitude_centre":"43.4650002","longitude_centre":"5.7890000","distance_km":11.25},{"id":838,"code_insee":"13013","nom_standard":"Belcodène","nom_a":null,"nom_de":null,"slug_ville":"belcodene","departement_id":613,"code_postal":"13720","population":1948,"superficie_km2":"13.00","latitude_centre":"43.4220009","longitude_centre":"5.5840001","distance_km":11.88},{"id":896,"code_insee":"13073","nom_standard":"Peypin","nom_a":null,"nom_de":null,"slug_ville":"peypin","departement_id":613,"code_postal":"13124","population":5613,"superficie_km2":"13.00","latitude_centre":"43.3849983","longitude_centre":"5.5710001","distance_km":11.91},{"id":8847,"code_insee":"83097","nom_standard":"Pourrières","nom_a":null,"nom_de":null,"slug_ville":"pourrieres","departement_id":684,"code_postal":"83910","population":5474,"superficie_km2":"57.00","latitude_centre":"43.4939995","longitude_centre":"5.7470002","distance_km":13.11},{"id":910,"code_insee":"13087","nom_standard":"Rousset","nom_a":null,"nom_de":null,"slug_ville":"rousset","departement_id":613,"code_postal":"13790","population":5209,"superficie_km2":"20.00","latitude_centre":"43.4840012","longitude_centre":"5.6240001","distance_km":14.02},{"id":8863,"code_insee":"83116","nom_standard":"Saint-Maximin-la-Sainte-Baume","nom_a":null,"nom_de":null,"slug_ville":"saint-maximin-la-sainte-baume","departement_id":684,"code_postal":"83470","population":17631,"superficie_km2":"65.00","latitude_centre":"43.4510002","longitude_centre":"5.8600001","distance_km":14.05},{"id":871,"code_insee":"13046","nom_standard":"Gréasque","nom_a":null,"nom_de":null,"slug_ville":"greasque","departement_id":613,"code_postal":"13850","population":4392,"superficie_km2":"6.00","latitude_centre":"43.4259987","longitude_centre":"5.5469999","distance_km":14.81},{"id":845,"code_insee":"13020","nom_standard":"Cadolive","nom_a":null,"nom_de":null,"slug_ville":"cadolive","departement_id":613,"code_postal":"13950","population":2202,"superficie_km2":"4.00","latitude_centre":"43.3940010","longitude_centre":"5.5320001","distance_km":15.14},{"id":921,"code_insee":"13101","nom_standard":"Saint-Savournin","nom_a":null,"nom_de":null,"slug_ville":"saint-savournin","departement_id":613,"code_postal":"13119","population":3501,"superficie_km2":"6.00","latitude_centre":"43.4059982","longitude_centre":"5.5310001","distance_km":15.43}]}