{"ville":{"id":34947,"code_insee":"89368","nom_standard":"Saint-Sauveur-en-Puisaye","nom_a":null,"nom_de":null,"slug_ville":"saint-sauveur-en-puisaye","departement_id":0,"code_postal":"89520","population":905,"superficie_km2":"3071.00","latitude_centre":"47.6358","longitude_centre":"3.196","dep_code":"89","dep_nom":"Yonne","dep_slug":"yonne","reg_code":"27","reg_nom":"Bourgogne-Franche-Comté","reg_slug":"bourgogne-franche-comte"},"departement":{"code":"89","nom":"Yonne","slug":"yonne"},"region":{"code":"27","nom":"Bourgogne-Franche-Comté","slug":"bourgogne-franche-comte"},"villes_proches":[{"id":34879,"code_insee":"89273","nom_standard":"Moutiers-en-Puisaye","nom_a":null,"nom_de":null,"slug_ville":"moutiers-en-puisaye","departement_id":0,"code_postal":"89520","population":268,"superficie_km2":"3178.07","latitude_centre":"47.6113","longitude_centre":"3.1726","distance_km":3.24},{"id":34946,"code_insee":"89367","nom_standard":"Saints-en-Puisaye","nom_a":null,"nom_de":null,"slug_ville":"saints-en-puisaye","departement_id":0,"code_postal":"89520","population":548,"superficie_km2":"2768.10","latitude_centre":"47.6241","longitude_centre":"3.2732","distance_km":5.93},{"id":34919,"code_insee":"89325","nom_standard":"Ronchères","nom_a":null,"nom_de":null,"slug_ville":"roncheres","departement_id":0,"code_postal":"89170","population":86,"superficie_km2":"1133.72","latitude_centre":"47.6592","longitude_centre":"3.122","distance_km":6.12},{"id":34866,"code_insee":"89254","nom_standard":"Mézilles","nom_a":null,"nom_de":null,"slug_ville":"mezilles","departement_id":0,"code_postal":"89130","population":520,"superficie_km2":"5253.11","latitude_centre":"47.696","longitude_centre":"3.1736","distance_km":6.9},{"id":34809,"code_insee":"89179","nom_standard":"Fontenoy","nom_a":null,"nom_de":null,"slug_ville":"fontenoy","departement_id":0,"code_postal":"89520","population":305,"superficie_km2":"1589.44","latitude_centre":"47.6498","longitude_centre":"3.2941","distance_km":7.51},{"id":34805,"code_insee":"89173","nom_standard":"Fontaines","nom_a":null,"nom_de":null,"slug_ville":"fontaines","departement_id":0,"code_postal":"89130","population":459,"superficie_km2":"2540.06","latitude_centre":"47.6909","longitude_centre":"3.2665","distance_km":8.09},{"id":0,"code_insee":"89420","nom_standard":"Treigny-Perreuse-Sainte-Colombe","nom_a":null,"nom_de":null,"slug_ville":"treigny-perreuse-sainte-colombe","departement_id":0,"code_postal":"89520","population":1083,"superficie_km2":"6773.04","latitude_centre":"47.5591","longitude_centre":"3.1888","distance_km":8.55},{"id":0,"code_insee":"89344","nom_standard":"Saint-Fargeau","nom_a":null,"nom_de":null,"slug_ville":"saint-fargeau","departement_id":0,"code_postal":"89170","population":1439,"superficie_km2":"6908.48","latitude_centre":"47.6481","longitude_centre":"3.0814","distance_km":8.69},{"id":0,"code_insee":"89416","nom_standard":"Thury","nom_a":null,"nom_de":null,"slug_ville":"thury","departement_id":0,"code_postal":"89520","population":418,"superficie_km2":"2329.69","latitude_centre":"47.5895","longitude_centre":"3.3029","distance_km":9.52},{"id":34837,"code_insee":"89217","nom_standard":"Lalande","nom_a":null,"nom_de":null,"slug_ville":"lalande","departement_id":0,"code_postal":"89130","population":123,"superficie_km2":"1026.82","latitude_centre":"47.6807","longitude_centre":"3.3088","distance_km":9.81},{"id":34841,"code_insee":"89222","nom_standard":"Levis","nom_a":null,"nom_de":null,"slug_ville":"levis","departement_id":0,"code_postal":"89520","population":223,"superficie_km2":"1210.33","latitude_centre":"47.6577","longitude_centre":"3.3307","distance_km":10.38},{"id":34836,"code_insee":"89216","nom_standard":"Lainsecq","nom_a":null,"nom_de":null,"slug_ville":"lainsecq","departement_id":0,"code_postal":"89520","population":328,"superficie_km2":"2516.53","latitude_centre":"47.5462","longitude_centre":"3.28","distance_km":11.79},{"id":0,"code_insee":"89408","nom_standard":"Tannerre-en-Puisaye","nom_a":null,"nom_de":null,"slug_ville":"tannerre-en-puisaye","departement_id":0,"code_postal":"89350","population":269,"superficie_km2":"2912.45","latitude_centre":"47.7394","longitude_centre":"3.1468","distance_km":12.09},{"id":34783,"code_insee":"89147","nom_standard":"Dracy","nom_a":null,"nom_de":null,"slug_ville":"dracy","departement_id":0,"code_postal":"89130","population":236,"superficie_km2":"2215.46","latitude_centre":"47.7476","longitude_centre":"3.2331","distance_km":12.74},{"id":0,"code_insee":"89419","nom_standard":"Toucy","nom_a":null,"nom_de":null,"slug_ville":"toucy","departement_id":0,"code_postal":"89130","population":2571,"superficie_km2":"3523.42","latitude_centre":"47.7328","longitude_centre":"3.2882","distance_km":12.81},{"id":0,"code_insee":"58227","nom_standard":"Saint-Amand-en-Puisaye","nom_a":null,"nom_de":null,"slug_ville":"saint-amand-en-puisaye","departement_id":0,"code_postal":"58310","population":1216,"superficie_km2":"4170.21","latitude_centre":"47.5479","longitude_centre":"3.0774","distance_km":13.21},{"id":34923,"code_insee":"89331","nom_standard":"Sainpuits","nom_a":null,"nom_de":null,"slug_ville":"sainpuits","departement_id":0,"code_postal":"89520","population":280,"superficie_km2":"2295.17","latitude_centre":"47.5123","longitude_centre":"3.2507","distance_km":14.33},{"id":26081,"code_insee":"58094","nom_standard":"Dampierre-sous-Bouhy","nom_a":null,"nom_de":null,"slug_ville":"dampierre-sous-bouhy","departement_id":0,"code_postal":"58310","population":461,"superficie_km2":"2717.00","latitude_centre":"47.5061","longitude_centre":"3.1323","distance_km":15.19},{"id":26034,"code_insee":"58036","nom_standard":"Bouhy","nom_a":null,"nom_de":null,"slug_ville":"bouhy","departement_id":0,"code_postal":"58310","population":410,"superficie_km2":"3669.07","latitude_centre":"47.4897","longitude_centre":"3.1831","distance_km":16.27},{"id":0,"code_insee":"89472","nom_standard":"Villiers-Saint-Benoît","nom_a":null,"nom_de":null,"slug_ville":"villiers-saint-benoit","departement_id":0,"code_postal":"89130","population":427,"superficie_km2":"3425.70","latitude_centre":"47.7815","longitude_centre":"3.2218","distance_km":16.32}]}