{"ville":{"id":13808,"code_insee":"14639","nom_standard":"Saint-Ouen-le-Pin","nom_a":null,"nom_de":null,"slug_ville":"saint-ouen-le-pin","departement_id":0,"code_postal":"14340","population":250,"superficie_km2":"563.32","latitude_centre":"49.1501","longitude_centre":"0.1036","dep_code":"14","dep_nom":"Calvados","dep_slug":"calvados","reg_code":"28","reg_nom":"Normandie","reg_slug":"normandie"},"departement":{"code":"14","nom":"Calvados","slug":"calvados"},"region":{"code":"28","nom":"Normandie","slug":"normandie"},"villes_proches":[{"id":13753,"code_insee":"14520","nom_standard":"Le Pré-d'Auge","nom_a":null,"nom_de":null,"slug_ville":"le-pre-d-auge","departement_id":0,"code_postal":"14340","population":841,"superficie_km2":"1076.68","latitude_centre":"49.1523","longitude_centre":"0.138","distance_km":2.51},{"id":13660,"code_insee":"14337","nom_standard":"La Houblonnière","nom_a":null,"nom_de":null,"slug_ville":"la-houblonniere","departement_id":0,"code_postal":"14340","population":324,"superficie_km2":"719.73","latitude_centre":"49.1247","longitude_centre":"0.0947","distance_km":2.9},{"id":13525,"code_insee":"14082","nom_standard":"La Boissière","nom_a":null,"nom_de":null,"slug_ville":"la-boissiere","departement_id":0,"code_postal":"14340","population":187,"superficie_km2":"204.39","latitude_centre":"49.1302","longitude_centre":"0.1331","distance_km":3.08},{"id":13764,"code_insee":"14541","nom_standard":"La Roque-Baignard","nom_a":null,"nom_de":null,"slug_ville":"la-roque-baignard","departement_id":0,"code_postal":"14340","population":104,"superficie_km2":"469.66","latitude_centre":"49.178","longitude_centre":"0.0916","distance_km":3.22},{"id":13713,"code_insee":"14448","nom_standard":"Montreuil-en-Auge","nom_a":null,"nom_de":null,"slug_ville":"montreuil-en-auge","departement_id":0,"code_postal":"14340","population":65,"superficie_km2":"341.36","latitude_centre":"49.1687","longitude_centre":"0.0672","distance_km":3.36},{"id":0,"code_insee":"14126","nom_standard":"Cambremer","nom_a":null,"nom_de":null,"slug_ville":"cambremer","departement_id":0,"code_postal":"14340","population":1294,"superficie_km2":"2762.47","latitude_centre":"49.1491","longitude_centre":"0.0543","distance_km":3.59},{"id":13690,"code_insee":"14398","nom_standard":"Manerbe","nom_a":null,"nom_de":null,"slug_ville":"manerbe","departement_id":0,"code_postal":"14340","population":544,"superficie_km2":"1840.78","latitude_centre":"49.1792","longitude_centre":"0.1406","distance_km":4.21},{"id":13707,"code_insee":"14435","nom_standard":"Les Monceaux","nom_a":null,"nom_de":null,"slug_ville":"les-monceaux","departement_id":0,"code_postal":"14100","population":198,"superficie_km2":"379.46","latitude_centre":"49.1087","longitude_centre":"0.1301","distance_km":4.99},{"id":13669,"code_insee":"14358","nom_standard":"Léaupartie","nom_a":null,"nom_de":null,"slug_ville":"leaupartie","departement_id":0,"code_postal":"14340","population":86,"superficie_km2":"323.21","latitude_centre":"49.18","longitude_centre":"0.0499","distance_km":5.13},{"id":13631,"code_insee":"14285","nom_standard":"Le Fournet","nom_a":null,"nom_de":null,"slug_ville":"le-fournet","departement_id":0,"code_postal":"14340","population":77,"superficie_km2":"304.98","latitude_centre":"49.1996","longitude_centre":"0.1107","distance_km":5.53},{"id":13726,"code_insee":"14473","nom_standard":"Notre-Dame-de-Livaye","nom_a":null,"nom_de":null,"slug_ville":"notre-dame-de-livaye","departement_id":0,"code_postal":"14340","population":105,"superficie_km2":"273.67","latitude_centre":"49.1185","longitude_centre":"0.0442","distance_km":5.57},{"id":13502,"code_insee":"14033","nom_standard":"Auvillars","nom_a":null,"nom_de":null,"slug_ville":"auvillars","departement_id":0,"code_postal":"14340","population":238,"superficie_km2":"1177.58","latitude_centre":"49.2014","longitude_centre":"0.0844","distance_km":5.87},{"id":0,"code_insee":"14648","nom_standard":"Saint-Pierre-des-Ifs","nom_a":null,"nom_de":null,"slug_ville":"saint-pierre-des-ifs","departement_id":0,"code_postal":"14100","population":453,"superficie_km2":"1127.55","latitude_centre":"49.1144","longitude_centre":"0.168","distance_km":6.14},{"id":0,"code_insee":"14574","nom_standard":"Saint-Désir","nom_a":null,"nom_de":null,"slug_ville":"saint-desir","departement_id":0,"code_postal":"14100","population":1756,"superficie_km2":"1952.11","latitude_centre":"49.1467","longitude_centre":"0.192","distance_km":6.44},{"id":13626,"code_insee":"14280","nom_standard":"Formentin","nom_a":null,"nom_de":null,"slug_ville":"formentin","departement_id":0,"code_postal":"14340","population":269,"superficie_km2":"597.63","latitude_centre":"49.2042","longitude_centre":"0.1381","distance_km":6.52},{"id":13703,"code_insee":"14425","nom_standard":"Le Mesnil-Simon","nom_a":null,"nom_de":null,"slug_ville":"le-mesnil-simon","departement_id":0,"code_postal":"14140","population":158,"superficie_km2":"953.89","latitude_centre":"49.0896","longitude_centre":"0.1117","distance_km":6.75},{"id":13760,"code_insee":"14533","nom_standard":"Repentigny","nom_a":null,"nom_de":null,"slug_ville":"repentigny","departement_id":0,"code_postal":"14340","population":102,"superficie_km2":"213.28","latitude_centre":"49.1982","longitude_centre":"0.0416","distance_km":6.99},{"id":13526,"code_insee":"14083","nom_standard":"Bonnebosq","nom_a":null,"nom_de":null,"slug_ville":"bonnebosq","departement_id":0,"code_postal":"14340","population":649,"superficie_km2":"1234.56","latitude_centre":"49.2173","longitude_centre":"0.0944","distance_km":7.5},{"id":13671,"code_insee":"14362","nom_standard":"Lessard-et-le-Chêne","nom_a":null,"nom_de":null,"slug_ville":"lessard-et-le-chene","departement_id":0,"code_postal":"14140","population":152,"superficie_km2":"1018.32","latitude_centre":"49.0701","longitude_centre":"0.1293","distance_km":9.09},{"id":0,"code_insee":"14723","nom_standard":"Valsemé","nom_a":null,"nom_de":null,"slug_ville":"valseme","departement_id":0,"code_postal":"14340","population":261,"superficie_km2":"571.76","latitude_centre":"49.2375","longitude_centre":"0.0967","distance_km":9.73}]}