{"ville":{"id":21768,"code_insee":"42255","nom_standard":"Saint-Marcel-d'Urfé","nom_a":null,"nom_de":null,"slug_ville":"saint-marcel-d-urfe","departement_id":0,"code_postal":"42430","population":268,"superficie_km2":"1403.59","latitude_centre":"45.8713","longitude_centre":"3.8813","dep_code":"42","dep_nom":"Loire","dep_slug":"loire","reg_code":"84","reg_nom":"Auvergne-Rhône-Alpes","reg_slug":"auvergne-rhone-alpes"},"departement":{"code":"42","nom":"Loire","slug":"loire"},"region":{"code":"84","nom":"Auvergne-Rhône-Alpes","slug":"auvergne-rhone-alpes"},"villes_proches":[{"id":21697,"code_insee":"42116","nom_standard":"Juré","nom_a":null,"nom_de":null,"slug_ville":"jure","departement_id":0,"code_postal":"42430","population":242,"superficie_km2":"1214.43","latitude_centre":"45.8912","longitude_centre":"3.8988","distance_km":2.59},{"id":21658,"code_insee":"42047","nom_standard":"Champoly","nom_a":null,"nom_de":null,"slug_ville":"champoly","departement_id":0,"code_postal":"42430","population":311,"superficie_km2":"1505.51","latitude_centre":"45.8536","longitude_centre":"3.8433","distance_km":3.54},{"id":21703,"code_insee":"42125","nom_standard":"Luré","nom_a":null,"nom_de":null,"slug_ville":"lure","departement_id":0,"code_postal":"42260","population":136,"superficie_km2":"622.83","latitude_centre":"45.8846","longitude_centre":"3.9314","distance_km":4.15},{"id":0,"code_insee":"42260","nom_standard":"Saint-Martin-la-Sauveté","nom_a":null,"nom_de":null,"slug_ville":"saint-martin-la-sauvete","departement_id":0,"code_postal":"42260","population":889,"superficie_km2":"2971.93","latitude_centre":"45.8352","longitude_centre":"3.918","distance_km":4.92},{"id":21693,"code_insee":"42106","nom_standard":"Grézolles","nom_a":null,"nom_de":null,"slug_ville":"grezolles","departement_id":0,"code_postal":"42260","population":235,"superficie_km2":"558.96","latitude_centre":"45.8632","longitude_centre":"3.9477","distance_km":5.22},{"id":0,"code_insee":"42282","nom_standard":"Saint-Romain-d'Urfé","nom_a":null,"nom_de":null,"slug_ville":"saint-romain-d-urfe","departement_id":0,"code_postal":"42430","population":243,"superficie_km2":"1517.18","latitude_centre":"45.8859","longitude_centre":"3.8157","distance_km":5.33},{"id":21674,"code_insee":"42076","nom_standard":"Cremeaux","nom_a":null,"nom_de":null,"slug_ville":"cremeaux","departement_id":0,"code_postal":"42260","population":914,"superficie_km2":"3336.69","latitude_centre":"45.9144","longitude_centre":"3.9234","distance_km":5.8},{"id":21764,"code_insee":"42245","nom_standard":"Vêtre-sur-Anzon","nom_a":null,"nom_de":null,"slug_ville":"vetre-sur-anzon","departement_id":0,"code_postal":"42111","population":564,"superficie_km2":"2036.70","latitude_centre":"45.8187","longitude_centre":"3.8448","distance_km":6.5},{"id":0,"code_insee":"42248","nom_standard":"Saint-Just-en-Chevalet","nom_a":null,"nom_de":null,"slug_ville":"saint-just-en-chevalet","departement_id":0,"code_postal":"42430","population":1169,"superficie_km2":"2920.05","latitude_centre":"45.9255","longitude_centre":"3.834","distance_km":7.05},{"id":0,"code_insee":"42303","nom_standard":"Souternon","nom_a":null,"nom_de":null,"slug_ville":"souternon","departement_id":0,"code_postal":"42260","population":293,"superficie_km2":"1712.52","latitude_centre":"45.8831","longitude_centre":"3.9887","distance_km":8.42},{"id":0,"code_insee":"42295","nom_standard":"Les Salles","nom_a":null,"nom_de":null,"slug_ville":"les-salles","departement_id":0,"code_postal":"42440","population":558,"superficie_km2":"2559.17","latitude_centre":"45.853","longitude_centre":"3.774","distance_km":8.55},{"id":0,"code_insee":"42274","nom_standard":"Saint-Polgues","nom_a":null,"nom_de":null,"slug_ville":"saint-polgues","departement_id":0,"code_postal":"42260","population":277,"superficie_km2":"582.43","latitude_centre":"45.9082","longitude_centre":"3.9804","distance_km":8.7},{"id":21763,"code_insee":"42243","nom_standard":"Saint-Julien-d'Oddes","nom_a":null,"nom_de":null,"slug_ville":"saint-julien-d-oddes","departement_id":0,"code_postal":"42260","population":300,"superficie_km2":"1032.80","latitude_centre":"45.851","longitude_centre":"3.9922","distance_km":8.88},{"id":21633,"code_insee":"42002","nom_standard":"Ailleux","nom_a":null,"nom_de":null,"slug_ville":"ailleux","departement_id":0,"code_postal":"42130","population":175,"superficie_km2":"932.59","latitude_centre":"45.7981","longitude_centre":"3.9363","distance_km":9.19},{"id":0,"code_insee":"42278","nom_standard":"Saint-Priest-la-Vêtre","nom_a":null,"nom_de":null,"slug_ville":"saint-priest-la-vetre","departement_id":0,"code_postal":"42440","population":141,"superficie_km2":"521.25","latitude_centre":"45.8008","longitude_centre":"3.8086","distance_km":9.65},{"id":21750,"code_insee":"42217","nom_standard":"La Côte-Saint-Didier","nom_a":null,"nom_de":null,"slug_ville":"la-cote-saint-didier","departement_id":0,"code_postal":"42111","population":520,"superficie_km2":"3184.27","latitude_centre":"45.7873","longitude_centre":"3.8481","distance_km":9.69},{"id":21650,"code_insee":"42035","nom_standard":"Cezay","nom_a":null,"nom_de":null,"slug_ville":"cezay","departement_id":0,"code_postal":"42130","population":211,"superficie_km2":"1050.53","latitude_centre":"45.8048","longitude_centre":"3.9667","distance_km":9.92},{"id":21666,"code_insee":"42061","nom_standard":"Cherier","nom_a":null,"nom_de":null,"slug_ville":"cherier","departement_id":0,"code_postal":"42430","population":523,"superficie_km2":"2879.48","latitude_centre":"45.9686","longitude_centre":"3.8858","distance_km":10.82},{"id":21679,"code_insee":"42084","nom_standard":"Solore-en-Forez","nom_a":null,"nom_de":null,"slug_ville":"solore-en-forez","departement_id":0,"code_postal":"42130","population":507,"superficie_km2":"2023.03","latitude_centre":"45.7775","longitude_centre":"3.9186","distance_km":10.82},{"id":0,"code_insee":"42314","nom_standard":"La Tuilière","nom_a":null,"nom_de":null,"slug_ville":"la-tuiliere","departement_id":0,"code_postal":"42830","population":273,"superficie_km2":"3161.68","latitude_centre":"45.9589","longitude_centre":"3.8129","distance_km":11.09}]}