{"ville":{"id":17681,"code_insee":"27524","nom_standard":"Sainte-Colombe-la-Commanderie","nom_a":null,"nom_de":null,"slug_ville":"sainte-colombe-la-commanderie","departement_id":0,"code_postal":"27110","population":841,"superficie_km2":"1083.62","latitude_centre":"49.1102","longitude_centre":"0.9335","dep_code":"27","dep_nom":"Eure","dep_slug":"eure","reg_code":"28","reg_nom":"Normandie","reg_slug":"normandie"},"departement":{"code":"27","nom":"Eure","slug":"eure"},"region":{"code":"28","nom":"Normandie","slug":"normandie"},"villes_proches":[{"id":0,"code_insee":"27658","nom_standard":"Le Tremblay-Omonville","nom_a":null,"nom_de":null,"slug_ville":"le-tremblay-omonville","departement_id":0,"code_postal":"27110","population":391,"superficie_km2":"539.73","latitude_centre":"49.1195","longitude_centre":"0.9162","distance_km":1.63},{"id":17531,"code_insee":"27298","nom_standard":"Graveron-Sémerville","nom_a":null,"nom_de":null,"slug_ville":"graveron-semerville","departement_id":0,"code_postal":"27110","population":322,"superficie_km2":"805.86","latitude_centre":"49.0975","longitude_centre":"0.9692","distance_km":2.96},{"id":0,"code_insee":"27641","nom_standard":"Le Tilleul-Lambert","nom_a":null,"nom_de":null,"slug_ville":"le-tilleul-lambert","departement_id":0,"code_postal":"27110","population":267,"superficie_km2":"580.74","latitude_centre":"49.0794","longitude_centre":"0.9317","distance_km":3.43},{"id":17452,"code_insee":"27164","nom_standard":"Combon","nom_a":null,"nom_de":null,"slug_ville":"combon","departement_id":0,"code_postal":"27170","population":823,"superficie_km2":"1621.03","latitude_centre":"49.0913","longitude_centre":"0.8832","distance_km":4.22},{"id":17467,"code_insee":"27192","nom_standard":"Crosville-la-Vieille","nom_a":null,"nom_de":null,"slug_ville":"crosville-la-vieille","departement_id":0,"code_postal":"27110","population":613,"superficie_km2":"779.02","latitude_centre":"49.1484","longitude_centre":"0.93","distance_km":4.26},{"id":17489,"code_insee":"27224","nom_standard":"Épreville-près-le-Neubourg","nom_a":null,"nom_de":null,"slug_ville":"epreville-pres-le-neubourg","departement_id":0,"code_postal":"27110","population":438,"superficie_km2":"774.24","latitude_centre":"49.1313","longitude_centre":"0.8761","distance_km":4.79},{"id":17481,"code_insee":"27212","nom_standard":"Écauville","nom_a":null,"nom_de":null,"slug_ville":"ecauville","departement_id":0,"code_postal":"27110","population":116,"superficie_km2":"332.41","latitude_centre":"49.1286","longitude_centre":"0.9949","distance_km":4.91},{"id":17662,"code_insee":"27486","nom_standard":"Quittebeuf","nom_a":null,"nom_de":null,"slug_ville":"quittebeuf","departement_id":0,"code_postal":"27110","population":656,"superficie_km2":"1352.00","latitude_centre":"49.1062","longitude_centre":"1.0027","distance_km":5.06},{"id":17592,"code_insee":"27389","nom_standard":"Marbeuf","nom_a":null,"nom_de":null,"slug_ville":"marbeuf","departement_id":0,"code_postal":"27110","population":491,"superficie_km2":"852.40","latitude_centre":"49.1538","longitude_centre":"0.9623","distance_km":5.28},{"id":0,"code_insee":"27428","nom_standard":"Le Neubourg","nom_a":null,"nom_de":null,"slug_ville":"le-neubourg","departement_id":0,"code_postal":"27110","population":4199,"superficie_km2":"988.99","latitude_centre":"49.149","longitude_centre":"0.8903","distance_km":5.34},{"id":17674,"code_insee":"27511","nom_standard":"Saint-Aubin-d'Écrosville","nom_a":null,"nom_de":null,"slug_ville":"saint-aubin-d-ecrosville","departement_id":0,"code_postal":"27110","population":759,"superficie_km2":"1471.21","latitude_centre":"49.1443","longitude_centre":"0.9853","distance_km":5.35},{"id":17485,"code_insee":"27217","nom_standard":"Émanville","nom_a":null,"nom_de":null,"slug_ville":"emanville","departement_id":0,"code_postal":"27190","population":538,"superficie_km2":"1080.31","latitude_centre":"49.064","longitude_centre":"0.9086","distance_km":5.45},{"id":0,"code_insee":"27650","nom_standard":"Tournedos-Bois-Hubert","nom_a":null,"nom_de":null,"slug_ville":"tournedos-bois-hubert","departement_id":0,"code_postal":"27180","population":451,"superficie_km2":"804.50","latitude_centre":"49.0719","longitude_centre":"0.9873","distance_km":5.79},{"id":17635,"code_insee":"27446","nom_standard":"Ormes","nom_a":null,"nom_de":null,"slug_ville":"ormes","departement_id":0,"code_postal":"27190","population":451,"superficie_km2":"1413.71","latitude_centre":"49.057","longitude_centre":"0.9558","distance_km":6.13},{"id":0,"code_insee":"27695","nom_standard":"Villez-sur-le-Neubourg","nom_a":null,"nom_de":null,"slug_ville":"villez-sur-le-neubourg","departement_id":0,"code_postal":"27110","population":225,"superficie_km2":"480.13","latitude_centre":"49.149","longitude_centre":"0.8604","distance_km":6.85},{"id":17568,"code_insee":"27354","nom_standard":"Iville","nom_a":null,"nom_de":null,"slug_ville":"iville","departement_id":0,"code_postal":"27110","population":426,"superficie_km2":"871.23","latitude_centre":"49.1754","longitude_centre":"0.9268","distance_km":7.27},{"id":0,"code_insee":"27698","nom_standard":"Vitot","nom_a":null,"nom_de":null,"slug_ville":"vitot","departement_id":0,"code_postal":"27110","population":557,"superficie_km2":"469.76","latitude_centre":"49.1688","longitude_centre":"0.8862","distance_km":7.37},{"id":17431,"code_insee":"27135","nom_standard":"Cesseville","nom_a":null,"nom_de":null,"slug_ville":"cesseville","departement_id":0,"code_postal":"27110","population":440,"superficie_km2":"656.19","latitude_centre":"49.1822","longitude_centre":"0.9766","distance_km":8.6},{"id":17549,"code_insee":"27327","nom_standard":"Hectomare","nom_a":null,"nom_de":null,"slug_ville":"hectomare","departement_id":0,"code_postal":"27110","population":220,"superficie_km2":"200.05","latitude_centre":"49.1922","longitude_centre":"0.9457","distance_km":9.16},{"id":17651,"code_insee":"27472","nom_standard":"Portes","nom_a":null,"nom_de":null,"slug_ville":"portes","departement_id":0,"code_postal":"27190","population":261,"superficie_km2":"942.69","latitude_centre":"49.0254","longitude_centre":"0.9486","distance_km":9.49}]}