{"ville":{"id":32502,"code_insee":"78558","nom_standard":"Saint-Illiers-la-Ville","nom_a":null,"nom_de":null,"slug_ville":"saint-illiers-la-ville","departement_id":0,"code_postal":"78980","population":350,"superficie_km2":"662.16","latitude_centre":"48.9777","longitude_centre":"1.5437","dep_code":"78","dep_nom":"Yvelines","dep_slug":"yvelines","reg_code":"11","reg_nom":"Île-de-France","reg_slug":"ile-de-france"},"departement":{"code":"78","nom":"Yvelines","slug":"yvelines"},"region":{"code":"11","nom":"Île-de-France","slug":"ile-de-france"},"villes_proches":[{"id":0,"code_insee":"78107","nom_standard":"Bréval","nom_a":null,"nom_de":null,"slug_ville":"breval","departement_id":0,"code_postal":"78980","population":2151,"superficie_km2":"1151.46","latitude_centre":"48.9567","longitude_centre":"1.5402","distance_km":2.35},{"id":0,"code_insee":"78559","nom_standard":"Saint-Illiers-le-Bois","nom_a":null,"nom_de":null,"slug_ville":"saint-illiers-le-bois","departement_id":0,"code_postal":"78980","population":449,"superficie_km2":"442.22","latitude_centre":"48.9647","longitude_centre":"1.5102","distance_km":2.84},{"id":32465,"code_insee":"78344","nom_standard":"Lommoye","nom_a":null,"nom_de":null,"slug_ville":"lommoye","departement_id":0,"code_postal":"78270","population":639,"superficie_km2":"951.48","latitude_centre":"48.9985","longitude_centre":"1.5181","distance_km":2.97},{"id":32422,"code_insee":"78082","nom_standard":"Boissy-Mauvoisin","nom_a":null,"nom_de":null,"slug_ville":"boissy-mauvoisin","departement_id":0,"code_postal":"78200","population":615,"superficie_km2":"516.48","latitude_centre":"48.965","longitude_centre":"1.5831","distance_km":3.2},{"id":0,"code_insee":"78668","nom_standard":"La Villeneuve-en-Chevrie","nom_a":null,"nom_de":null,"slug_ville":"la-villeneuve-en-chevrie","departement_id":0,"code_postal":"78270","population":665,"superficie_km2":"1184.45","latitude_centre":"49.0129","longitude_centre":"1.5285","distance_km":4.07},{"id":32469,"code_insee":"78385","nom_standard":"Ménerville","nom_a":null,"nom_de":null,"slug_ville":"menerville","departement_id":0,"code_postal":"78200","population":216,"superficie_km2":"349.47","latitude_centre":"48.9568","longitude_centre":"1.5971","distance_km":4.54},{"id":32433,"code_insee":"78188","nom_standard":"Cravent","nom_a":null,"nom_de":null,"slug_ville":"cravent","departement_id":0,"code_postal":"78270","population":438,"superficie_km2":"610.27","latitude_centre":"48.9901","longitude_centre":"1.4844","distance_km":4.54},{"id":32483,"code_insee":"78444","nom_standard":"Neauphlette","nom_a":null,"nom_de":null,"slug_ville":"neauphlette","departement_id":0,"code_postal":"78980","population":871,"superficie_km2":"974.77","latitude_centre":"48.9358","longitude_centre":"1.5446","distance_km":4.66},{"id":32490,"code_insee":"78484","nom_standard":"Perdreauville","nom_a":null,"nom_de":null,"slug_ville":"perdreauville","departement_id":0,"code_postal":"78200","population":701,"superficie_km2":"1119.65","latitude_centre":"48.9666","longitude_centre":"1.6056","distance_km":4.68},{"id":0,"code_insee":"78089","nom_standard":"Bonnières-sur-Seine","nom_a":null,"nom_de":null,"slug_ville":"bonnieres-sur-seine","departement_id":0,"code_postal":"78270","population":5064,"superficie_km2":"785.68","latitude_centre":"49.0168","longitude_centre":"1.5685","distance_km":4.71},{"id":17800,"code_insee":"27696","nom_standard":"Villiers-en-Désœuvre","nom_a":null,"nom_de":null,"slug_ville":"villiers-en-desoeuvre","departement_id":0,"code_postal":"27640","population":853,"superficie_km2":"1466.48","latitude_centre":"48.96","longitude_centre":"1.4807","distance_km":5.0},{"id":0,"code_insee":"78531","nom_standard":"Rosny-sur-Seine","nom_a":null,"nom_de":null,"slug_ville":"rosny-sur-seine","departement_id":0,"code_postal":"78710","population":7328,"superficie_km2":"1923.60","latitude_centre":"48.9978","longitude_centre":"1.6054","distance_km":5.03},{"id":32428,"code_insee":"78147","nom_standard":"Chaufour-lès-Bonnières","nom_a":null,"nom_de":null,"slug_ville":"chaufour-les-bonnieres","departement_id":0,"code_postal":"78270","population":442,"superficie_km2":"305.08","latitude_centre":"49.0161","longitude_centre":"1.4842","distance_km":6.09},{"id":0,"code_insee":"78608","nom_standard":"Le Tertre-Saint-Denis","nom_a":null,"nom_de":null,"slug_ville":"le-tertre-saint-denis","departement_id":0,"code_postal":"78980","population":137,"superficie_km2":"290.52","latitude_centre":"48.9427","longitude_centre":"1.609","distance_km":6.15},{"id":32497,"code_insee":"78528","nom_standard":"Rolleboise","nom_a":null,"nom_de":null,"slug_ville":"rolleboise","departement_id":0,"code_postal":"78270","population":346,"superficie_km2":"303.80","latitude_centre":"49.0195","longitude_centre":"1.6006","distance_km":6.23},{"id":0,"code_insee":"78346","nom_standard":"Longnes","nom_a":null,"nom_de":null,"slug_ville":"longnes","departement_id":0,"code_postal":"78980","population":1601,"superficie_km2":"1398.14","latitude_centre":"48.9201","longitude_centre":"1.5753","distance_km":6.81},{"id":17917,"code_insee":"28180","nom_standard":"Gilles","nom_a":null,"nom_de":null,"slug_ville":"gilles","departement_id":0,"code_postal":"28260","population":498,"superficie_km2":"727.46","latitude_centre":"48.9088","longitude_centre":"1.5175","distance_km":7.9},{"id":0,"code_insee":"78057","nom_standard":"Bennecourt","nom_a":null,"nom_de":null,"slug_ville":"bennecourt","departement_id":0,"code_postal":"78270","population":1747,"superficie_km2":"691.89","latitude_centre":"49.0484","longitude_centre":"1.5654","distance_km":8.02},{"id":32476,"code_insee":"78413","nom_standard":"Mondreville","nom_a":null,"nom_de":null,"slug_ville":"mondreville","departement_id":0,"code_postal":"78980","population":381,"superficie_km2":"447.85","latitude_centre":"48.9034","longitude_centre":"1.5568","distance_km":8.32},{"id":32461,"code_insee":"78320","nom_standard":"Notre-Dame-de-la-Mer","nom_a":null,"nom_de":null,"slug_ville":"notre-dame-de-la-mer","departement_id":0,"code_postal":"78270","population":742,"superficie_km2":"899.78","latitude_centre":"49.0552","longitude_centre":"1.5292","distance_km":8.68}]}