{"ville":{"id":34081,"code_insee":"86242","nom_standard":"Saint-Romain","nom_a":null,"nom_de":null,"slug_ville":"saint-romain","departement_id":0,"code_postal":"86250","population":386,"superficie_km2":"2061.33","latitude_centre":"46.2255","longitude_centre":"0.3834","dep_code":"86","dep_nom":"Vienne","dep_slug":"vienne","reg_code":"75","reg_nom":"Nouvelle-Aquitaine","reg_slug":"nouvelle-aquitaine"},"departement":{"code":"86","nom":"Vienne","slug":"vienne"},"region":{"code":"75","nom":"Nouvelle-Aquitaine","slug":"nouvelle-aquitaine"},"villes_proches":[{"id":33973,"code_insee":"86055","nom_standard":"La Chapelle-Bâton","nom_a":null,"nom_de":null,"slug_ville":"la-chapelle-baton","departement_id":0,"code_postal":"86250","population":354,"superficie_km2":"2997.39","latitude_centre":"46.1905","longitude_centre":"0.4071","distance_km":4.3},{"id":33972,"code_insee":"86054","nom_standard":"Champniers","nom_a":null,"nom_de":null,"slug_ville":"champniers","departement_id":0,"code_postal":"86400","population":358,"superficie_km2":"2012.34","latitude_centre":"46.2157","longitude_centre":"0.328","distance_km":4.4},{"id":34009,"code_insee":"86119","nom_standard":"Joussé","nom_a":null,"nom_de":null,"slug_ville":"jousse","departement_id":0,"code_postal":"86350","population":309,"superficie_km2":"763.92","latitude_centre":"46.228","longitude_centre":"0.4556","distance_km":5.56},{"id":33977,"code_insee":"86064","nom_standard":"Château-Garnier","nom_a":null,"nom_de":null,"slug_ville":"chateau-garnier","departement_id":0,"code_postal":"86350","population":596,"superficie_km2":"3634.58","latitude_centre":"46.2589","longitude_centre":"0.4424","distance_km":5.86},{"id":0,"code_insee":"86264","nom_standard":"Sommières-du-Clain","nom_a":null,"nom_de":null,"slug_ville":"sommieres-du-clain","departement_id":0,"code_postal":"86160","population":729,"superficie_km2":"2616.44","latitude_centre":"46.278","longitude_centre":"0.3721","distance_km":5.9},{"id":34067,"code_insee":"86211","nom_standard":"Romagne","nom_a":null,"nom_de":null,"slug_ville":"romagne","departement_id":0,"code_postal":"86700","population":801,"superficie_km2":"4126.01","latitude_centre":"46.2629","longitude_centre":"0.3032","distance_km":7.44},{"id":34052,"code_insee":"86189","nom_standard":"Payroux","nom_a":null,"nom_de":null,"slug_ville":"payroux","departement_id":0,"code_postal":"86350","population":461,"superficie_km2":"3031.77","latitude_centre":"46.2139","longitude_centre":"0.4807","distance_km":7.6},{"id":0,"code_insee":"86255","nom_standard":"Savigné","nom_a":null,"nom_de":null,"slug_ville":"savigne","departement_id":0,"code_postal":"86400","population":1256,"superficie_km2":"3662.78","latitude_centre":"46.1682","longitude_centre":"0.3266","distance_km":7.73},{"id":0,"code_insee":"86061","nom_standard":"Charroux","nom_a":null,"nom_de":null,"slug_ville":"charroux","departement_id":0,"code_postal":"86250","population":1036,"superficie_km2":"4464.14","latitude_centre":"46.1388","longitude_centre":"0.4075","distance_km":9.82},{"id":33996,"code_insee":"86097","nom_standard":"La Ferrière-Airoux","nom_a":null,"nom_de":null,"slug_ville":"la-ferriere-airoux","departement_id":0,"code_postal":"86160","population":334,"superficie_km2":"2715.59","latitude_centre":"46.3151","longitude_centre":"0.404","distance_km":10.09},{"id":33957,"code_insee":"86029","nom_standard":"Blanzay","nom_a":null,"nom_de":null,"slug_ville":"blanzay","departement_id":0,"code_postal":"86400","population":819,"superficie_km2":"3560.48","latitude_centre":"46.2128","longitude_centre":"0.2529","distance_km":10.14},{"id":0,"code_insee":"86078","nom_standard":"Civray","nom_a":null,"nom_de":null,"slug_ville":"civray","departement_id":0,"code_postal":"86400","population":2522,"superficie_km2":"869.75","latitude_centre":"46.1427","longitude_centre":"0.2994","distance_km":11.25},{"id":33971,"code_insee":"86052","nom_standard":"Champagné-Saint-Hilaire","nom_a":null,"nom_de":null,"slug_ville":"champagne-saint-hilaire","departement_id":0,"code_postal":"86160","population":998,"superficie_km2":"4690.97","latitude_centre":"46.324","longitude_centre":"0.3178","distance_km":12.06},{"id":34078,"code_insee":"86237","nom_standard":"Saint-Pierre-d'Exideuil","nom_a":null,"nom_de":null,"slug_ville":"saint-pierre-d-exideuil","departement_id":0,"code_postal":"86400","population":717,"superficie_km2":"1946.25","latitude_centre":"46.157","longitude_centre":"0.2536","distance_km":12.56},{"id":34022,"code_insee":"86141","nom_standard":"Magné","nom_a":null,"nom_de":null,"slug_ville":"magne","departement_id":0,"code_postal":"86160","population":672,"superficie_km2":"2046.23","latitude_centre":"46.3472","longitude_centre":"0.3955","distance_km":13.56},{"id":0,"code_insee":"86248","nom_standard":"Saint-Secondin","nom_a":null,"nom_de":null,"slug_ville":"saint-secondin","departement_id":0,"code_postal":"86350","population":531,"superficie_km2":"3806.65","latitude_centre":"46.3235","longitude_centre":"0.4939","distance_km":13.82},{"id":33949,"code_insee":"86012","nom_standard":"Asnois","nom_a":null,"nom_de":null,"slug_ville":"asnois","departement_id":0,"code_postal":"86250","population":129,"superficie_km2":"1632.86","latitude_centre":"46.0998","longitude_centre":"0.4129","distance_km":14.16},{"id":33999,"code_insee":"86104","nom_standard":"Genouillé","nom_a":null,"nom_de":null,"slug_ville":"genouille","departement_id":0,"code_postal":"86250","population":504,"superficie_km2":"3006.24","latitude_centre":"46.0971","longitude_centre":"0.3396","distance_km":14.67},{"id":0,"code_insee":"86266","nom_standard":"Surin","nom_a":null,"nom_de":null,"slug_ville":"surin","departement_id":0,"code_postal":"86250","population":123,"superficie_km2":"1207.12","latitude_centre":"46.0823","longitude_centre":"0.3748","distance_km":15.94},{"id":0,"code_insee":"86103","nom_standard":"Gençay","nom_a":null,"nom_de":null,"slug_ville":"gencay","departement_id":0,"code_postal":"86160","population":1653,"superficie_km2":"479.96","latitude_centre":"46.3705","longitude_centre":"0.4134","distance_km":16.29}]}