{"ville":{"id":16164,"code_insee":"23212","nom_standard":"Saint-Marc-à-Loubaud","nom_a":null,"nom_de":null,"slug_ville":"saint-marc-a-loubaud","departement_id":0,"code_postal":"23460","population":126,"superficie_km2":"2036.52","latitude_centre":"45.8414","longitude_centre":"1.9914","dep_code":"23","dep_nom":"Creuse","dep_slug":"creuse","reg_code":"75","reg_nom":"Nouvelle-Aquitaine","reg_slug":"nouvelle-aquitaine"},"departement":{"code":"23","nom":"Creuse","slug":"creuse"},"region":{"code":"75","nom":"Nouvelle-Aquitaine","slug":"nouvelle-aquitaine"},"villes_proches":[{"id":0,"code_insee":"23249","nom_standard":"Saint-Yrieix-la-Montagne","nom_a":null,"nom_de":null,"slug_ville":"saint-yrieix-la-montagne","departement_id":0,"code_postal":"23460","population":219,"superficie_km2":"2392.46","latitude_centre":"45.8733","longitude_centre":"2.0002","distance_km":3.61},{"id":16105,"code_insee":"23144","nom_standard":"La Nouaille","nom_a":null,"nom_de":null,"slug_ville":"la-nouaille","departement_id":0,"code_postal":"23500","population":224,"superficie_km2":"4795.31","latitude_centre":"45.8355","longitude_centre":"2.0713","distance_km":6.22},{"id":16058,"code_insee":"23090","nom_standard":"Gentioux-Pigerolles","nom_a":null,"nom_de":null,"slug_ville":"gentioux-pigerolles","departement_id":0,"code_postal":"23340","population":398,"superficie_km2":"7978.31","latitude_centre":"45.7851","longitude_centre":"2.0192","distance_km":6.62},{"id":16123,"code_insee":"23165","nom_standard":"Royère-de-Vassivière","nom_a":null,"nom_de":null,"slug_ville":"royere-de-vassiviere","departement_id":0,"code_postal":"23460","population":565,"superficie_km2":"8068.80","latitude_centre":"45.8275","longitude_centre":"1.9006","distance_km":7.2},{"id":16096,"code_insee":"23134","nom_standard":"Le Monteil-au-Vicomte","nom_a":null,"nom_de":null,"slug_ville":"le-monteil-au-vicomte","departement_id":0,"code_postal":"23460","population":215,"superficie_km2":"1448.62","latitude_centre":"45.9064","longitude_centre":"1.9477","distance_km":7.98},{"id":0,"code_insee":"23257","nom_standard":"Vallière","nom_a":null,"nom_de":null,"slug_ville":"valliere","departement_id":0,"code_postal":"23120","population":705,"superficie_km2":"4817.63","latitude_centre":"45.909","longitude_centre":"2.0389","distance_km":8.37},{"id":16059,"code_insee":"23091","nom_standard":"Gioux","nom_a":null,"nom_de":null,"slug_ville":"gioux","departement_id":0,"code_postal":"23500","population":187,"superficie_km2":"3734.15","latitude_centre":"45.7984","longitude_centre":"2.1088","distance_km":10.28},{"id":0,"code_insee":"23232","nom_standard":"Saint-Pierre-Bellevue","nom_a":null,"nom_de":null,"slug_ville":"saint-pierre-bellevue","departement_id":0,"code_postal":"23460","population":215,"superficie_km2":"3290.64","latitude_centre":"45.9074","longitude_centre":"1.8981","distance_km":10.3},{"id":15993,"code_insee":"23016","nom_standard":"Banize","nom_a":null,"nom_de":null,"slug_ville":"banize","departement_id":0,"code_postal":"23120","population":183,"superficie_km2":"1533.47","latitude_centre":"45.9376","longitude_centre":"1.9932","distance_km":10.7},{"id":16047,"code_insee":"23077","nom_standard":"Faux-la-Montagne","nom_a":null,"nom_de":null,"slug_ville":"faux-la-montagne","departement_id":0,"code_postal":"23340","population":443,"superficie_km2":"4839.11","latitude_centre":"45.7491","longitude_centre":"1.938","distance_km":11.07},{"id":16163,"code_insee":"23211","nom_standard":"Saint-Marc-à-Frongier","nom_a":null,"nom_de":null,"slug_ville":"saint-marc-a-frongier","departement_id":0,"code_postal":"23200","population":428,"superficie_km2":"2544.95","latitude_centre":"45.9161","longitude_centre":"2.1095","distance_km":12.35},{"id":16032,"code_insee":"23060","nom_standard":"Chavanat","nom_a":null,"nom_de":null,"slug_ville":"chavanat","departement_id":0,"code_postal":"23250","population":137,"superficie_km2":"1275.22","latitude_centre":"45.9513","longitude_centre":"1.9624","distance_km":12.42},{"id":0,"code_insee":"87009","nom_standard":"Beaumont-du-Lac","nom_a":null,"nom_de":null,"slug_ville":"beaumont-du-lac","departement_id":0,"code_postal":"87120","population":133,"superficie_km2":"2748.67","latitude_centre":"45.7756","longitude_centre":"1.8535","distance_km":12.95},{"id":0,"code_insee":"23222","nom_standard":"Saint-Michel-de-Veisse","nom_a":null,"nom_de":null,"slug_ville":"saint-michel-de-veisse","departement_id":0,"code_postal":"23480","population":165,"superficie_km2":"1557.69","latitude_centre":"45.9504","longitude_centre":"2.0514","distance_km":12.98},{"id":0,"code_insee":"23264","nom_standard":"La Villedieu","nom_a":null,"nom_de":null,"slug_ville":"la-villedieu","departement_id":0,"code_postal":"23340","population":52,"superficie_km2":"570.04","latitude_centre":"45.7345","longitude_centre":"1.8918","distance_km":14.18},{"id":0,"code_insee":"23260","nom_standard":"Vidaillat","nom_a":null,"nom_de":null,"slug_ville":"vidaillat","departement_id":0,"code_postal":"23250","population":204,"superficie_km2":"2358.89","latitude_centre":"45.9595","longitude_centre":"1.9042","distance_km":14.76},{"id":15072,"code_insee":"19164","nom_standard":"Peyrelevade","nom_a":null,"nom_de":null,"slug_ville":"peyrelevade","departement_id":0,"code_postal":"19290","population":824,"superficie_km2":"6671.40","latitude_centre":"45.7101","longitude_centre":"2.0286","distance_km":14.88},{"id":16117,"code_insee":"23157","nom_standard":"La Pouge","nom_a":null,"nom_de":null,"slug_ville":"la-pouge","departement_id":0,"code_postal":"23250","population":96,"superficie_km2":"757.45","latitude_centre":"45.9735","longitude_centre":"1.9379","distance_km":15.26},{"id":0,"code_insee":"23246","nom_standard":"Saint-Sulpice-les-Champs","nom_a":null,"nom_de":null,"slug_ville":"saint-sulpice-les-champs","departement_id":0,"code_postal":"23480","population":340,"superficie_km2":"2170.39","latitude_centre":"45.9918","longitude_centre":"2.0295","distance_km":16.98},{"id":16149,"code_insee":"23197","nom_standard":"Saint-Georges-la-Pouge","nom_a":null,"nom_de":null,"slug_ville":"saint-georges-la-pouge","departement_id":0,"code_postal":"23250","population":355,"superficie_km2":"2407.96","latitude_centre":"45.9975","longitude_centre":"1.9604","distance_km":17.52}]}