{"ville":{"id":31419,"code_insee":"73235","nom_standard":"Saint François Longchamp","nom_a":null,"nom_de":null,"slug_ville":"saint-francois-longchamp","departement_id":0,"code_postal":"73130","population":433,"superficie_km2":"6057.91","latitude_centre":"45.3959","longitude_centre":"6.3554","dep_code":"73","dep_nom":"Savoie","dep_slug":"savoie","reg_code":"84","reg_nom":"Auvergne-Rhône-Alpes","reg_slug":"auvergne-rhone-alpes"},"departement":{"code":"73","nom":"Savoie","slug":"savoie"},"region":{"code":"84","nom":"Auvergne-Rhône-Alpes","slug":"auvergne-rhone-alpes"},"villes_proches":[{"id":0,"code_insee":"73259","nom_standard":"Saint-Martin-sur-la-Chambre","nom_a":null,"nom_de":null,"slug_ville":"saint-martin-sur-la-chambre","departement_id":0,"code_postal":"73130","population":525,"superficie_km2":"467.88","latitude_centre":"45.3736","longitude_centre":"6.3218","distance_km":3.61},{"id":31389,"code_insee":"73189","nom_standard":"Notre-Dame-du-Cruet","nom_a":null,"nom_de":null,"slug_ville":"notre-dame-du-cruet","departement_id":0,"code_postal":"73130","population":222,"superficie_km2":"189.78","latitude_centre":"45.3782","longitude_centre":"6.3103","distance_km":4.03},{"id":31334,"code_insee":"73083","nom_standard":"Les Chavannes-en-Maurienne","nom_a":null,"nom_de":null,"slug_ville":"les-chavannes-en-maurienne","departement_id":0,"code_postal":"73660","population":220,"superficie_km2":"455.45","latitude_centre":"45.3876","longitude_centre":"6.2876","distance_km":5.37},{"id":31326,"code_insee":"73074","nom_standard":"La Chapelle","nom_a":null,"nom_de":null,"slug_ville":"la-chapelle","departement_id":0,"code_postal":"73660","population":326,"superficie_km2":"1212.00","latitude_centre":"45.4226","longitude_centre":"6.2967","distance_km":5.46},{"id":0,"code_insee":"73067","nom_standard":"La Chambre","nom_a":null,"nom_de":null,"slug_ville":"la-chambre","departement_id":0,"code_postal":"73130","population":1221,"superficie_km2":"308.04","latitude_centre":"45.3687","longitude_centre":"6.293","distance_km":5.74},{"id":31412,"code_insee":"73224","nom_standard":"Saint-Avre","nom_a":null,"nom_de":null,"slug_ville":"saint-avre","departement_id":0,"code_postal":"73130","population":925,"superficie_km2":"351.12","latitude_centre":"45.3472","longitude_centre":"6.3179","distance_km":6.16},{"id":31350,"code_insee":"73109","nom_standard":"Épierre","nom_a":null,"nom_de":null,"slug_ville":"epierre","departement_id":0,"code_postal":"73220","population":757,"superficie_km2":"1943.79","latitude_centre":"45.4479","longitude_centre":"6.3274","distance_km":6.18},{"id":31384,"code_insee":"73177","nom_standard":"Montvernier","nom_a":null,"nom_de":null,"slug_ville":"montvernier","departement_id":0,"code_postal":"73300","population":240,"superficie_km2":"667.99","latitude_centre":"45.3338","longitude_centre":"6.3381","distance_km":7.04},{"id":0,"code_insee":"73278","nom_standard":"Saint-Rémy-de-Maurienne","nom_a":null,"nom_de":null,"slug_ville":"saint-remy-de-maurienne","departement_id":0,"code_postal":"73660","population":1289,"superficie_km2":"4422.88","latitude_centre":"45.3872","longitude_centre":"6.2417","distance_km":8.93},{"id":0,"code_insee":"73252","nom_standard":"Saint-Léger","nom_a":null,"nom_de":null,"slug_ville":"saint-leger","departement_id":0,"code_postal":"73220","population":257,"superficie_km2":"1106.09","latitude_centre":"45.4415","longitude_centre":"6.2591","distance_km":9.07},{"id":0,"code_insee":"73135","nom_standard":"La Tour-en-Maurienne","nom_a":null,"nom_de":null,"slug_ville":"la-tour-en-maurienne","departement_id":0,"code_postal":"73300","population":1087,"superficie_km2":"4093.87","latitude_centre":"45.3113","longitude_centre":"6.3636","distance_km":9.43},{"id":0,"code_insee":"73255","nom_standard":"Sainte-Marie-de-Cuines","nom_a":null,"nom_de":null,"slug_ville":"sainte-marie-de-cuines","departement_id":0,"code_postal":"73130","population":847,"superficie_km2":"1499.13","latitude_centre":"45.3227","longitude_centre":"6.2919","distance_km":9.53},{"id":0,"code_insee":"73231","nom_standard":"Saint-Étienne-de-Cuines","nom_a":null,"nom_de":null,"slug_ville":"saint-etienne-de-cuines","departement_id":0,"code_postal":"73130","population":1186,"superficie_km2":"2060.12","latitude_centre":"45.3471","longitude_centre":"6.2469","distance_km":10.06},{"id":0,"code_insee":"73272","nom_standard":"Saint-Pierre-de-Belleville","nom_a":null,"nom_de":null,"slug_ville":"saint-pierre-de-belleville","departement_id":0,"code_postal":"73220","population":184,"superficie_km2":"737.94","latitude_centre":"45.4505","longitude_centre":"6.2517","distance_km":10.12},{"id":31300,"code_insee":"73024","nom_standard":"Les Avanchers-Valmorel","nom_a":null,"nom_de":null,"slug_ville":"les-avanchers-valmorel","departement_id":0,"code_postal":"73260","population":724,"superficie_km2":"2755.12","latitude_centre":"45.4631","longitude_centre":"6.443","distance_km":10.13},{"id":31409,"code_insee":"73220","nom_standard":"Saint-Alban-d'Hurtières","nom_a":null,"nom_de":null,"slug_ville":"saint-alban-d-hurtieres","departement_id":0,"code_postal":"73220","population":404,"superficie_km2":"1949.87","latitude_centre":"45.4624","longitude_centre":"6.2524","distance_km":10.92},{"id":31295,"code_insee":"73019","nom_standard":"Argentine","nom_a":null,"nom_de":null,"slug_ville":"argentine","departement_id":0,"code_postal":"73220","population":959,"superficie_km2":"2814.07","latitude_centre":"45.4939","longitude_centre":"6.3341","distance_km":11.02},{"id":31363,"code_insee":"73138","nom_standard":"Jarrier","nom_a":null,"nom_de":null,"slug_ville":"jarrier","departement_id":0,"code_postal":"73300","population":506,"superficie_km2":"1768.76","latitude_centre":"45.2885","longitude_centre":"6.3052","distance_km":12.57},{"id":0,"code_insee":"73250","nom_standard":"Saint-Julien-Mont-Denis","nom_a":null,"nom_de":null,"slug_ville":"saint-julien-mont-denis","departement_id":0,"code_postal":"73870","population":1506,"superficie_km2":"3295.36","latitude_centre":"45.2818","longitude_centre":"6.4141","distance_km":13.49},{"id":0,"code_insee":"73248","nom_standard":"Saint-Jean-de-Maurienne","nom_a":null,"nom_de":null,"slug_ville":"saint-jean-de-maurienne","departement_id":0,"code_postal":"73300","population":7524,"superficie_km2":"1149.56","latitude_centre":"45.2731","longitude_centre":"6.3465","distance_km":13.67}]}