{"ville":{"id":11738,"code_insee":"07260","nom_standard":"Saint-Lager-Bressac","nom_a":null,"nom_de":null,"slug_ville":"saint-lager-bressac","departement_id":0,"code_postal":"07210","population":971,"superficie_km2":"1600.79","latitude_centre":"44.6916","longitude_centre":"4.7196","dep_code":"07","dep_nom":"Ardèche","dep_slug":"ardeche","reg_code":"84","reg_nom":"Auvergne-Rhône-Alpes","reg_slug":"auvergne-rhone-alpes"},"departement":{"code":"07","nom":"Ardèche","slug":"ardeche"},"region":{"code":"84","nom":"Auvergne-Rhône-Alpes","slug":"auvergne-rhone-alpes"},"villes_proches":[{"id":0,"code_insee":"07022","nom_standard":"Baix","nom_a":null,"nom_de":null,"slug_ville":"baix","departement_id":0,"code_postal":"07210","population":1296,"superficie_km2":"1755.45","latitude_centre":"44.7046","longitude_centre":"4.7474","distance_km":2.63},{"id":0,"code_insee":"07302","nom_standard":"Saint-Vincent-de-Barrès","nom_a":null,"nom_de":null,"slug_ville":"saint-vincent-de-barres","departement_id":0,"code_postal":"07210","population":824,"superficie_km2":"1884.99","latitude_centre":"44.6583","longitude_centre":"4.7033","distance_km":3.92},{"id":0,"code_insee":"07298","nom_standard":"Saint-Symphorien-sous-Chomérac","nom_a":null,"nom_de":null,"slug_ville":"saint-symphorien-sous-chomerac","departement_id":0,"code_postal":"07210","population":887,"superficie_km2":"798.06","latitude_centre":"44.7301","longitude_centre":"4.7073","distance_km":4.39},{"id":0,"code_insee":"07066","nom_standard":"Chomérac","nom_a":null,"nom_de":null,"slug_ville":"chomerac","departement_id":0,"code_postal":"07210","population":3183,"superficie_km2":"1946.93","latitude_centre":"44.7113","longitude_centre":"4.668","distance_km":4.63},{"id":11708,"code_insee":"07219","nom_standard":"Saint-Bauzile","nom_a":null,"nom_de":null,"slug_ville":"saint-bauzile","departement_id":0,"code_postal":"07210","population":311,"superficie_km2":"709.19","latitude_centre":"44.6708","longitude_centre":"4.6662","distance_km":4.81},{"id":0,"code_insee":"07076","nom_standard":"Cruas","nom_a":null,"nom_de":null,"slug_ville":"cruas","departement_id":0,"code_postal":"07350","population":2898,"superficie_km2":"1549.26","latitude_centre":"44.6552","longitude_centre":"4.7554","distance_km":4.94},{"id":0,"code_insee":"26337","nom_standard":"Saulce-sur-Rhône","nom_a":null,"nom_de":null,"slug_ville":"saulce-sur-rhone","departement_id":0,"code_postal":"26270","population":1892,"superficie_km2":"1899.85","latitude_centre":"44.7054","longitude_centre":"4.7891","distance_km":5.7},{"id":0,"code_insee":"07255","nom_standard":"Saint-Julien-en-Saint-Alban","nom_a":null,"nom_de":null,"slug_ville":"saint-julien-en-saint-alban","departement_id":0,"code_postal":"07000","population":1465,"superficie_km2":"1043.17","latitude_centre":"44.7516","longitude_centre":"4.69","distance_km":7.07},{"id":0,"code_insee":"07181","nom_standard":"Le Pouzin","nom_a":null,"nom_de":null,"slug_ville":"le-pouzin","departement_id":0,"code_postal":"07250","population":2886,"superficie_km2":"1110.97","latitude_centre":"44.7537","longitude_centre":"4.7491","distance_km":7.29},{"id":0,"code_insee":"26353","nom_standard":"Les Tourrettes","nom_a":null,"nom_de":null,"slug_ville":"les-tourrettes","departement_id":0,"code_postal":"26740","population":1087,"superficie_km2":"726.86","latitude_centre":"44.6668","longitude_centre":"4.8052","distance_km":7.31},{"id":0,"code_insee":"26106","nom_standard":"La Coucourde","nom_a":null,"nom_de":null,"slug_ville":"la-coucourde","departement_id":0,"code_postal":"26740","population":1240,"superficie_km2":"1005.29","latitude_centre":"44.6395","longitude_centre":"4.7843","distance_km":7.73},{"id":0,"code_insee":"07270","nom_standard":"Saint-Martin-sur-Lavezon","nom_a":null,"nom_de":null,"slug_ville":"saint-martin-sur-lavezon","departement_id":0,"code_postal":"07400","population":422,"superficie_km2":"2362.92","latitude_centre":"44.6383","longitude_centre":"4.6526","distance_km":7.95},{"id":0,"code_insee":"07090","nom_standard":"Flaviac","nom_a":null,"nom_de":null,"slug_ville":"flaviac","departement_id":0,"code_postal":"07000","population":1235,"superficie_km2":"1301.91","latitude_centre":"44.7522","longitude_centre":"4.6622","distance_km":8.12},{"id":0,"code_insee":"07157","nom_standard":"Meysse","nom_a":null,"nom_de":null,"slug_ville":"meysse","departement_id":0,"code_postal":"07400","population":1366,"superficie_km2":"1871.31","latitude_centre":"44.6188","longitude_centre":"4.704","distance_km":8.19},{"id":0,"code_insee":"07198","nom_standard":"Rompon","nom_a":null,"nom_de":null,"slug_ville":"rompon","departement_id":0,"code_postal":"07250","population":1139,"superficie_km2":"2236.18","latitude_centre":"44.768","longitude_centre":"4.7285","distance_km":8.52},{"id":0,"code_insee":"07008","nom_standard":"Alissas","nom_a":null,"nom_de":null,"slug_ville":"alissas","departement_id":0,"code_postal":"07210","population":1519,"superficie_km2":"1246.25","latitude_centre":"44.7089","longitude_centre":"4.6139","distance_km":8.57},{"id":0,"code_insee":"07283","nom_standard":"Saint-Pierre-la-Roche","nom_a":null,"nom_de":null,"slug_ville":"saint-pierre-la-roche","departement_id":0,"code_postal":"07400","population":67,"superficie_km2":"998.43","latitude_centre":"44.6553","longitude_centre":"4.6188","distance_km":8.93},{"id":0,"code_insee":"26339","nom_standard":"Savasse","nom_a":null,"nom_de":null,"slug_ville":"savasse","departement_id":0,"code_postal":"26740","population":1631,"superficie_km2":"2212.38","latitude_centre":"44.6056","longitude_centre":"4.7775","distance_km":10.6},{"id":11710,"code_insee":"07221","nom_standard":"Saint-Cierge-la-Serre","nom_a":null,"nom_de":null,"slug_ville":"saint-cierge-la-serre","departement_id":0,"code_postal":"07800","population":243,"superficie_km2":"1589.00","latitude_centre":"44.792","longitude_centre":"4.6792","distance_km":11.61},{"id":0,"code_insee":"07191","nom_standard":"Rochemaure","nom_a":null,"nom_de":null,"slug_ville":"rochemaure","departement_id":0,"code_postal":"07400","population":2239,"superficie_km2":"2501.59","latitude_centre":"44.5863","longitude_centre":"4.6972","distance_km":11.84}]}