{"ville":{"id":11446,"code_insee":"05160","nom_standard":"Salérans","nom_a":null,"nom_de":null,"slug_ville":"salerans","departement_id":0,"code_postal":"05300","population":78,"superficie_km2":"1397.73","latitude_centre":"44.2459","longitude_centre":"5.7041","dep_code":"05","dep_nom":"Hautes-Alpes","dep_slug":"hautes-alpes","reg_code":"93","reg_nom":"Provence-Alpes-Côte d'Azur","reg_slug":"provence-alpes-cote-d-azur"},"departement":{"code":"05","nom":"Hautes-Alpes","slug":"hautes-alpes"},"region":{"code":"93","nom":"Provence-Alpes-Côte d'Azur","slug":"provence-alpes-cote-d-azur"},"villes_proches":[{"id":11336,"code_insee":"05014","nom_standard":"Barret-sur-Méouge","nom_a":null,"nom_de":null,"slug_ville":"barret-sur-meouge","departement_id":0,"code_postal":"05300","population":193,"superficie_km2":"2631.57","latitude_centre":"44.2591","longitude_centre":"5.7244","distance_km":2.18},{"id":0,"code_insee":"26022","nom_standard":"Ballons","nom_a":null,"nom_de":null,"slug_ville":"ballons","departement_id":0,"code_postal":"26560","population":88,"superficie_km2":"1709.89","latitude_centre":"44.2476","longitude_centre":"5.6478","distance_km":4.49},{"id":11356,"code_insee":"05047","nom_standard":"Éourres","nom_a":null,"nom_de":null,"slug_ville":"eourres","departement_id":0,"code_postal":"05300","population":151,"superficie_km2":"2665.71","latitude_centre":"44.2113","longitude_centre":"5.7349","distance_km":4.56},{"id":11441,"code_insee":"05155","nom_standard":"Saint-Pierre-Avez","nom_a":null,"nom_de":null,"slug_ville":"saint-pierre-avez","departement_id":0,"code_postal":"05300","population":35,"superficie_km2":"1189.35","latitude_centre":"44.2488","longitude_centre":"5.7672","distance_km":5.04},{"id":11428,"code_insee":"05135","nom_standard":"Sainte-Colombe","nom_a":null,"nom_de":null,"slug_ville":"sainte-colombe","departement_id":0,"code_postal":"05700","population":65,"superficie_km2":"1721.72","latitude_centre":"44.2887","longitude_centre":"5.675","distance_km":5.29},{"id":0,"code_insee":"26154","nom_standard":"Lachau","nom_a":null,"nom_de":null,"slug_ville":"lachau","departement_id":0,"code_postal":"26560","population":218,"superficie_km2":"2566.94","latitude_centre":"44.2182","longitude_centre":"5.6487","distance_km":5.38},{"id":11398,"code_insee":"05097","nom_standard":"Orpierre","nom_a":null,"nom_de":null,"slug_ville":"orpierre","departement_id":0,"code_postal":"05700","population":316,"superficie_km2":"2745.63","latitude_centre":"44.316","longitude_centre":"5.7071","distance_km":7.8},{"id":11203,"code_insee":"04067","nom_standard":"Curel","nom_a":null,"nom_de":null,"slug_ville":"curel","departement_id":0,"code_postal":"04200","population":65,"superficie_km2":"1064.56","latitude_centre":"44.1765","longitude_centre":"5.6717","distance_km":8.14},{"id":11395,"code_insee":"05094","nom_standard":"Nossage-et-Bénévent","nom_a":null,"nom_de":null,"slug_ville":"nossage-et-benevent","departement_id":0,"code_postal":"05700","population":10,"superficie_km2":"436.21","latitude_centre":"44.3103","longitude_centre":"5.7554","distance_km":8.24},{"id":0,"code_insee":"26150","nom_standard":"Izon-la-Bruisse","nom_a":null,"nom_de":null,"slug_ville":"izon-la-bruisse","departement_id":0,"code_postal":"26560","population":12,"superficie_km2":"1459.19","latitude_centre":"44.2676","longitude_centre":"5.6003","distance_km":8.61},{"id":11292,"code_insee":"04199","nom_standard":"Saint-Vincent-sur-Jabron","nom_a":null,"nom_de":null,"slug_ville":"saint-vincent-sur-jabron","departement_id":0,"code_postal":"04200","population":167,"superficie_km2":"3036.99","latitude_centre":"44.1674","longitude_centre":"5.7425","distance_km":9.25},{"id":0,"code_insee":"26126","nom_standard":"Eygalayes","nom_a":null,"nom_de":null,"slug_ville":"eygalayes","departement_id":0,"code_postal":"26560","population":89,"superficie_km2":"1825.39","latitude_centre":"44.2223","longitude_centre":"5.5908","distance_km":9.4},{"id":0,"code_insee":"26200","nom_standard":"Montfroc","nom_a":null,"nom_de":null,"slug_ville":"montfroc","departement_id":0,"code_postal":"26560","population":100,"superficie_km2":"1479.76","latitude_centre":"44.1722","longitude_centre":"5.644","distance_km":9.49},{"id":11360,"code_insee":"05051","nom_standard":"Étoile-Saint-Cyrice","nom_a":null,"nom_de":null,"slug_ville":"etoile-saint-cyrice","departement_id":0,"code_postal":"05700","population":23,"superficie_km2":"1437.41","latitude_centre":"44.3217","longitude_centre":"5.6426","distance_km":9.75},{"id":0,"code_insee":"26153","nom_standard":"Laborel","nom_a":null,"nom_de":null,"slug_ville":"laborel","departement_id":0,"code_postal":"26560","population":116,"superficie_km2":"2358.78","latitude_centre":"44.2871","longitude_centre":"5.5944","distance_km":9.86},{"id":11445,"code_insee":"05159","nom_standard":"Saléon","nom_a":null,"nom_de":null,"slug_ville":"saleon","departement_id":0,"code_postal":"05300","population":79,"superficie_km2":"987.93","latitude_centre":"44.3212","longitude_centre":"5.7769","distance_km":10.18},{"id":11192,"code_insee":"04051","nom_standard":"Châteauneuf-Miravail","nom_a":null,"nom_de":null,"slug_ville":"chateauneuf-miravail","departement_id":0,"code_postal":"04200","population":76,"superficie_km2":"1964.27","latitude_centre":"44.1521","longitude_centre":"5.7142","distance_km":10.46},{"id":0,"code_insee":"26374","nom_standard":"Villebois-les-Pins","nom_a":null,"nom_de":null,"slug_ville":"villebois-les-pins","departement_id":0,"code_postal":"05700","population":22,"superficie_km2":"1074.22","latitude_centre":"44.3183","longitude_centre":"5.5988","distance_km":11.62},{"id":0,"code_insee":"05172","nom_standard":"Trescléoux","nom_a":null,"nom_de":null,"slug_ville":"trescleoux","departement_id":0,"code_postal":"05700","population":296,"superficie_km2":"1868.83","latitude_centre":"44.3522","longitude_centre":"5.7249","distance_km":11.94},{"id":11350,"code_insee":"05033","nom_standard":"Chanousse","nom_a":null,"nom_de":null,"slug_ville":"chanousse","departement_id":0,"code_postal":"05700","population":39,"superficie_km2":"2050.07","latitude_centre":"44.3648","longitude_centre":"5.6592","distance_km":13.7}]}