{"ville":{"id":21140,"code_insee":"39499","nom_standard":"Saligney","nom_a":null,"nom_de":null,"slug_ville":"saligney","departement_id":0,"code_postal":"39350","population":186,"superficie_km2":"785.85","latitude_centre":"47.2224","longitude_centre":"5.6362","dep_code":"39","dep_nom":"Jura","dep_slug":"jura","reg_code":"27","reg_nom":"Bourgogne-Franche-Comté","reg_slug":"bourgogne-franche-comte"},"departement":{"code":"39","nom":"Jura","slug":"jura"},"region":{"code":"27","nom":"Bourgogne-Franche-Comté","slug":"bourgogne-franche-comte"},"villes_proches":[{"id":0,"code_insee":"39528","nom_standard":"Thervay","nom_a":null,"nom_de":null,"slug_ville":"thervay","departement_id":0,"code_postal":"39290","population":384,"superficie_km2":"1584.60","latitude_centre":"47.2375","longitude_centre":"5.6137","distance_km":2.39},{"id":0,"code_insee":"39514","nom_standard":"Serre-les-Moulières","nom_a":null,"nom_de":null,"slug_ville":"serre-les-moulieres","departement_id":0,"code_postal":"39700","population":186,"superficie_km2":"563.39","latitude_centre":"47.205","longitude_centre":"5.6148","distance_km":2.52},{"id":0,"code_insee":"39513","nom_standard":"Sermange","nom_a":null,"nom_de":null,"slug_ville":"sermange","departement_id":0,"code_postal":"39700","population":247,"superficie_km2":"707.46","latitude_centre":"47.1985","longitude_centre":"5.6458","distance_km":2.75},{"id":21066,"code_insee":"39398","nom_standard":"Ougney","nom_a":null,"nom_de":null,"slug_ville":"ougney","departement_id":0,"code_postal":"39350","population":431,"superficie_km2":"706.17","latitude_centre":"47.2416","longitude_centre":"5.6607","distance_km":2.82},{"id":0,"code_insee":"39527","nom_standard":"Taxenne","nom_a":null,"nom_de":null,"slug_ville":"taxenne","departement_id":0,"code_postal":"39350","population":126,"superficie_km2":"388.82","latitude_centre":"47.2212","longitude_centre":"5.6857","distance_km":3.74},{"id":0,"code_insee":"39581","nom_standard":"Vitreux","nom_a":null,"nom_de":null,"slug_ville":"vitreux","departement_id":0,"code_postal":"39350","population":250,"superficie_km2":"796.85","latitude_centre":"47.2529","longitude_centre":"5.6708","distance_km":4.28},{"id":21001,"code_insee":"39308","nom_standard":"Malange","nom_a":null,"nom_de":null,"slug_ville":"malange","departement_id":0,"code_postal":"39700","population":321,"superficie_km2":"848.17","latitude_centre":"47.1855","longitude_centre":"5.6132","distance_km":4.46},{"id":20951,"code_insee":"39246","nom_standard":"Gendrey","nom_a":null,"nom_de":null,"slug_ville":"gendrey","departement_id":0,"code_postal":"39350","population":436,"superficie_km2":"1395.85","latitude_centre":"47.1988","longitude_centre":"5.6847","distance_km":4.51},{"id":0,"code_insee":"70092","nom_standard":"Bresilley","nom_a":null,"nom_de":null,"slug_ville":"bresilley","departement_id":0,"code_postal":"70140","population":189,"superficie_km2":"365.48","latitude_centre":"47.2631","longitude_centre":"5.6326","distance_km":4.53},{"id":20820,"code_insee":"39074","nom_standard":"Brans","nom_a":null,"nom_de":null,"slug_ville":"brans","departement_id":0,"code_postal":"39290","population":200,"superficie_km2":"873.28","latitude_centre":"47.2238","longitude_centre":"5.574","distance_km":4.7},{"id":20787,"code_insee":"39031","nom_standard":"Auxange","nom_a":null,"nom_de":null,"slug_ville":"auxange","departement_id":0,"code_postal":"39700","population":198,"superficie_km2":"515.86","latitude_centre":"47.1782","longitude_centre":"5.6539","distance_km":5.09},{"id":21122,"code_insee":"39469","nom_standard":"Rouffange","nom_a":null,"nom_de":null,"slug_ville":"rouffange","departement_id":0,"code_postal":"39350","population":120,"superficie_km2":"286.87","latitude_centre":"47.2256","longitude_centre":"5.7092","distance_km":5.52},{"id":21070,"code_insee":"39402","nom_standard":"Pagney","nom_a":null,"nom_de":null,"slug_ville":"pagney","departement_id":0,"code_postal":"39350","population":392,"superficie_km2":"600.75","latitude_centre":"47.2519","longitude_centre":"5.6994","distance_km":5.79},{"id":0,"code_insee":"39584","nom_standard":"Vriange","nom_a":null,"nom_de":null,"slug_ville":"vriange","departement_id":0,"code_postal":"39700","population":163,"superficie_km2":"589.45","latitude_centre":"47.1832","longitude_centre":"5.5848","distance_km":5.84},{"id":0,"code_insee":"70327","nom_standard":"Malans","nom_a":null,"nom_de":null,"slug_ville":"malans","departement_id":0,"code_postal":"70140","population":135,"superficie_km2":"673.62","latitude_centre":"47.2686","longitude_centre":"5.5957","distance_km":5.98},{"id":0,"code_insee":"70048","nom_standard":"Bard-lès-Pesmes","nom_a":null,"nom_de":null,"slug_ville":"bard-les-pesmes","departement_id":0,"code_postal":"70140","population":136,"superficie_km2":"521.06","latitude_centre":"47.2785","longitude_centre":"5.6256","distance_km":6.29},{"id":21118,"code_insee":"39465","nom_standard":"Romange","nom_a":null,"nom_de":null,"slug_ville":"romange","departement_id":0,"code_postal":"39700","population":204,"superficie_km2":"547.59","latitude_centre":"47.1618","longitude_centre":"5.5954","distance_km":7.41},{"id":20985,"code_insee":"39285","nom_standard":"Lavans-lès-Dole","nom_a":null,"nom_de":null,"slug_ville":"lavans-les-dole","departement_id":0,"code_postal":"39700","population":323,"superficie_km2":"1027.40","latitude_centre":"47.1548","longitude_centre":"5.6399","distance_km":7.52},{"id":0,"code_insee":"70353","nom_standard":"Montagney","nom_a":null,"nom_de":null,"slug_ville":"montagney","departement_id":0,"code_postal":"70140","population":488,"superficie_km2":"929.99","latitude_centre":"47.2883","longitude_centre":"5.6584","distance_km":7.52},{"id":0,"code_insee":"39396","nom_standard":"Orchamps","nom_a":null,"nom_de":null,"slug_ville":"orchamps","departement_id":0,"code_postal":"39700","population":1045,"superficie_km2":"992.00","latitude_centre":"47.1554","longitude_centre":"5.6661","distance_km":7.79}]}