{"ville":{"id":13824,"code_insee":"14665","nom_standard":"Sallenelles","nom_a":null,"nom_de":null,"slug_ville":"sallenelles","departement_id":0,"code_postal":"14121","population":287,"superficie_km2":"133.62","latitude_centre":"49.2617","longitude_centre":"-0.2342","dep_code":"14","dep_nom":"Calvados","dep_slug":"calvados","reg_code":"28","reg_nom":"Normandie","reg_slug":"normandie"},"departement":{"code":"14","nom":"Calvados","slug":"calvados"},"region":{"code":"28","nom":"Normandie","slug":"normandie"},"villes_proches":[{"id":0,"code_insee":"14009","nom_standard":"Amfreville","nom_a":null,"nom_de":null,"slug_ville":"amfreville","departement_id":0,"code_postal":"14860","population":1394,"superficie_km2":"597.62","latitude_centre":"49.2508","longitude_centre":"-0.2405","distance_km":1.3},{"id":0,"code_insee":"14488","nom_standard":"Ouistreham","nom_a":null,"nom_de":null,"slug_ville":"ouistreham","departement_id":0,"code_postal":"14150","population":9212,"superficie_km2":"912.99","latitude_centre":"49.2709","longitude_centre":"-0.2565","distance_km":1.91},{"id":0,"code_insee":"14409","nom_standard":"Merville-Franceville-Plage","nom_a":null,"nom_de":null,"slug_ville":"merville-franceville-plage","departement_id":0,"code_postal":"14810","population":2231,"superficie_km2":"1071.80","latitude_centre":"49.2671","longitude_centre":"-0.1999","distance_km":2.56},{"id":13541,"code_insee":"14106","nom_standard":"Bréville-les-Monts","nom_a":null,"nom_de":null,"slug_ville":"breville-les-monts","departement_id":0,"code_postal":"14860","population":661,"superficie_km2":"481.22","latitude_centre":"49.2369","longitude_centre":"-0.2177","distance_km":3.01},{"id":13645,"code_insee":"14306","nom_standard":"Gonneville-en-Auge","nom_a":null,"nom_de":null,"slug_ville":"gonneville-en-auge","departement_id":0,"code_postal":"14810","population":390,"superficie_km2":"438.92","latitude_centre":"49.2595","longitude_centre":"-0.1887","distance_km":3.31},{"id":0,"code_insee":"14558","nom_standard":"Saint-Aubin-d'Arquenay","nom_a":null,"nom_de":null,"slug_ville":"saint-aubin-d-arquenay","departement_id":0,"code_postal":"14970","population":1118,"superficie_km2":"328.78","latitude_centre":"49.2617","longitude_centre":"-0.2844","distance_km":3.64},{"id":0,"code_insee":"14530","nom_standard":"Ranville","nom_a":null,"nom_de":null,"slug_ville":"ranville","departement_id":0,"code_postal":"14860","population":2074,"superficie_km2":"842.85","latitude_centre":"49.2278","longitude_centre":"-0.2643","distance_km":4.36},{"id":0,"code_insee":"14060","nom_standard":"Bénouville","nom_a":null,"nom_de":null,"slug_ville":"benouville","departement_id":0,"code_postal":"14970","population":1987,"superficie_km2":"541.43","latitude_centre":"49.2422","longitude_centre":"-0.2896","distance_km":4.57},{"id":13742,"code_insee":"14499","nom_standard":"Petiville","nom_a":null,"nom_de":null,"slug_ville":"petiville","departement_id":0,"code_postal":"14390","population":560,"superficie_km2":"291.52","latitude_centre":"49.2412","longitude_centre":"-0.1688","distance_km":5.27},{"id":0,"code_insee":"14046","nom_standard":"Bavent","nom_a":null,"nom_de":null,"slug_ville":"bavent","departement_id":0,"code_postal":"14860","population":1885,"superficie_km2":"1855.24","latitude_centre":"49.2281","longitude_centre":"-0.18","distance_km":5.43},{"id":0,"code_insee":"14166","nom_standard":"Colleville-Montgomery","nom_a":null,"nom_de":null,"slug_ville":"colleville-montgomery","departement_id":0,"code_postal":"14880","population":2586,"superficie_km2":"797.05","latitude_centre":"49.276","longitude_centre":"-0.3062","distance_km":5.46},{"id":0,"code_insee":"14328","nom_standard":"Hérouvillette","nom_a":null,"nom_de":null,"slug_ville":"herouvillette","departement_id":0,"code_postal":"14850","population":1354,"superficie_km2":"398.15","latitude_centre":"49.2154","longitude_centre":"-0.2615","distance_km":5.52},{"id":13612,"code_insee":"14246","nom_standard":"Escoville","nom_a":null,"nom_de":null,"slug_ville":"escoville","departement_id":0,"code_postal":"14850","population":920,"superficie_km2":"518.30","latitude_centre":"49.2062","longitude_centre":"-0.2474","distance_km":6.25},{"id":0,"code_insee":"14076","nom_standard":"Blainville-sur-Orne","nom_a":null,"nom_de":null,"slug_ville":"blainville-sur-orne","departement_id":0,"code_postal":"14550","population":6106,"superficie_km2":"711.73","latitude_centre":"49.2287","longitude_centre":"-0.3043","distance_km":6.27},{"id":0,"code_insee":"14724","nom_standard":"Varaville","nom_a":null,"nom_de":null,"slug_ville":"varaville","departement_id":0,"code_postal":"14390","population":1022,"superficie_km2":"1667.64","latitude_centre":"49.2631","longitude_centre":"-0.1445","distance_km":6.51},{"id":0,"code_insee":"14698","nom_standard":"Touffréville","nom_a":null,"nom_de":null,"slug_ville":"touffreville","departement_id":0,"code_postal":"14940","population":392,"superficie_km2":"578.70","latitude_centre":"49.2022","longitude_centre":"-0.2255","distance_km":6.65},{"id":0,"code_insee":"14215","nom_standard":"Cuverville","nom_a":null,"nom_de":null,"slug_ville":"cuverville","departement_id":0,"code_postal":"14840","population":2267,"superficie_km2":"206.06","latitude_centre":"49.1938","longitude_centre":"-0.261","distance_km":7.8},{"id":0,"code_insee":"14167","nom_standard":"Colombelles","nom_a":null,"nom_de":null,"slug_ville":"colombelles","departement_id":0,"code_postal":"14460","population":7243,"superficie_km2":"710.94","latitude_centre":"49.1998","longitude_centre":"-0.2918","distance_km":8.05},{"id":0,"code_insee":"14712","nom_standard":"Troarn","nom_a":null,"nom_de":null,"slug_ville":"troarn","departement_id":0,"code_postal":"14670","population":3439,"superficie_km2":"1146.68","latitude_centre":"49.1941","longitude_centre":"-0.1844","distance_km":8.34},{"id":0,"code_insee":"14666","nom_standard":"Sannerville","nom_a":null,"nom_de":null,"slug_ville":"sannerville","departement_id":0,"code_postal":"14940","population":1905,"superficie_km2":"518.88","latitude_centre":"49.1861","longitude_centre":"-0.2262","distance_km":8.43}]}