{"ville":{"id":13181,"code_insee":"11368","nom_standard":"Sallèles-Cabardès","nom_a":null,"nom_de":null,"slug_ville":"salleles-cabardes","departement_id":0,"code_postal":"11600","population":110,"superficie_km2":"706.40","latitude_centre":"43.3217","longitude_centre":"2.4109","dep_code":"11","dep_nom":"Aude","dep_slug":"aude","reg_code":"76","reg_nom":"Occitanie","reg_slug":"occitanie"},"departement":{"code":"11","nom":"Aude","slug":"aude"},"region":{"code":"76","nom":"Occitanie","slug":"occitanie"},"villes_proches":[{"id":13049,"code_insee":"11205","nom_standard":"Limousis","nom_a":null,"nom_de":null,"slug_ville":"limousis","departement_id":0,"code_postal":"11600","population":121,"superficie_km2":"1028.83","latitude_centre":"43.3262","longitude_centre":"2.4074","distance_km":0.57},{"id":13041,"code_insee":"11194","nom_standard":"Lastours","nom_a":null,"nom_de":null,"slug_ville":"lastours","departement_id":0,"code_postal":"11600","population":144,"superficie_km2":"282.18","latitude_centre":"43.3273","longitude_centre":"2.3794","distance_km":2.62},{"id":13007,"code_insee":"11154","nom_standard":"Fournes-Cabardès","nom_a":null,"nom_de":null,"slug_ville":"fournes-cabardes","departement_id":0,"code_postal":"11600","population":53,"superficie_km2":"1278.33","latitude_centre":"43.3546","longitude_centre":"2.4111","distance_km":3.66},{"id":0,"code_insee":"11426","nom_standard":"Villegly","nom_a":null,"nom_de":null,"slug_ville":"villegly","departement_id":0,"code_postal":"11600","population":1247,"superficie_km2":"1029.20","latitude_centre":"43.2929","longitude_centre":"2.4369","distance_km":3.83},{"id":0,"code_insee":"11395","nom_standard":"Trassanel","nom_a":null,"nom_de":null,"slug_ville":"trassanel","departement_id":0,"code_postal":"11160","population":25,"superficie_km2":"451.37","latitude_centre":"43.3474","longitude_centre":"2.4439","distance_km":3.91},{"id":0,"code_insee":"11372","nom_standard":"Salsigne","nom_a":null,"nom_de":null,"slug_ville":"salsigne","departement_id":0,"code_postal":"11600","population":400,"superficie_km2":"1182.35","latitude_centre":"43.3243","longitude_centre":"2.3605","distance_km":4.09},{"id":13024,"code_insee":"11174","nom_standard":"Les Ilhes","nom_a":null,"nom_de":null,"slug_ville":"les-ilhes","departement_id":0,"code_postal":"11380","population":64,"superficie_km2":"417.21","latitude_centre":"43.3557","longitude_centre":"2.3726","distance_km":4.89},{"id":0,"code_insee":"11433","nom_standard":"Villeneuve-Minervois","nom_a":null,"nom_de":null,"slug_ville":"villeneuve-minervois","departement_id":0,"code_postal":"11160","population":979,"superficie_km2":"2461.24","latitude_centre":"43.333","longitude_centre":"2.4702","distance_km":4.96},{"id":0,"code_insee":"11099","nom_standard":"Conques-sur-Orbiel","nom_a":null,"nom_de":null,"slug_ville":"conques-sur-orbiel","departement_id":0,"code_postal":"11600","population":2523,"superficie_km2":"2581.32","latitude_centre":"43.2815","longitude_centre":"2.38","distance_km":5.12},{"id":0,"code_insee":"11416","nom_standard":"Villarzel-Cabardès","nom_a":null,"nom_de":null,"slug_ville":"villarzel-cabardes","departement_id":0,"code_postal":"11600","population":276,"superficie_km2":"659.18","latitude_centre":"43.2844","longitude_centre":"2.4686","distance_km":6.25},{"id":0,"code_insee":"11411","nom_standard":"Villanière","nom_a":null,"nom_de":null,"slug_ville":"villaniere","departement_id":0,"code_postal":"11600","population":152,"superficie_km2":"725.42","latitude_centre":"43.3505","longitude_centre":"2.3392","distance_km":6.62},{"id":12901,"code_insee":"11025","nom_standard":"Bagnoles","nom_a":null,"nom_de":null,"slug_ville":"bagnoles","departement_id":0,"code_postal":"11600","population":300,"superficie_km2":"578.62","latitude_centre":"43.2668","longitude_centre":"2.4466","distance_km":6.75},{"id":0,"code_insee":"11425","nom_standard":"Villegailhenc","nom_a":null,"nom_de":null,"slug_ville":"villegailhenc","departement_id":0,"code_postal":"11600","population":1718,"superficie_km2":"504.45","latitude_centre":"43.2728","longitude_centre":"2.3484","distance_km":7.43},{"id":0,"code_insee":"11410","nom_standard":"Villalier","nom_a":null,"nom_de":null,"slug_ville":"villalier","departement_id":0,"code_postal":"11600","population":972,"superficie_km2":"804.23","latitude_centre":"43.2507","longitude_centre":"2.4191","distance_km":7.92},{"id":12927,"code_insee":"11056","nom_standard":"Cabrespine","nom_a":null,"nom_de":null,"slug_ville":"cabrespine","departement_id":0,"code_postal":"11160","population":185,"superficie_km2":"1816.66","latitude_centre":"43.3746","longitude_centre":"2.4771","distance_km":7.95},{"id":13029,"code_insee":"11180","nom_standard":"Labastide-Esparbairenque","nom_a":null,"nom_de":null,"slug_ville":"labastide-esparbairenque","departement_id":0,"code_postal":"11380","population":66,"superficie_km2":"1717.31","latitude_centre":"43.3953","longitude_centre":"2.4085","distance_km":8.19},{"id":13057,"code_insee":"11215","nom_standard":"Malves-en-Minervois","nom_a":null,"nom_de":null,"slug_ville":"malves-en-minervois","departement_id":0,"code_postal":"11600","population":888,"superficie_km2":"506.69","latitude_centre":"43.2496","longitude_centre":"2.4512","distance_km":8.66},{"id":0,"code_insee":"11429","nom_standard":"Villemoustaussou","nom_a":null,"nom_de":null,"slug_ville":"villemoustaussou","departement_id":0,"code_postal":"11620","population":4401,"superficie_km2":"1263.48","latitude_centre":"43.2491","longitude_centre":"2.3712","distance_km":8.69},{"id":13139,"code_insee":"11319","nom_standard":"Roquefère","nom_a":null,"nom_de":null,"slug_ville":"roquefere","departement_id":0,"code_postal":"11380","population":69,"superficie_km2":"822.33","latitude_centre":"43.3965","longitude_centre":"2.379","distance_km":8.71},{"id":13121,"code_insee":"11297","nom_standard":"Pradelles-Cabardès","nom_a":null,"nom_de":null,"slug_ville":"pradelles-cabardes","departement_id":0,"code_postal":"11380","population":160,"superficie_km2":"2133.48","latitude_centre":"43.4077","longitude_centre":"2.4374","distance_km":9.8}]}