{"ville":{"id":18445,"code_insee":"2B303","nom_standard":"San-Giuliano","nom_a":null,"nom_de":null,"slug_ville":"san-giuliano","departement_id":0,"code_postal":"20230","population":812,"superficie_km2":"2374.60","latitude_centre":"42.2844","longitude_centre":"9.5211","dep_code":"2B","dep_nom":"Haute-Corse","dep_slug":"haute-corse","reg_code":"94","reg_nom":"Corse","reg_slug":"corse"},"departement":{"code":"2B","nom":"Haute-Corse","slug":"haute-corse"},"region":{"code":"94","nom":"Corse","slug":"corse"},"villes_proches":[{"id":18318,"code_insee":"2B088","nom_standard":"Chiatra","nom_a":null,"nom_de":null,"slug_ville":"chiatra","departement_id":0,"code_postal":"20230","population":231,"superficie_km2":"827.47","latitude_centre":"42.2854","longitude_centre":"9.4867","distance_km":2.83},{"id":18298,"code_insee":"2B057","nom_standard":"Canale-di-Verde","nom_a":null,"nom_de":null,"slug_ville":"canale-di-verde","departement_id":0,"code_postal":"20230","population":302,"superficie_km2":"1460.43","latitude_centre":"42.2634","longitude_centre":"9.4997","distance_km":2.92},{"id":0,"code_insee":"2B087","nom_standard":"Cervione","nom_a":null,"nom_de":null,"slug_ville":"cervione","departement_id":0,"code_postal":"20221","population":2149,"superficie_km2":"1147.98","latitude_centre":"42.3193","longitude_centre":"9.5114","distance_km":3.96},{"id":18439,"code_insee":"2B293","nom_standard":"Sant'Andréa-di-Cotone","nom_a":null,"nom_de":null,"slug_ville":"sant-andrea-di-cotone","departement_id":0,"code_postal":"20221","population":193,"superficie_km2":"879.27","latitude_centre":"42.3187","longitude_centre":"9.4768","distance_km":5.27},{"id":0,"code_insee":"2B335","nom_standard":"Valle-di-Campoloro","nom_a":null,"nom_de":null,"slug_ville":"valle-di-campoloro","departement_id":0,"code_postal":"20221","population":336,"superficie_km2":"568.94","latitude_centre":"42.3335","longitude_centre":"9.511","distance_km":5.52},{"id":18397,"code_insee":"2B225","nom_standard":"Pietra-di-Verde","nom_a":null,"nom_de":null,"slug_ville":"pietra-di-verde","departement_id":0,"code_postal":"20230","population":102,"superficie_km2":"872.58","latitude_centre":"42.2898","longitude_centre":"9.4443","distance_km":6.35},{"id":0,"code_insee":"2B311","nom_standard":"Santa-Maria-Poggio","nom_a":null,"nom_de":null,"slug_ville":"santa-maria-poggio","departement_id":0,"code_postal":"20221","population":807,"superficie_km2":"1021.15","latitude_centre":"42.3499","longitude_centre":"9.509","distance_km":7.35},{"id":18377,"code_insee":"2B194","nom_standard":"Ortale","nom_a":null,"nom_de":null,"slug_ville":"ortale","departement_id":0,"code_postal":"20234","population":25,"superficie_km2":"416.53","latitude_centre":"42.3105","longitude_centre":"9.4365","distance_km":7.54},{"id":0,"code_insee":"2B328","nom_standard":"Tox","nom_a":null,"nom_de":null,"slug_ville":"tox","departement_id":0,"code_postal":"20270","population":96,"superficie_km2":"1457.18","latitude_centre":"42.2454","longitude_centre":"9.4436","distance_km":7.71},{"id":0,"code_insee":"2B143","nom_standard":"Linguizzetta","nom_a":null,"nom_de":null,"slug_ville":"linguizzetta","departement_id":0,"code_postal":"20230","population":1166,"superficie_km2":"6476.96","latitude_centre":"42.2144","longitude_centre":"9.5014","distance_km":7.95},{"id":18295,"code_insee":"2B053","nom_standard":"Campi","nom_a":null,"nom_de":null,"slug_ville":"campi","departement_id":0,"code_postal":"20270","population":19,"superficie_km2":"486.42","latitude_centre":"42.268","longitude_centre":"9.424","distance_km":8.19},{"id":0,"code_insee":"2B334","nom_standard":"Valle-d'Alesani","nom_a":null,"nom_de":null,"slug_ville":"valle-d-alesani","departement_id":0,"code_postal":"20234","population":124,"superficie_km2":"961.99","latitude_centre":"42.3269","longitude_centre":"9.4318","distance_km":8.73},{"id":18352,"code_insee":"2B161","nom_standard":"Moïta","nom_a":null,"nom_de":null,"slug_ville":"moita","departement_id":0,"code_postal":"20270","population":59,"superficie_km2":"570.07","latitude_centre":"42.2802","longitude_centre":"9.4136","distance_km":8.86},{"id":0,"code_insee":"2B317","nom_standard":"Santa-Reparata-di-Moriani","nom_a":null,"nom_de":null,"slug_ville":"santa-reparata-di-moriani","departement_id":0,"code_postal":"20230","population":52,"superficie_km2":"900.12","latitude_centre":"42.3515","longitude_centre":"9.4553","distance_km":9.22},{"id":18367,"code_insee":"2B179","nom_standard":"Novale","nom_a":null,"nom_de":null,"slug_ville":"novale","departement_id":0,"code_postal":"20234","population":57,"superficie_km2":"493.32","latitude_centre":"42.3034","longitude_centre":"9.411","distance_km":9.3},{"id":0,"code_insee":"2B313","nom_standard":"San-Nicolao","nom_a":null,"nom_de":null,"slug_ville":"san-nicolao","departement_id":0,"code_postal":"20230","population":2062,"superficie_km2":"765.60","latitude_centre":"42.3687","longitude_centre":"9.5068","distance_km":9.45},{"id":18329,"code_insee":"2B111","nom_standard":"Felce","nom_a":null,"nom_de":null,"slug_ville":"felce","departement_id":0,"code_postal":"20234","population":54,"superficie_km2":"470.81","latitude_centre":"42.3467","longitude_centre":"9.4278","distance_km":10.34},{"id":18444,"code_insee":"2B302","nom_standard":"San-Giovanni-di-Moriani","nom_a":null,"nom_de":null,"slug_ville":"san-giovanni-di-moriani","departement_id":0,"code_postal":"20230","population":102,"superficie_km2":"1009.19","latitude_centre":"42.3714","longitude_centre":"9.4607","distance_km":10.87},{"id":0,"code_insee":"2B307","nom_standard":"Santa-Lucia-di-Moriani","nom_a":null,"nom_de":null,"slug_ville":"santa-lucia-di-moriani","departement_id":0,"code_postal":"20230","population":1514,"superficie_km2":"609.86","latitude_centre":"42.3841","longitude_centre":"9.5089","distance_km":11.13},{"id":0,"code_insee":"2B320","nom_standard":"Tallone","nom_a":null,"nom_de":null,"slug_ville":"tallone","departement_id":0,"code_postal":"20270","population":288,"superficie_km2":"6996.06","latitude_centre":"42.1897","longitude_centre":"9.4697","distance_km":11.35}]}