{"ville":{"id":9738,"code_insee":"94070","nom_standard":"Santeny","nom_a":null,"nom_de":null,"slug_ville":"santeny","departement_id":695,"code_postal":"94440","population":4003,"superficie_km2":"10.00","latitude_centre":"48.7360001","longitude_centre":"2.5760000","dep_code":"94","dep_nom":"Val-de-Marne","dep_slug":"val-de-marne","reg_code":"10","reg_nom":"Île-de-France","reg_slug":"ile-de-france"},"departement":{"code":"94","nom":"Val-de-Marne","slug":"val-de-marne"},"region":{"code":"10","nom":"Île-de-France","slug":"ile-de-france"},"villes_proches":[{"id":9725,"code_insee":"94048","nom_standard":"Marolles-en-Brie","nom_a":null,"nom_de":null,"slug_ville":"marolles-en-brie","departement_id":695,"code_postal":"94440","population":4689,"superficie_km2":"5.00","latitude_centre":"48.7400017","longitude_centre":"2.5550001","distance_km":1.6},{"id":8283,"code_insee":"77450","nom_standard":"Servon","nom_a":null,"nom_de":null,"slug_ville":"servon","departement_id":678,"code_postal":"77170","population":3396,"superficie_km2":"7.00","latitude_centre":"48.7150002","longitude_centre":"2.5920000","distance_km":2.61},{"id":8191,"code_insee":"77249","nom_standard":"Lésigny","nom_a":null,"nom_de":null,"slug_ville":"lesigny","departement_id":678,"code_postal":"77150","population":7102,"superficie_km2":"10.00","latitude_centre":"48.7500000","longitude_centre":"2.6159999","distance_km":3.32},{"id":9742,"code_insee":"94075","nom_standard":"Villecresnes","nom_a":null,"nom_de":null,"slug_ville":"villecresnes","departement_id":695,"code_postal":"94440","population":11642,"superficie_km2":"6.00","latitude_centre":"48.7210007","longitude_centre":"2.5320001","distance_km":3.63},{"id":9724,"code_insee":"94047","nom_standard":"Mandres-les-Roses","nom_a":null,"nom_de":null,"slug_ville":"mandres-les-roses","departement_id":695,"code_postal":"94520","population":4825,"superficie_km2":"3.00","latitude_centre":"48.7060013","longitude_centre":"2.5480001","distance_km":3.92},{"id":9705,"code_insee":"94004","nom_standard":"Boissy-Saint-Léger","nom_a":null,"nom_de":null,"slug_ville":"boissy-saint-leger","departement_id":695,"code_postal":"94470","population":17570,"superficie_km2":"9.00","latitude_centre":"48.7470017","longitude_centre":"2.5250001","distance_km":3.93},{"id":9730,"code_insee":"94056","nom_standard":"Périgny","nom_a":null,"nom_de":null,"slug_ville":"perigny","departement_id":695,"code_postal":"94520","population":2725,"superficie_km2":"3.00","latitude_centre":"48.6969986","longitude_centre":"2.5620000","distance_km":4.46},{"id":9727,"code_insee":"94053","nom_standard":"Noiseau","nom_a":null,"nom_de":null,"slug_ville":"noiseau","departement_id":695,"code_postal":"94880","population":4610,"superficie_km2":"5.00","latitude_centre":"48.7739983","longitude_centre":"2.5550001","distance_km":4.5},{"id":9739,"code_insee":"94071","nom_standard":"Sucy-en-Brie","nom_a":null,"nom_de":null,"slug_ville":"sucy-en-brie","departement_id":695,"code_postal":"94370","population":27622,"superficie_km2":"10.00","latitude_centre":"48.7659988","longitude_centre":"2.5330000","distance_km":4.59},{"id":8163,"code_insee":"77180","nom_standard":"Férolles-Attilly","nom_a":null,"nom_de":null,"slug_ville":"ferolles-attilly","departement_id":678,"code_postal":"77150","population":1255,"superficie_km2":"13.00","latitude_centre":"48.7340012","longitude_centre":"2.6389999","distance_km":4.63},{"id":9733,"code_insee":"94060","nom_standard":"La Queue-en-Brie","nom_a":null,"nom_de":null,"slug_ville":"la-queue-en-brie","departement_id":695,"code_postal":"94510","population":12081,"superficie_km2":"9.00","latitude_centre":"48.7779999","longitude_centre":"2.5840001","distance_km":4.71},{"id":8103,"code_insee":"77053","nom_standard":"Brie-Comte-Robert","nom_a":null,"nom_de":null,"slug_ville":"brie-comte-robert","departement_id":678,"code_postal":"77170","population":19213,"superficie_km2":"20.00","latitude_centre":"48.6920013","longitude_centre":"2.6140001","distance_km":5.63},{"id":9509,"code_insee":"91097","nom_standard":"Boussy-Saint-Antoine","nom_a":null,"nom_de":null,"slug_ville":"boussy-saint-antoine","departement_id":692,"code_postal":"91800","population":7980,"superficie_km2":"3.00","latitude_centre":"48.6899986","longitude_centre":"2.5339999","distance_km":5.97},{"id":9608,"code_insee":"91631","nom_standard":"Varennes-Jarcy","nom_a":null,"nom_de":null,"slug_ville":"varennes-jarcy","departement_id":692,"code_postal":"91480","population":2296,"superficie_km2":"6.00","latitude_centre":"48.6819992","longitude_centre":"2.5620000","distance_km":6.09},{"id":9729,"code_insee":"94055","nom_standard":"Ormesson-sur-Marne","nom_a":null,"nom_de":null,"slug_ville":"ormesson-sur-marne","departement_id":695,"code_postal":"94490","population":10540,"superficie_km2":"3.00","latitude_centre":"48.7859993","longitude_centre":"2.5390000","distance_km":6.19},{"id":8246,"code_insee":"77373","nom_standard":"Pontault-Combault","nom_a":null,"nom_de":null,"slug_ville":"pontault-combault","departement_id":678,"code_postal":"77340","population":38258,"superficie_km2":"14.00","latitude_centre":"48.7869988","longitude_centre":"2.6140001","distance_km":6.32},{"id":9722,"code_insee":"94044","nom_standard":"Limeil-Brévannes","nom_a":null,"nom_de":null,"slug_ville":"limeil-brevannes","departement_id":695,"code_postal":"94450","population":27999,"superficie_km2":"7.00","latitude_centre":"48.7449989","longitude_centre":"2.4890001","distance_km":6.46},{"id":9624,"code_insee":"91691","nom_standard":"Yerres","nom_a":null,"nom_de":null,"slug_ville":"yerres","departement_id":692,"code_postal":"91330","population":28699,"superficie_km2":"10.00","latitude_centre":"48.7159996","longitude_centre":"2.4930000","distance_km":6.48},{"id":9516,"code_insee":"91114","nom_standard":"Brunoy","nom_a":null,"nom_de":null,"slug_ville":"brunoy","departement_id":692,"code_postal":"91800","population":25423,"superficie_km2":"7.00","latitude_centre":"48.6959992","longitude_centre":"2.5039999","distance_km":6.91},{"id":9535,"code_insee":"91215","nom_standard":"Épinay-sous-Sénart","nom_a":null,"nom_de":null,"slug_ville":"epinay-sous-senart","departement_id":692,"code_postal":"91860","population":11869,"superficie_km2":"4.00","latitude_centre":"48.6870003","longitude_centre":"2.5160000","distance_km":7}]}