{"ville":{"id":3969,"code_insee":"40293","nom_standard":"Saubusse","nom_a":null,"nom_de":null,"slug_ville":"saubusse","departement_id":641,"code_postal":"40180","population":1097,"superficie_km2":"10.00","latitude_centre":"43.6689987","longitude_centre":"-1.1860000","dep_code":"40","dep_nom":"Landes","dep_slug":"landes","reg_code":"15","reg_nom":"Nouvelle-Aquitaine","reg_slug":"nouvelle-aquitaine"},"departement":{"code":"40","nom":"Landes","slug":"landes"},"region":{"code":"15","nom":"Nouvelle-Aquitaine","slug":"nouvelle-aquitaine"},"villes_proches":[{"id":3944,"code_insee":"40244","nom_standard":"Rivière-Saas-et-Gourby","nom_a":null,"nom_de":null,"slug_ville":"riviere-saas-et-gourby","departement_id":641,"code_postal":"40180","population":1374,"superficie_km2":"28.00","latitude_centre":"43.6990013","longitude_centre":"-1.1720001","distance_km":3.52},{"id":3949,"code_insee":"40261","nom_standard":"Saint-Geours-de-Maremne","nom_a":null,"nom_de":null,"slug_ville":"saint-geours-de-maremne","departement_id":641,"code_postal":"40230","population":2868,"superficie_km2":"43.00","latitude_centre":"43.6870003","longitude_centre":"-1.2359999","distance_km":4.49},{"id":3980,"code_insee":"40314","nom_standard":"Tercis-les-Bains","nom_a":null,"nom_de":null,"slug_ville":"tercis-les-bains","departement_id":641,"code_postal":"40180","population":1307,"superficie_km2":"10.00","latitude_centre":"43.6710014","longitude_centre":"-1.1150000","distance_km":5.71},{"id":3953,"code_insee":"40269","nom_standard":"Saint-Lon-les-Mines","nom_a":null,"nom_de":null,"slug_ville":"saint-lon-les-mines","departement_id":641,"code_postal":"40300","population":1238,"superficie_km2":"22.00","latitude_centre":"43.6209984","longitude_centre":"-1.1339999","distance_km":6.78},{"id":3922,"code_insee":"40179","nom_standard":"Mées","nom_a":null,"nom_de":null,"slug_ville":"mees","departement_id":641,"code_postal":"40990","population":1904,"superficie_km2":"15.00","latitude_centre":"43.7099991","longitude_centre":"-1.1220000","distance_km":6.87},{"id":3950,"code_insee":"40264","nom_standard":"Saint-Jean-de-Marsacq","nom_a":null,"nom_de":null,"slug_ville":"saint-jean-de-marsacq","departement_id":641,"code_postal":"40230","population":1779,"superficie_km2":"26.00","latitude_centre":"43.6189995","longitude_centre":"-1.2620000","distance_km":8.26},{"id":3931,"code_insee":"40207","nom_standard":"Oeyreluy","nom_a":null,"nom_de":null,"slug_ville":"oeyreluy","departement_id":641,"code_postal":"40180","population":1508,"superficie_km2":"6.00","latitude_centre":"43.6730003","longitude_centre":"-1.0779999","distance_km":8.7},{"id":3911,"code_insee":"40125","nom_standard":"Heugas","nom_a":null,"nom_de":null,"slug_ville":"heugas","departement_id":641,"code_postal":"40180","population":1375,"superficie_km2":"19.00","latitude_centre":"43.6440010","longitude_centre":"-1.0820000","distance_km":8.82},{"id":3963,"code_insee":"40284","nom_standard":"Saint-Vincent-de-Tyrosse","nom_a":null,"nom_de":null,"slug_ville":"saint-vincent-de-tyrosse","departement_id":641,"code_postal":"40230","population":7956,"superficie_km2":"21.00","latitude_centre":"43.6590004","longitude_centre":"-1.3000000","distance_km":9.24},{"id":3973,"code_insee":"40300","nom_standard":"Seyresse","nom_a":null,"nom_de":null,"slug_ville":"seyresse","departement_id":641,"code_postal":"40180","population":1016,"superficie_km2":"2.00","latitude_centre":"43.6829987","longitude_centre":"-1.0599999","distance_km":10.25},{"id":3904,"code_insee":"40088","nom_standard":"Dax","nom_a":null,"nom_de":null,"slug_ville":"dax","departement_id":641,"code_postal":"40100","population":21347,"superficie_km2":"20.00","latitude_centre":"43.7010002","longitude_centre":"-1.0599999","distance_km":10.74},{"id":3981,"code_insee":"40317","nom_standard":"Tosse","nom_a":null,"nom_de":null,"slug_ville":"tosse","departement_id":641,"code_postal":"40230","population":3348,"superficie_km2":"18.00","latitude_centre":"43.6980019","longitude_centre":"-1.3170000","distance_km":11.02},{"id":3941,"code_insee":"40231","nom_standard":"Port-de-Lanne","nom_a":null,"nom_de":null,"slug_ville":"port-de-lanne","departement_id":641,"code_postal":"40300","population":1217,"superficie_km2":"13.00","latitude_centre":"43.5680008","longitude_centre":"-1.1799999","distance_km":11.24},{"id":3921,"code_insee":"40168","nom_standard":"Magescq","nom_a":null,"nom_de":null,"slug_ville":"magescq","departement_id":641,"code_postal":"40140","population":2493,"superficie_km2":"77.00","latitude_centre":"43.7739983","longitude_centre":"-1.2000000","distance_km":11.73},{"id":3967,"code_insee":"40291","nom_standard":"Saubion","nom_a":null,"nom_de":null,"slug_ville":"saubion","departement_id":641,"code_postal":"40230","population":1791,"superficie_km2":"8.00","latitude_centre":"43.6739998","longitude_centre":"-1.3329999","distance_km":11.84},{"id":3958,"code_insee":"40279","nom_standard":"Saint-Paul-lès-Dax","nom_a":null,"nom_de":null,"slug_ville":"saint-paul-les-dax","departement_id":641,"code_postal":"40990","population":14317,"superficie_km2":"58.00","latitude_centre":"43.7459984","longitude_centre":"-1.0810000","distance_km":12.02},{"id":3934,"code_insee":"40212","nom_standard":"Orthevielle","nom_a":null,"nom_de":null,"slug_ville":"orthevielle","departement_id":641,"code_postal":"40300","population":1040,"superficie_km2":"14.00","latitude_centre":"43.5639992","longitude_centre":"-1.1470000","distance_km":12.09},{"id":3955,"code_insee":"40272","nom_standard":"Saint-Martin-de-Hinx","nom_a":null,"nom_de":null,"slug_ville":"saint-martin-de-hinx","departement_id":641,"code_postal":"40390","population":1717,"superficie_km2":"26.00","latitude_centre":"43.5810013","longitude_centre":"-1.2770000","distance_km":12.22},{"id":3968,"code_insee":"40292","nom_standard":"Saubrigues","nom_a":null,"nom_de":null,"slug_ville":"saubrigues","departement_id":641,"code_postal":"40230","population":1571,"superficie_km2":"21.00","latitude_centre":"43.6080017","longitude_centre":"-1.3220000","distance_km":12.88},{"id":3954,"code_insee":"40271","nom_standard":"Sainte-Marie-de-Gosse","nom_a":null,"nom_de":null,"slug_ville":"sainte-marie-de-gosse","departement_id":641,"code_postal":"40390","population":1214,"superficie_km2":"26.00","latitude_centre":"43.5519981","longitude_centre":"-1.2330000","distance_km":13.55}]}