{"ville":{"id":14899,"code_insee":"18245","nom_standard":"Saulzais-le-Potier","nom_a":null,"nom_de":null,"slug_ville":"saulzais-le-potier","departement_id":0,"code_postal":"18360","population":472,"superficie_km2":"3299.68","latitude_centre":"46.5988","longitude_centre":"2.4872","dep_code":"18","dep_nom":"Cher","dep_slug":"cher","reg_code":"24","reg_nom":"Centre-Val de Loire","reg_slug":"centre-val-de-loire"},"departement":{"code":"18","nom":"Cher","slug":"cher"},"region":{"code":"24","nom":"Centre-Val de Loire","slug":"centre-val-de-loire"},"villes_proches":[{"id":14780,"code_insee":"18093","nom_standard":"Faverdines","nom_a":null,"nom_de":null,"slug_ville":"faverdines","departement_id":0,"code_postal":"18360","population":135,"superficie_km2":"1884.96","latitude_centre":"46.6337","longitude_centre":"2.4627","distance_km":4.31},{"id":14736,"code_insee":"18041","nom_standard":"La Celette","nom_a":null,"nom_de":null,"slug_ville":"la-celette","departement_id":0,"code_postal":"18360","population":205,"superficie_km2":"2530.30","latitude_centre":"46.6363","longitude_centre":"2.5272","distance_km":5.17},{"id":14777,"code_insee":"18089","nom_standard":"Épineuil-le-Fleuriel","nom_a":null,"nom_de":null,"slug_ville":"epineuil-le-fleuriel","departement_id":0,"code_postal":"18360","population":436,"superficie_km2":"4258.86","latitude_centre":"46.5738","longitude_centre":"2.5514","distance_km":5.64},{"id":0,"code_insee":"18278","nom_standard":"Vesdun","nom_a":null,"nom_de":null,"slug_ville":"vesdun","departement_id":0,"code_postal":"18360","population":540,"superficie_km2":"4994.38","latitude_centre":"46.5594","longitude_centre":"2.4345","distance_km":5.95},{"id":14868,"code_insee":"18203","nom_standard":"Saint-Christophe-le-Chaudry","nom_a":null,"nom_de":null,"slug_ville":"saint-christophe-le-chaudry","departement_id":0,"code_postal":"18270","population":95,"superficie_km2":"1755.84","latitude_centre":"46.5878","longitude_centre":"2.3934","distance_km":7.27},{"id":14895,"code_insee":"18238","nom_standard":"Saint-Vitte","nom_a":null,"nom_de":null,"slug_ville":"saint-vitte","departement_id":0,"code_postal":"18360","population":117,"superficie_km2":"1669.41","latitude_centre":"46.5395","longitude_centre":"2.5292","distance_km":7.33},{"id":14807,"code_insee":"18130","nom_standard":"Loye-sur-Arnon","nom_a":null,"nom_de":null,"slug_ville":"loye-sur-arnon","departement_id":0,"code_postal":"18170","population":305,"superficie_km2":"3463.68","latitude_centre":"46.6338","longitude_centre":"2.402","distance_km":7.58},{"id":14845,"code_insee":"18178","nom_standard":"La Perche","nom_a":null,"nom_de":null,"slug_ville":"la-perche","departement_id":0,"code_postal":"18200","population":205,"superficie_km2":"1043.14","latitude_centre":"46.6309","longitude_centre":"2.5751","distance_km":7.6},{"id":14709,"code_insee":"18002","nom_standard":"Ainay-le-Vieil","nom_a":null,"nom_de":null,"slug_ville":"ainay-le-vieil","departement_id":0,"code_postal":"18200","population":189,"superficie_km2":"1382.79","latitude_centre":"46.6573","longitude_centre":"2.5413","distance_km":7.71},{"id":14871,"code_insee":"18209","nom_standard":"Saint-Georges-de-Poisieux","nom_a":null,"nom_de":null,"slug_ville":"saint-georges-de-poisieux","departement_id":0,"code_postal":"18200","population":430,"superficie_km2":"1594.16","latitude_centre":"46.6838","longitude_centre":"2.4808","distance_km":9.46},{"id":14713,"code_insee":"18009","nom_standard":"Arcomps","nom_a":null,"nom_de":null,"slug_ville":"arcomps","departement_id":0,"code_postal":"18200","population":280,"superficie_km2":"2059.63","latitude_centre":"46.6743","longitude_centre":"2.4197","distance_km":9.85},{"id":14791,"code_insee":"18107","nom_standard":"La Groutte","nom_a":null,"nom_de":null,"slug_ville":"la-groutte","departement_id":0,"code_postal":"18200","population":115,"superficie_km2":"293.03","latitude_centre":"46.6891","longitude_centre":"2.5117","distance_km":10.21},{"id":0,"code_insee":"03297","nom_standard":"Vallon-en-Sully","nom_a":null,"nom_de":null,"slug_ville":"vallon-en-sully","departement_id":0,"code_postal":"03190","population":1457,"superficie_km2":"3797.97","latitude_centre":"46.5467","longitude_centre":"2.6012","distance_km":10.46},{"id":11013,"code_insee":"03143","nom_standard":"Lételon","nom_a":null,"nom_de":null,"slug_ville":"letelon","departement_id":0,"code_postal":"03360","population":93,"superficie_km2":"631.35","latitude_centre":"46.6582","longitude_centre":"2.5954","distance_km":10.58},{"id":11080,"code_insee":"03225","nom_standard":"Saint-Désiré","nom_a":null,"nom_de":null,"slug_ville":"saint-desire","departement_id":0,"code_postal":"03370","population":424,"superficie_km2":"4247.46","latitude_centre":"46.5057","longitude_centre":"2.4521","distance_km":10.69},{"id":14775,"code_insee":"18086","nom_standard":"Drevant","nom_a":null,"nom_de":null,"slug_ville":"drevant","departement_id":0,"code_postal":"18200","population":555,"superficie_km2":"482.90","latitude_centre":"46.6977","longitude_centre":"2.5242","distance_km":11.35},{"id":14730,"code_insee":"18034","nom_standard":"Bouzais","nom_a":null,"nom_de":null,"slug_ville":"bouzais","departement_id":0,"code_postal":"18200","population":273,"superficie_km2":"334.16","latitude_centre":"46.7045","longitude_centre":"2.4684","distance_km":11.84},{"id":14760,"code_insee":"18069","nom_standard":"Colombiers","nom_a":null,"nom_de":null,"slug_ville":"colombiers","departement_id":0,"code_postal":"18200","population":409,"superficie_km2":"966.78","latitude_centre":"46.6983","longitude_centre":"2.5584","distance_km":12.33},{"id":10962,"code_insee":"03072","nom_standard":"Chazemais","nom_a":null,"nom_de":null,"slug_ville":"chazemais","departement_id":0,"code_postal":"03370","population":504,"superficie_km2":"2927.36","latitude_centre":"46.4841","longitude_centre":"2.5147","distance_km":12.93},{"id":0,"code_insee":"18172","nom_standard":"Orval","nom_a":null,"nom_de":null,"slug_ville":"orval","departement_id":0,"code_postal":"18200","population":1619,"superficie_km2":"765.38","latitude_centre":"46.723","longitude_centre":"2.4676","distance_km":13.89}]}