{"ville":{"id":34600,"code_insee":"88446","nom_standard":"Saulxures-lès-Bulgnéville","nom_a":null,"nom_de":null,"slug_ville":"saulxures-les-bulgneville","departement_id":0,"code_postal":"88140","population":227,"superficie_km2":"958.78","latitude_centre":"48.1901","longitude_centre":"5.8152","dep_code":"88","dep_nom":"Vosges","dep_slug":"vosges","reg_code":"44","reg_nom":"Grand Est","reg_slug":"grand-est"},"departement":{"code":"88","nom":"Vosges","slug":"vosges"},"region":{"code":"44","nom":"Grand Est","slug":"grand-est"},"villes_proches":[{"id":0,"code_insee":"88079","nom_standard":"Bulgnéville","nom_a":null,"nom_de":null,"slug_ville":"bulgneville","departement_id":0,"code_postal":"88140","population":1516,"superficie_km2":"1334.67","latitude_centre":"48.212","longitude_centre":"5.8412","distance_km":3.11},{"id":0,"code_insee":"88496","nom_standard":"Vaudoncourt","nom_a":null,"nom_de":null,"slug_ville":"vaudoncourt","departement_id":0,"code_postal":"88140","population":146,"superficie_km2":"575.32","latitude_centre":"48.2223","longitude_centre":"5.8035","distance_km":3.68},{"id":34585,"code_insee":"88430","nom_standard":"Saint-Ouen-lès-Parey","nom_a":null,"nom_de":null,"slug_ville":"saint-ouen-les-parey","departement_id":0,"code_postal":"88140","population":487,"superficie_km2":"2133.48","latitude_centre":"48.1681","longitude_centre":"5.7752","distance_km":3.84},{"id":34244,"code_insee":"88003","nom_standard":"Aingeville","nom_a":null,"nom_de":null,"slug_ville":"aingeville","departement_id":0,"code_postal":"88140","population":60,"superficie_km2":"572.61","latitude_centre":"48.206","longitude_centre":"5.7659","distance_km":4.06},{"id":0,"code_insee":"88461","nom_standard":"Suriauville","nom_a":null,"nom_de":null,"slug_ville":"suriauville","departement_id":0,"code_postal":"88140","population":200,"superficie_km2":"1348.58","latitude_centre":"48.168","longitude_centre":"5.8649","distance_km":4.43},{"id":34337,"code_insee":"88119","nom_standard":"Crainvilliers","nom_a":null,"nom_de":null,"slug_ville":"crainvilliers","departement_id":0,"code_postal":"88140","population":182,"superficie_km2":"1041.21","latitude_centre":"48.1497","longitude_centre":"5.8382","distance_km":4.81},{"id":0,"code_insee":"88482","nom_standard":"Urville","nom_a":null,"nom_de":null,"slug_ville":"urville","departement_id":0,"code_postal":"88140","population":54,"superficie_km2":"395.55","latitude_centre":"48.1895","longitude_centre":"5.7475","distance_km":5.02},{"id":0,"code_insee":"88485","nom_standard":"La Vacheresse-et-la-Rouillie","nom_a":null,"nom_de":null,"slug_ville":"la-vacheresse-et-la-rouillie","departement_id":0,"code_postal":"88140","population":134,"superficie_km2":"940.02","latitude_centre":"48.1469","longitude_centre":"5.7952","distance_km":5.03},{"id":34506,"code_insee":"88316","nom_standard":"Morville","nom_a":null,"nom_de":null,"slug_ville":"morville","departement_id":0,"code_postal":"88140","population":42,"superficie_km2":"345.54","latitude_centre":"48.234","longitude_centre":"5.7951","distance_km":5.1},{"id":34474,"code_insee":"88283","nom_standard":"Malaincourt","nom_a":null,"nom_de":null,"slug_ville":"malaincourt","departement_id":0,"code_postal":"88140","population":80,"superficie_km2":"602.69","latitude_centre":"48.2265","longitude_centre":"5.7673","distance_km":5.38},{"id":0,"code_insee":"88114","nom_standard":"Contrexéville","nom_a":null,"nom_de":null,"slug_ville":"contrexeville","departement_id":0,"code_postal":"88140","population":2923,"superficie_km2":"1504.04","latitude_centre":"48.186","longitude_centre":"5.8906","distance_km":5.61},{"id":34259,"code_insee":"88022","nom_standard":"Auzainvilliers","nom_a":null,"nom_de":null,"slug_ville":"auzainvilliers","departement_id":0,"code_postal":"88140","population":191,"superficie_km2":"823.85","latitude_centre":"48.2375","longitude_centre":"5.8559","distance_km":6.07},{"id":34476,"code_insee":"88285","nom_standard":"Mandres-sur-Vair","nom_a":null,"nom_de":null,"slug_ville":"mandres-sur-vair","departement_id":0,"code_postal":"88800","population":421,"superficie_km2":"1200.84","latitude_centre":"48.2212","longitude_centre":"5.8867","distance_km":6.33},{"id":34424,"code_insee":"88227","nom_standard":"Hagnéville-et-Roncourt","nom_a":null,"nom_de":null,"slug_ville":"hagneville-et-roncourt","departement_id":0,"code_postal":"88300","population":78,"superficie_km2":"855.51","latitude_centre":"48.2459","longitude_centre":"5.7871","distance_km":6.54},{"id":34487,"code_insee":"88296","nom_standard":"Médonville","nom_a":null,"nom_de":null,"slug_ville":"medonville","departement_id":0,"code_postal":"88140","population":52,"superficie_km2":"735.52","latitude_centre":"48.2151","longitude_centre":"5.7336","distance_km":6.66},{"id":0,"code_insee":"88448","nom_standard":"Sauville","nom_a":null,"nom_de":null,"slug_ville":"sauville","departement_id":0,"code_postal":"88140","population":168,"superficie_km2":"1455.06","latitude_centre":"48.1473","longitude_centre":"5.7415","distance_km":7.25},{"id":34595,"code_insee":"88440","nom_standard":"Sandaucourt","nom_a":null,"nom_de":null,"slug_ville":"sandaucourt","departement_id":0,"code_postal":"88170","population":181,"superficie_km2":"1082.68","latitude_centre":"48.2609","longitude_centre":"5.846","distance_km":8.2},{"id":34255,"code_insee":"88017","nom_standard":"Aulnois","nom_a":null,"nom_de":null,"slug_ville":"aulnois","departement_id":0,"code_postal":"88300","population":159,"superficie_km2":"442.99","latitude_centre":"48.2617","longitude_centre":"5.7787","distance_km":8.41},{"id":34521,"code_insee":"88336","nom_standard":"Ollainville","nom_a":null,"nom_de":null,"slug_ville":"ollainville","departement_id":0,"code_postal":"88170","population":72,"superficie_km2":"631.91","latitude_centre":"48.2701","longitude_centre":"5.8026","distance_km":8.94},{"id":34480,"code_insee":"88289","nom_standard":"Martigny-les-Bains","nom_a":null,"nom_de":null,"slug_ville":"martigny-les-bains","departement_id":0,"code_postal":"88320","population":807,"superficie_km2":"2925.42","latitude_centre":"48.1094","longitude_centre":"5.8075","distance_km":8.99}]}