{"ville":{"id":23278,"code_insee":"50567","nom_standard":"Saussemesnil","nom_a":null,"nom_de":null,"slug_ville":"saussemesnil","departement_id":0,"code_postal":"50700","population":927,"superficie_km2":"2163.05","latitude_centre":"49.5701","longitude_centre":"-1.4914","dep_code":"50","dep_nom":"Manche","dep_slug":"manche","reg_code":"28","reg_nom":"Normandie","reg_slug":"normandie"},"departement":{"code":"50","nom":"Manche","slug":"manche"},"region":{"code":"28","nom":"Normandie","slug":"normandie"},"villes_proches":[{"id":0,"code_insee":"50588","nom_standard":"Tamerville","nom_a":null,"nom_de":null,"slug_ville":"tamerville","departement_id":0,"code_postal":"50700","population":691,"superficie_km2":"1819.99","latitude_centre":"49.5402","longitude_centre":"-1.4675","distance_km":3.75},{"id":23137,"code_insee":"50305","nom_standard":"Le Mesnil-au-Val","nom_a":null,"nom_de":null,"slug_ville":"le-mesnil-au-val","departement_id":0,"code_postal":"50110","population":729,"superficie_km2":"1348.70","latitude_centre":"49.5959","longitude_centre":"-1.5285","distance_km":3.92},{"id":23243,"code_insee":"50498","nom_standard":"Saint-Joseph","nom_a":null,"nom_de":null,"slug_ville":"saint-joseph","departement_id":0,"code_postal":"50700","population":822,"superficie_km2":"982.40","latitude_centre":"49.5346","longitude_centre":"-1.5256","distance_km":4.65},{"id":23150,"code_insee":"50335","nom_standard":"Montaigu-la-Brisette","nom_a":null,"nom_de":null,"slug_ville":"montaigu-la-brisette","departement_id":0,"code_postal":"50700","population":495,"superficie_km2":"1469.29","latitude_centre":"49.5699","longitude_centre":"-1.4162","distance_km":5.42},{"id":0,"code_insee":"50209","nom_standard":"Gonneville-Le Theil","nom_a":null,"nom_de":null,"slug_ville":"gonneville-le-theil","departement_id":0,"code_postal":"50330","population":1513,"superficie_km2":"2938.50","latitude_centre":"49.6205","longitude_centre":"-1.4697","distance_km":5.82},{"id":0,"code_insee":"50615","nom_standard":"Valognes","nom_a":null,"nom_de":null,"slug_ville":"valognes","departement_id":0,"code_postal":"50700","population":6969,"superficie_km2":"1579.56","latitude_centre":"49.5122","longitude_centre":"-1.4758","distance_km":6.54},{"id":0,"code_insee":"50087","nom_standard":"Brix","nom_a":null,"nom_de":null,"slug_ville":"brix","departement_id":0,"code_postal":"50700","population":2165,"superficie_km2":"3220.26","latitude_centre":"49.5521","longitude_centre":"-1.5783","distance_km":6.58},{"id":0,"code_insee":"50593","nom_standard":"Teurthéville-Bocage","nom_a":null,"nom_de":null,"slug_ville":"teurtheville-bocage","departement_id":0,"code_postal":"50630","population":594,"superficie_km2":"2167.84","latitude_centre":"49.5907","longitude_centre":"-1.3959","distance_km":7.26},{"id":0,"code_insee":"50162","nom_standard":"Digosville","nom_a":null,"nom_de":null,"slug_ville":"digosville","departement_id":0,"code_postal":"50110","population":1681,"superficie_km2":"934.56","latitude_centre":"49.6318","longitude_centre":"-1.5278","distance_km":7.35},{"id":23230,"code_insee":"50478","nom_standard":"Saint-Germain-de-Tournebut","nom_a":null,"nom_de":null,"slug_ville":"saint-germain-de-tournebut","departement_id":0,"code_postal":"50700","population":418,"superficie_km2":"1386.57","latitude_centre":"49.5278","longitude_centre":"-1.4008","distance_km":8.05},{"id":23104,"code_insee":"50251","nom_standard":"Huberville","nom_a":null,"nom_de":null,"slug_ville":"huberville","departement_id":0,"code_postal":"50700","population":361,"superficie_km2":"575.11","latitude_centre":"49.5078","longitude_centre":"-1.4293","distance_km":8.25},{"id":23018,"code_insee":"50086","nom_standard":"Brillevast","nom_a":null,"nom_de":null,"slug_ville":"brillevast","departement_id":0,"code_postal":"50330","population":318,"superficie_km2":"915.44","latitude_centre":"49.6251","longitude_centre":"-1.4102","distance_km":8.46},{"id":23169,"code_insee":"50369","nom_standard":"Négreville","nom_a":null,"nom_de":null,"slug_ville":"negreville","departement_id":0,"code_postal":"50260","population":845,"superficie_km2":"1158.76","latitude_centre":"49.5039","longitude_centre":"-1.5507","distance_km":8.51},{"id":0,"code_insee":"50648","nom_standard":"Yvetot-Bocage","nom_a":null,"nom_de":null,"slug_ville":"yvetot-bocage","departement_id":0,"code_postal":"50700","population":1212,"superficie_km2":"1219.25","latitude_centre":"49.4945","longitude_centre":"-1.5129","distance_km":8.55},{"id":0,"code_insee":"50077","nom_standard":"Bretteville","nom_a":null,"nom_de":null,"slug_ville":"bretteville","departement_id":0,"code_postal":"50110","population":1027,"superficie_km2":"579.54","latitude_centre":"49.6514","longitude_centre":"-1.5084","distance_km":9.12},{"id":23131,"code_insee":"50296","nom_standard":"Maupertus-sur-Mer","nom_a":null,"nom_de":null,"slug_ville":"maupertus-sur-mer","departement_id":0,"code_postal":"50330","population":238,"superficie_km2":"343.42","latitude_centre":"49.6566","longitude_centre":"-1.4842","distance_km":9.63},{"id":23116,"code_insee":"50270","nom_standard":"Lieusaint","nom_a":null,"nom_de":null,"slug_ville":"lieusaint","departement_id":0,"code_postal":"50700","population":408,"superficie_km2":"527.74","latitude_centre":"49.4819","longitude_centre":"-1.4724","distance_km":9.9},{"id":23027,"code_insee":"50101","nom_standard":"Carneville","nom_a":null,"nom_de":null,"slug_ville":"carneville","departement_id":0,"code_postal":"50330","population":240,"superficie_km2":"694.66","latitude_centre":"49.6579","longitude_centre":"-1.4493","distance_km":10.22},{"id":23163,"code_insee":"50360","nom_standard":"Morville","nom_a":null,"nom_de":null,"slug_ville":"morville","departement_id":0,"code_postal":"50700","population":277,"superficie_km2":"719.22","latitude_centre":"49.4748","longitude_centre":"-1.5178","distance_km":10.77},{"id":23069,"code_insee":"50186","nom_standard":"Flottemanville","nom_a":null,"nom_de":null,"slug_ville":"flottemanville","departement_id":0,"code_postal":"50700","population":230,"superficie_km2":"486.64","latitude_centre":"49.4755","longitude_centre":"-1.4516","distance_km":10.9}]}