{"ville":{"id":29695,"code_insee":"67456","nom_standard":"Schopperten","nom_a":null,"nom_de":null,"slug_ville":"schopperten","departement_id":0,"code_postal":"67260","population":407,"superficie_km2":"436.37","latitude_centre":"48.9471","longitude_centre":"7.0515","dep_code":"67","dep_nom":"Bas-Rhin","dep_slug":"bas-rhin","reg_code":"44","reg_nom":"Grand Est","reg_slug":"grand-est"},"departement":{"code":"67","nom":"Bas-Rhin","slug":"bas-rhin"},"region":{"code":"44","nom":"Grand Est","slug":"grand-est"},"villes_proches":[{"id":29464,"code_insee":"67047","nom_standard":"Bissert","nom_a":null,"nom_de":null,"slug_ville":"bissert","departement_id":0,"code_postal":"67260","population":153,"superficie_km2":"333.94","latitude_centre":"48.9466","longitude_centre":"7.0168","distance_km":2.53},{"id":0,"code_insee":"67434","nom_standard":"Sarre-Union","nom_a":null,"nom_de":null,"slug_ville":"sarre-union","departement_id":0,"code_postal":"67260","population":2731,"superficie_km2":"1543.01","latitude_centre":"48.9443","longitude_centre":"7.0862","distance_km":2.55},{"id":29544,"code_insee":"67183","nom_standard":"Harskirchen","nom_a":null,"nom_de":null,"slug_ville":"harskirchen","departement_id":0,"code_postal":"67260","population":895,"superficie_km2":"1453.79","latitude_centre":"48.9262","longitude_centre":"7.0234","distance_km":3.1},{"id":0,"code_insee":"67234","nom_standard":"Keskastel","nom_a":null,"nom_de":null,"slug_ville":"keskastel","departement_id":0,"code_postal":"67260","population":1487,"superficie_km2":"1882.05","latitude_centre":"48.9768","longitude_centre":"7.0647","distance_km":3.44},{"id":29554,"code_insee":"67199","nom_standard":"Hinsingen","nom_a":null,"nom_de":null,"slug_ville":"hinsingen","departement_id":0,"code_postal":"67260","population":78,"superficie_km2":"299.58","latitude_centre":"48.95","longitude_centre":"7.0009","distance_km":3.71},{"id":29683,"code_insee":"67435","nom_standard":"Sarrewerden","nom_a":null,"nom_de":null,"slug_ville":"sarrewerden","departement_id":0,"code_postal":"67260","population":816,"superficie_km2":"1677.81","latitude_centre":"48.9089","longitude_centre":"7.0768","distance_km":4.63},{"id":29663,"code_insee":"67401","nom_standard":"Rimsdorf","nom_a":null,"nom_de":null,"slug_ville":"rimsdorf","departement_id":0,"code_postal":"67260","population":287,"superficie_km2":"609.07","latitude_centre":"48.9284","longitude_centre":"7.1117","distance_km":4.86},{"id":25721,"code_insee":"57366","nom_standard":"Kirviller","nom_a":null,"nom_de":null,"slug_ville":"kirviller","departement_id":0,"code_postal":"57430","population":142,"superficie_km2":"252.75","latitude_centre":"48.9599","longitude_centre":"6.9783","distance_km":5.53},{"id":0,"code_insee":"57628","nom_standard":"Sarralbe","nom_a":null,"nom_de":null,"slug_ville":"sarralbe","departement_id":0,"code_postal":"57430","population":4364,"superficie_km2":"2727.80","latitude_centre":"48.9987","longitude_centre":"7.0144","distance_km":6.34},{"id":29442,"code_insee":"67009","nom_standard":"Altwiller","nom_a":null,"nom_de":null,"slug_ville":"altwiller","departement_id":0,"code_postal":"67260","population":373,"superficie_km2":"1642.16","latitude_centre":"48.9173","longitude_centre":"6.9766","distance_km":6.4},{"id":0,"code_insee":"67508","nom_standard":"VÅ“llerdingen","nom_a":null,"nom_de":null,"slug_ville":"voellerdingen","departement_id":0,"code_postal":"67430","population":418,"superficie_km2":"1342.93","latitude_centre":"48.9722","longitude_centre":"7.1322","distance_km":6.52},{"id":25699,"code_insee":"57335","nom_standard":"Honskirch","nom_a":null,"nom_de":null,"slug_ville":"honskirch","departement_id":0,"code_postal":"57670","population":213,"superficie_km2":"655.89","latitude_centre":"48.9387","longitude_centre":"6.9628","distance_km":6.55},{"id":29499,"code_insee":"67099","nom_standard":"Domfessel","nom_a":null,"nom_de":null,"slug_ville":"domfessel","departement_id":0,"code_postal":"67430","population":273,"superficie_km2":"623.14","latitude_centre":"48.949","longitude_centre":"7.1435","distance_km":6.72},{"id":29479,"code_insee":"67070","nom_standard":"Burbach","nom_a":null,"nom_de":null,"slug_ville":"burbach","departement_id":0,"code_postal":"67260","population":280,"superficie_km2":"635.60","latitude_centre":"48.8982","longitude_centre":"7.1123","distance_km":7.02},{"id":29494,"code_insee":"67091","nom_standard":"Diedendorf","nom_a":null,"nom_de":null,"slug_ville":"diedendorf","departement_id":0,"code_postal":"67260","population":314,"superficie_km2":"1041.09","latitude_centre":"48.8849","longitude_centre":"7.0246","distance_km":7.19},{"id":0,"code_insee":"67355","nom_standard":"Oermingen","nom_a":null,"nom_de":null,"slug_ville":"oermingen","departement_id":0,"code_postal":"67970","population":1086,"superficie_km2":"1469.48","latitude_centre":"49","longitude_centre":"7.1249","distance_km":7.96},{"id":0,"code_insee":"67552","nom_standard":"Wolfskirchen","nom_a":null,"nom_de":null,"slug_ville":"wolfskirchen","departement_id":0,"code_postal":"67260","population":332,"superficie_km2":"1066.48","latitude_centre":"48.8759","longitude_centre":"7.0804","distance_km":8.19},{"id":25982,"code_insee":"57746","nom_standard":"Willerwald","nom_a":null,"nom_de":null,"slug_ville":"willerwald","departement_id":0,"code_postal":"57430","population":1517,"superficie_km2":"632.00","latitude_centre":"49.0223","longitude_centre":"7.034","distance_km":8.46},{"id":0,"code_insee":"67191","nom_standard":"Herbitzheim","nom_a":null,"nom_de":null,"slug_ville":"herbitzheim","departement_id":0,"code_postal":"67260","population":1829,"superficie_km2":"2199.19","latitude_centre":"49.0209","longitude_centre":"7.0846","distance_km":8.55},{"id":25820,"code_insee":"57506","nom_standard":"Niederstinzel","nom_a":null,"nom_de":null,"slug_ville":"niederstinzel","departement_id":0,"code_postal":"57930","population":235,"superficie_km2":"1307.51","latitude_centre":"48.8704","longitude_centre":"7.0124","distance_km":8.99}]}