{"ville":{"id":29937,"code_insee":"68302","nom_standard":"Schweighouse-Thann","nom_a":null,"nom_de":null,"slug_ville":"schweighouse-thann","departement_id":0,"code_postal":"68520","population":748,"superficie_km2":"1080.05","latitude_centre":"47.7539","longitude_centre":"7.1776","dep_code":"68","dep_nom":"Haut-Rhin","dep_slug":"haut-rhin","reg_code":"44","reg_nom":"Grand Est","reg_slug":"grand-est"},"departement":{"code":"68","nom":"Haut-Rhin","slug":"haut-rhin"},"region":{"code":"44","nom":"Grand Est","slug":"grand-est"},"villes_proches":[{"id":0,"code_insee":"68011","nom_standard":"Aspach-le-Bas","nom_a":null,"nom_de":null,"slug_ville":"aspach-le-bas","departement_id":0,"code_postal":"68700","population":1262,"superficie_km2":"804.12","latitude_centre":"47.7676","longitude_centre":"7.1513","distance_km":2.49},{"id":0,"code_insee":"68267","nom_standard":"Reiningue","nom_a":null,"nom_de":null,"slug_ville":"reiningue","departement_id":0,"code_postal":"68950","population":1894,"superficie_km2":"1854.68","latitude_centre":"47.7548","longitude_centre":"7.2202","distance_km":3.19},{"id":0,"code_insee":"68060","nom_standard":"Burnhaupt-le-Haut","nom_a":null,"nom_de":null,"slug_ville":"burnhaupt-le-haut","departement_id":0,"code_postal":"68520","population":1793,"superficie_km2":"1249.19","latitude_centre":"47.735","longitude_centre":"7.1284","distance_km":4.24},{"id":0,"code_insee":"68063","nom_standard":"Cernay","nom_a":null,"nom_de":null,"slug_ville":"cernay","departement_id":0,"code_postal":"68700","population":12057,"superficie_km2":"1803.99","latitude_centre":"47.7932","longitude_centre":"7.1756","distance_km":4.37},{"id":0,"code_insee":"68129","nom_standard":"Heimsbrunn","nom_a":null,"nom_de":null,"slug_ville":"heimsbrunn","departement_id":0,"code_postal":"68990","population":1314,"superficie_km2":"1057.43","latitude_centre":"47.7258","longitude_centre":"7.2194","distance_km":4.42},{"id":0,"code_insee":"68059","nom_standard":"Burnhaupt-le-Bas","nom_a":null,"nom_de":null,"slug_ville":"burnhaupt-le-bas","departement_id":0,"code_postal":"68520","population":1969,"superficie_km2":"1171.55","latitude_centre":"47.7178","longitude_centre":"7.1516","distance_km":4.46},{"id":0,"code_insee":"68012","nom_standard":"Aspach-Michelbach","nom_a":null,"nom_de":null,"slug_ville":"aspach-michelbach","departement_id":0,"code_postal":"68700","population":1747,"superficie_km2":"1201.08","latitude_centre":"47.7744","longitude_centre":"7.1226","distance_km":4.7},{"id":0,"code_insee":"68006","nom_standard":"Bernwiller","nom_a":null,"nom_de":null,"slug_ville":"bernwiller","departement_id":0,"code_postal":"68210","population":1205,"superficie_km2":"1062.21","latitude_centre":"47.7025","longitude_centre":"7.183","distance_km":5.73},{"id":0,"code_insee":"68115","nom_standard":"Guewenheim","nom_a":null,"nom_de":null,"slug_ville":"guewenheim","departement_id":0,"code_postal":"68116","population":1368,"superficie_km2":"856.01","latitude_centre":"47.7485","longitude_centre":"7.0964","distance_km":6.1},{"id":29823,"code_insee":"68101","nom_standard":"Galfingue","nom_a":null,"nom_de":null,"slug_ville":"galfingue","departement_id":0,"code_postal":"68990","population":803,"superficie_km2":"535.93","latitude_centre":"47.703","longitude_centre":"7.2189","distance_km":6.45},{"id":0,"code_insee":"68348","nom_standard":"Vieux-Thann","nom_a":null,"nom_de":null,"slug_ville":"vieux-thann","departement_id":0,"code_postal":"68800","population":2866,"superficie_km2":"509.50","latitude_centre":"47.8069","longitude_centre":"7.13","distance_km":6.88},{"id":0,"code_insee":"68218","nom_standard":"Morschwiller-le-Bas","nom_a":null,"nom_de":null,"slug_ville":"morschwiller-le-bas","departement_id":0,"code_postal":"68790","population":3694,"superficie_km2":"752.03","latitude_centre":"47.7334","longitude_centre":"7.2645","distance_km":6.89},{"id":0,"code_insee":"68375","nom_standard":"Wittelsheim","nom_a":null,"nom_de":null,"slug_ville":"wittelsheim","departement_id":0,"code_postal":"68310","population":10645,"superficie_km2":"2356.22","latitude_centre":"47.7978","longitude_centre":"7.2454","distance_km":7.04},{"id":29827,"code_insee":"68105","nom_standard":"Gildwiller","nom_a":null,"nom_de":null,"slug_ville":"gildwiller","departement_id":0,"code_postal":"68210","population":261,"superficie_km2":"503.64","latitude_centre":"47.6955","longitude_centre":"7.1373","distance_km":7.16},{"id":29841,"code_insee":"68125","nom_standard":"Hecken","nom_a":null,"nom_de":null,"slug_ville":"hecken","departement_id":0,"code_postal":"68210","population":527,"superficie_km2":"246.05","latitude_centre":"47.6932","longitude_centre":"7.1157","distance_km":8.19},{"id":0,"code_insee":"68322","nom_standard":"Steinbach","nom_a":null,"nom_de":null,"slug_ville":"steinbach","departement_id":0,"code_postal":"68700","population":1379,"superficie_km2":"609.74","latitude_centre":"47.8245","longitude_centre":"7.1397","distance_km":8.35},{"id":0,"code_insee":"68342","nom_standard":"Uffholtz","nom_a":null,"nom_de":null,"slug_ville":"uffholtz","departement_id":0,"code_postal":"68700","population":1614,"superficie_km2":"1189.15","latitude_centre":"47.8298","longitude_centre":"7.1687","distance_km":8.47},{"id":29779,"code_insee":"68018","nom_standard":"Balschwiller","nom_a":null,"nom_de":null,"slug_ville":"balschwiller","departement_id":0,"code_postal":"68210","population":729,"superficie_km2":"977.92","latitude_centre":"47.674","longitude_centre":"7.1621","distance_km":8.96},{"id":0,"code_insee":"68320","nom_standard":"Spechbach","nom_a":null,"nom_de":null,"slug_ville":"spechbach","departement_id":0,"code_postal":"68720","population":1418,"superficie_km2":"805.64","latitude_centre":"47.6768","longitude_centre":"7.223","distance_km":9.22},{"id":0,"code_insee":"68359","nom_standard":"Wattwiller","nom_a":null,"nom_de":null,"slug_ville":"wattwiller","departement_id":0,"code_postal":"68700","population":1636,"superficie_km2":"1360.10","latitude_centre":"47.8418","longitude_centre":"7.1765","distance_km":9.77}]}