{"ville":{"id":15145,"code_insee":"19254","nom_standard":"Ségur-le-Château","nom_a":null,"nom_de":null,"slug_ville":"segur-le-chateau","departement_id":0,"code_postal":"19230","population":202,"superficie_km2":"958.54","latitude_centre":"45.428","longitude_centre":"1.3015","dep_code":"19","dep_nom":"Corrèze","dep_slug":"correze","reg_code":"75","reg_nom":"Nouvelle-Aquitaine","reg_slug":"nouvelle-aquitaine"},"departement":{"code":"19","nom":"Corrèze","slug":"correze"},"region":{"code":"75","nom":"Nouvelle-Aquitaine","slug":"nouvelle-aquitaine"},"villes_proches":[{"id":14961,"code_insee":"19025","nom_standard":"Beyssenac","nom_a":null,"nom_de":null,"slug_ville":"beyssenac","departement_id":0,"code_postal":"19230","population":370,"superficie_km2":"1817.53","latitude_centre":"45.4032","longitude_centre":"1.3016","distance_km":2.76},{"id":15115,"code_insee":"19216","nom_standard":"Saint-Julien-le-Vendômois","nom_a":null,"nom_de":null,"slug_ville":"saint-julien-le-vendomois","departement_id":0,"code_postal":"19210","population":234,"superficie_km2":"2318.93","latitude_centre":"45.4553","longitude_centre":"1.3171","distance_km":3.27},{"id":15101,"code_insee":"19198","nom_standard":"Saint-Éloy-les-Tuileries","nom_a":null,"nom_de":null,"slug_ville":"saint-eloy-les-tuileries","departement_id":0,"code_postal":"19210","population":114,"superficie_km2":"913.87","latitude_centre":"45.4571","longitude_centre":"1.2809","distance_km":3.61},{"id":0,"code_insee":"19011","nom_standard":"Arnac-Pompadour","nom_a":null,"nom_de":null,"slug_ville":"arnac-pompadour","departement_id":0,"code_postal":"19230","population":1205,"superficie_km2":"1506.14","latitude_centre":"45.4118","longitude_centre":"1.366","distance_km":5.35},{"id":0,"code_insee":"24320","nom_standard":"Payzac","nom_a":null,"nom_de":null,"slug_ville":"payzac","departement_id":0,"code_postal":"24270","population":984,"superficie_km2":"4900.98","latitude_centre":"45.42","longitude_centre":"1.229","distance_km":5.73},{"id":0,"code_insee":"24397","nom_standard":"Saint-Cyr-les-Champagnes","nom_a":null,"nom_de":null,"slug_ville":"saint-cyr-les-champagnes","departement_id":0,"code_postal":"24270","population":304,"superficie_km2":"1621.66","latitude_centre":"45.3699","longitude_centre":"1.2926","distance_km":6.5},{"id":14989,"code_insee":"19059","nom_standard":"Concèze","nom_a":null,"nom_de":null,"slug_ville":"conceze","departement_id":0,"code_postal":"19350","population":376,"superficie_km2":"1350.43","latitude_centre":"45.3614","longitude_centre":"1.3341","distance_km":7.83},{"id":0,"code_insee":"19121","nom_standard":"Lubersac","nom_a":null,"nom_de":null,"slug_ville":"lubersac","departement_id":0,"code_postal":"19210","population":2246,"superficie_km2":"5843.42","latitude_centre":"45.45","longitude_centre":"1.3981","distance_km":7.92},{"id":15135,"code_insee":"19243","nom_standard":"Saint-Sornin-Lavolps","nom_a":null,"nom_de":null,"slug_ville":"saint-sornin-lavolps","departement_id":0,"code_postal":"19230","population":847,"superficie_km2":"1532.84","latitude_centre":"45.3737","longitude_centre":"1.3702","distance_km":8.08},{"id":0,"code_insee":"87071","nom_standard":"Glandon","nom_a":null,"nom_de":null,"slug_ville":"glandon","departement_id":0,"code_postal":"87500","population":810,"superficie_km2":"2767.96","latitude_centre":"45.4715","longitude_centre":"1.2158","distance_km":8.25},{"id":0,"code_insee":"24526","nom_standard":"Savignac-Lédrier","nom_a":null,"nom_de":null,"slug_ville":"savignac-ledrier","departement_id":0,"code_postal":"24270","population":729,"superficie_km2":"2645.92","latitude_centre":"45.3795","longitude_centre":"1.1954","distance_km":9.88},{"id":0,"code_insee":"24464","nom_standard":"Saint-Mesmin","nom_a":null,"nom_de":null,"slug_ville":"saint-mesmin","departement_id":0,"code_postal":"24270","population":343,"superficie_km2":"3039.98","latitude_centre":"45.3501","longitude_centre":"1.2331","distance_km":10.18},{"id":0,"code_insee":"87049","nom_standard":"Coussac-Bonneval","nom_a":null,"nom_de":null,"slug_ville":"coussac-bonneval","departement_id":0,"code_postal":"87500","population":1262,"superficie_km2":"6636.21","latitude_centre":"45.52","longitude_centre":"1.3269","distance_km":10.42},{"id":15027,"code_insee":"19109","nom_standard":"Lascaux","nom_a":null,"nom_de":null,"slug_ville":"lascaux","departement_id":0,"code_postal":"19130","population":228,"superficie_km2":"742.53","latitude_centre":"45.3389","longitude_centre":"1.3734","distance_km":11.39},{"id":0,"code_insee":"19094","nom_standard":"Juillac","nom_a":null,"nom_de":null,"slug_ville":"juillac","departement_id":0,"code_postal":"19350","population":1153,"superficie_km2":"3258.84","latitude_centre":"45.3253","longitude_centre":"1.2897","distance_km":11.46},{"id":14960,"code_insee":"19024","nom_standard":"Beyssac","nom_a":null,"nom_de":null,"slug_ville":"beyssac","departement_id":0,"code_postal":"19230","population":481,"superficie_km2":"2133.90","latitude_centre":"45.3693","longitude_centre":"1.4224","distance_km":11.48},{"id":14968,"code_insee":"19035","nom_standard":"Chabrignac","nom_a":null,"nom_de":null,"slug_ville":"chabrignac","departement_id":0,"code_postal":"19350","population":542,"superficie_km2":"1099.98","latitude_centre":"45.3124","longitude_centre":"1.3427","distance_km":13.25},{"id":0,"code_insee":"87187","nom_standard":"Saint-Yrieix-la-Perche","nom_a":null,"nom_de":null,"slug_ville":"saint-yrieix-la-perche","departement_id":0,"code_postal":"87500","population":6830,"superficie_km2":"10152.13","latitude_centre":"45.5274","longitude_centre":"1.2026","distance_km":13.48},{"id":0,"code_insee":"24515","nom_standard":"Salagnac","nom_a":null,"nom_de":null,"slug_ville":"salagnac","departement_id":0,"code_postal":"24160","population":686,"superficie_km2":"935.16","latitude_centre":"45.3156","longitude_centre":"1.2114","distance_km":14.34},{"id":15084,"code_insee":"19177","nom_standard":"Rosiers-de-Juillac","nom_a":null,"nom_de":null,"slug_ville":"rosiers-de-juillac","departement_id":0,"code_postal":"19350","population":177,"superficie_km2":"962.41","latitude_centre":"45.2889","longitude_centre":"1.3018","distance_km":15.47}]}