{"ville":{"id":21592,"code_insee":"41243","nom_standard":"Selommes","nom_a":null,"nom_de":null,"slug_ville":"selommes","departement_id":0,"code_postal":"41100","population":785,"superficie_km2":"2807.71","latitude_centre":"47.7652","longitude_centre":"1.2101","dep_code":"41","dep_nom":"Loir-et-Cher","dep_slug":"loir-et-cher","reg_code":"24","reg_nom":"Centre-Val de Loire","reg_slug":"centre-val-de-loire"},"departement":{"code":"41","nom":"Loir-et-Cher","slug":"loir-et-cher"},"region":{"code":"24","nom":"Centre-Val de Loire","slug":"centre-val-de-loire"},"villes_proches":[{"id":0,"code_insee":"41291","nom_standard":"Villetrun","nom_a":null,"nom_de":null,"slug_ville":"villetrun","departement_id":0,"code_postal":"41100","population":316,"superficie_km2":"684.20","latitude_centre":"47.786","longitude_centre":"1.1635","distance_km":4.18},{"id":21559,"code_insee":"41188","nom_standard":"Rhodon","nom_a":null,"nom_de":null,"slug_ville":"rhodon","departement_id":0,"code_postal":"41290","population":113,"superficie_km2":"711.92","latitude_centre":"47.7523","longitude_centre":"1.2702","distance_km":4.72},{"id":21494,"code_insee":"41081","nom_standard":"Faye","nom_a":null,"nom_de":null,"slug_ville":"faye","departement_id":0,"code_postal":"41100","population":216,"superficie_km2":"881.85","latitude_centre":"47.8061","longitude_centre":"1.1887","distance_km":4.82},{"id":21549,"code_insee":"41174","nom_standard":"Périgny","nom_a":null,"nom_de":null,"slug_ville":"perigny","departement_id":0,"code_postal":"41100","population":166,"superficie_km2":"1039.36","latitude_centre":"47.7523","longitude_centre":"1.1486","distance_km":4.82},{"id":0,"code_insee":"41283","nom_standard":"Villemardy","nom_a":null,"nom_de":null,"slug_ville":"villemardy","departement_id":0,"code_postal":"41100","population":264,"superficie_km2":"1221.76","latitude_centre":"47.724","longitude_centre":"1.1894","distance_km":4.84},{"id":21483,"code_insee":"41065","nom_standard":"Coulommiers-la-Tour","nom_a":null,"nom_de":null,"slug_ville":"coulommiers-la-tour","departement_id":0,"code_postal":"41100","population":575,"superficie_km2":"1215.11","latitude_centre":"47.78","longitude_centre":"1.1356","distance_km":5.81},{"id":21491,"code_insee":"41077","nom_standard":"Épiais","nom_a":null,"nom_de":null,"slug_ville":"epiais","departement_id":0,"code_postal":"41290","population":115,"superficie_km2":"868.92","latitude_centre":"47.812","longitude_centre":"1.2489","distance_km":5.96},{"id":21465,"code_insee":"41035","nom_standard":"Champigny-en-Beauce","nom_a":null,"nom_de":null,"slug_ville":"champigny-en-beauce","departement_id":0,"code_postal":"41330","population":594,"superficie_km2":"2248.09","latitude_centre":"47.7193","longitude_centre":"1.2581","distance_km":6.24},{"id":21467,"code_insee":"41037","nom_standard":"La Chapelle-Enchérie","nom_a":null,"nom_de":null,"slug_ville":"la-chapelle-encherie","departement_id":0,"code_postal":"41290","population":212,"superficie_km2":"1081.15","latitude_centre":"47.8261","longitude_centre":"1.2103","distance_km":6.77},{"id":21561,"code_insee":"41190","nom_standard":"Rocé","nom_a":null,"nom_de":null,"slug_ville":"roce","departement_id":0,"code_postal":"41100","population":218,"superficie_km2":"1026.63","latitude_centre":"47.8119","longitude_centre":"1.1517","distance_km":6.78},{"id":0,"code_insee":"41290","nom_standard":"Villeromain","nom_a":null,"nom_de":null,"slug_ville":"villeromain","departement_id":0,"code_postal":"41100","population":216,"superficie_km2":"1304.27","latitude_centre":"47.7199","longitude_centre":"1.1463","distance_km":6.94},{"id":0,"code_insee":"41171","nom_standard":"Oucques La Nouvelle","nom_a":null,"nom_de":null,"slug_ville":"oucques-la-nouvelle","departement_id":0,"code_postal":"41290","population":1638,"superficie_km2":"4962.63","latitude_centre":"47.8104","longitude_centre":"1.2756","distance_km":7.01},{"id":21478,"code_insee":"41057","nom_standard":"Conan","nom_a":null,"nom_de":null,"slug_ville":"conan","departement_id":0,"code_postal":"41290","population":159,"superficie_km2":"1537.23","latitude_centre":"47.7359","longitude_centre":"1.2954","distance_km":7.16},{"id":0,"code_insee":"41281","nom_standard":"Villefrancœur","nom_a":null,"nom_de":null,"slug_ville":"villefrancoeur","departement_id":0,"code_postal":"41330","population":416,"superficie_km2":"1829.95","latitude_centre":"47.6999","longitude_centre":"1.2056","distance_km":7.27},{"id":21456,"code_insee":"41019","nom_standard":"Boisseau","nom_a":null,"nom_de":null,"slug_ville":"boisseau","departement_id":0,"code_postal":"41290","population":110,"superficie_km2":"815.11","latitude_centre":"47.7744","longitude_centre":"1.3065","distance_km":7.28},{"id":0,"code_insee":"41284","nom_standard":"Villeneuve-Frouville","nom_a":null,"nom_de":null,"slug_ville":"villeneuve-frouville","departement_id":0,"code_postal":"41290","population":63,"superficie_km2":"432.90","latitude_centre":"47.7846","longitude_centre":"1.3169","distance_km":8.27},{"id":21558,"code_insee":"41187","nom_standard":"Renay","nom_a":null,"nom_de":null,"slug_ville":"renay","departement_id":0,"code_postal":"41100","population":174,"superficie_km2":"1208.61","latitude_centre":"47.8382","longitude_centre":"1.1781","distance_km":8.46},{"id":0,"code_insee":"41261","nom_standard":"Tourailles","nom_a":null,"nom_de":null,"slug_ville":"tourailles","departement_id":0,"code_postal":"41190","population":129,"superficie_km2":"748.87","latitude_centre":"47.691","longitude_centre":"1.1547","distance_km":9.23},{"id":21470,"code_insee":"41040","nom_standard":"La Chapelle-Vendômoise","nom_a":null,"nom_de":null,"slug_ville":"la-chapelle-vendomoise","departement_id":0,"code_postal":"41330","population":795,"superficie_km2":"1321.20","latitude_centre":"47.6768","longitude_centre":"1.2353","distance_km":10.01},{"id":21517,"code_insee":"41115","nom_standard":"Lignières","nom_a":null,"nom_de":null,"slug_ville":"lignieres","departement_id":0,"code_postal":"41160","population":412,"superficie_km2":"1586.78","latitude_centre":"47.8655","longitude_centre":"1.1967","distance_km":11.2}]}