{"ville":{"id":26235,"code_insee":"58276","nom_standard":"Sémelay","nom_a":null,"nom_de":null,"slug_ville":"semelay","departement_id":0,"code_postal":"58360","population":223,"superficie_km2":"3346.34","latitude_centre":"46.8628","longitude_centre":"3.8595","dep_code":"58","dep_nom":"Nièvre","dep_slug":"nievre","reg_code":"27","reg_nom":"Bourgogne-Franche-Comté","reg_slug":"bourgogne-franche-comte"},"departement":{"code":"58","nom":"Nièvre","slug":"nievre"},"region":{"code":"27","nom":"Bourgogne-Franche-Comté","slug":"bourgogne-franche-comte"},"villes_proches":[{"id":26210,"code_insee":"58246","nom_standard":"Saint-Honoré-les-Bains","nom_a":null,"nom_de":null,"slug_ville":"saint-honore-les-bains","departement_id":0,"code_postal":"58360","population":678,"superficie_km2":"2509.88","latitude_centre":"46.8991","longitude_centre":"3.8556","distance_km":4.05},{"id":26018,"code_insee":"58019","nom_standard":"Avrée","nom_a":null,"nom_de":null,"slug_ville":"avree","departement_id":0,"code_postal":"58170","population":83,"superficie_km2":"1304.34","latitude_centre":"46.8251","longitude_centre":"3.8801","distance_km":4.48},{"id":26066,"code_insee":"58074","nom_standard":"Chiddes","nom_a":null,"nom_de":null,"slug_ville":"chiddes","departement_id":0,"code_postal":"58170","population":353,"superficie_km2":"2611.84","latitude_centre":"46.863","longitude_centre":"3.9318","distance_km":5.5},{"id":26188,"code_insee":"58221","nom_standard":"Rémilly","nom_a":null,"nom_de":null,"slug_ville":"remilly","departement_id":0,"code_postal":"58250","population":157,"superficie_km2":"3631.50","latitude_centre":"46.8304","longitude_centre":"3.7932","distance_km":6.2},{"id":26118,"code_insee":"58139","nom_standard":"Lanty","nom_a":null,"nom_de":null,"slug_ville":"lanty","departement_id":0,"code_postal":"58250","population":126,"superficie_km2":"1209.23","latitude_centre":"46.8085","longitude_centre":"3.8288","distance_km":6.47},{"id":26097,"code_insee":"58114","nom_standard":"Fléty","nom_a":null,"nom_de":null,"slug_ville":"flety","departement_id":0,"code_postal":"58170","population":94,"superficie_km2":"2025.00","latitude_centre":"46.8006","longitude_centre":"3.9095","distance_km":7.89},{"id":0,"code_insee":"58301","nom_standard":"Vandenesse","nom_a":null,"nom_de":null,"slug_ville":"vandenesse","departement_id":0,"code_postal":"58290","population":287,"superficie_km2":"3292.95","latitude_centre":"46.912","longitude_centre":"3.7766","distance_km":8.34},{"id":26186,"code_insee":"58219","nom_standard":"Préporché","nom_a":null,"nom_de":null,"slug_ville":"preporche","departement_id":0,"code_postal":"58360","population":212,"superficie_km2":"2970.11","latitude_centre":"46.9406","longitude_centre":"3.861","distance_km":8.65},{"id":26146,"code_insee":"58173","nom_standard":"Montaron","nom_a":null,"nom_de":null,"slug_ville":"montaron","departement_id":0,"code_postal":"58250","population":159,"superficie_km2":"3392.15","latitude_centre":"46.8803","longitude_centre":"3.7476","distance_km":8.73},{"id":26233,"code_insee":"58274","nom_standard":"Savigny-Poil-Fol","nom_a":null,"nom_de":null,"slug_ville":"savigny-poil-fol","departement_id":0,"code_postal":"58170","population":108,"superficie_km2":"1751.63","latitude_centre":"46.7845","longitude_centre":"3.8199","distance_km":9.21},{"id":26141,"code_insee":"58168","nom_standard":"Millay","nom_a":null,"nom_de":null,"slug_ville":"millay","departement_id":0,"code_postal":"58170","population":440,"superficie_km2":"3742.75","latitude_centre":"46.8363","longitude_centre":"3.9813","distance_km":9.72},{"id":26119,"code_insee":"58140","nom_standard":"Larochemillay","nom_a":null,"nom_de":null,"slug_ville":"larochemillay","departement_id":0,"code_postal":"58370","population":226,"superficie_km2":"4039.16","latitude_centre":"46.8855","longitude_centre":"3.9836","distance_km":9.77},{"id":0,"code_insee":"58309","nom_standard":"Villapourçon","nom_a":null,"nom_de":null,"slug_ville":"villapourcon","departement_id":0,"code_postal":"58370","population":410,"superficie_km2":"5101.74","latitude_centre":"46.9358","longitude_centre":"3.9551","distance_km":10.89},{"id":0,"code_insee":"58290","nom_standard":"Thaix","nom_a":null,"nom_de":null,"slug_ville":"thaix","departement_id":0,"code_postal":"58250","population":42,"superficie_km2":"2019.29","latitude_centre":"46.8519","longitude_centre":"3.7169","distance_km":10.91},{"id":26169,"code_insee":"58199","nom_standard":"Onlay","nom_a":null,"nom_de":null,"slug_ville":"onlay","departement_id":0,"code_postal":"58370","population":163,"superficie_km2":"1977.60","latitude_centre":"46.9659","longitude_centre":"3.8967","distance_km":11.81},{"id":0,"code_insee":"58289","nom_standard":"Ternant","nom_a":null,"nom_de":null,"slug_ville":"ternant","departement_id":0,"code_postal":"58250","population":166,"superficie_km2":"1948.08","latitude_centre":"46.7508","longitude_centre":"3.8489","distance_km":12.48},{"id":0,"code_insee":"58287","nom_standard":"Tazilly","nom_a":null,"nom_de":null,"slug_ville":"tazilly","departement_id":0,"code_postal":"58170","population":180,"superficie_km2":"2589.48","latitude_centre":"46.7561","longitude_centre":"3.9174","distance_km":12.66},{"id":0,"code_insee":"58182","nom_standard":"Moulins-Engilbert","nom_a":null,"nom_de":null,"slug_ville":"moulins-engilbert","departement_id":0,"code_postal":"58290","population":1352,"superficie_km2":"4146.91","latitude_centre":"46.9759","longitude_centre":"3.8216","distance_km":12.9},{"id":26165,"code_insee":"58195","nom_standard":"La Nocle-Maulaix","nom_a":null,"nom_de":null,"slug_ville":"la-nocle-maulaix","departement_id":0,"code_postal":"58250","population":267,"superficie_km2":"3263.90","latitude_centre":"46.7636","longitude_centre":"3.7531","distance_km":13.68},{"id":26228,"code_insee":"58268","nom_standard":"Saint-Seine","nom_a":null,"nom_de":null,"slug_ville":"saint-seine","departement_id":0,"code_postal":"58250","population":187,"superficie_km2":"1789.88","latitude_centre":"46.7253","longitude_centre":"3.8152","distance_km":15.66}]}