{"ville":{"id":5577,"code_insee":"57645","nom_standard":"Semécourt","nom_a":null,"nom_de":null,"slug_ville":"semecourt","departement_id":658,"code_postal":"57280","population":1022,"superficie_km2":"2.00","latitude_centre":"49.1969986","longitude_centre":"6.1380000","dep_code":"57","dep_nom":"Moselle","dep_slug":"moselle","reg_code":"06","reg_nom":"Grand Est","reg_slug":"grand-est"},"departement":{"code":"57","nom":"Moselle","slug":"moselle"},"region":{"code":"06","nom":"Grand Est","slug":"grand-est"},"villes_proches":[{"id":5511,"code_insee":"57433","nom_standard":"Maizières-lès-Metz","nom_a":null,"nom_de":null,"slug_ville":"maizieres-les-metz","departement_id":658,"code_postal":"57280","population":11792,"superficie_km2":"9.00","latitude_centre":"49.2080002","longitude_centre":"6.1560001","distance_km":1.79},{"id":5469,"code_insee":"57211","nom_standard":"Fèves","nom_a":null,"nom_de":null,"slug_ville":"feves","departement_id":658,"code_postal":"57280","population":1203,"superficie_km2":"5.00","latitude_centre":"49.1889992","longitude_centre":"6.1069999","distance_km":2.42},{"id":5534,"code_insee":"57511","nom_standard":"Norroy-le-Veneur","nom_a":null,"nom_de":null,"slug_ville":"norroy-le-veneur","departement_id":658,"code_postal":"57140","population":1013,"superficie_km2":"8.00","latitude_centre":"49.1800003","longitude_centre":"6.1110001","distance_km":2.72},{"id":5513,"code_insee":"57443","nom_standard":"Marange-Silvange","nom_a":null,"nom_de":null,"slug_ville":"marange-silvange","departement_id":658,"code_postal":"57535","population":6527,"superficie_km2":"15.00","latitude_centre":"49.2159996","longitude_centre":"6.1120000","distance_km":2.83},{"id":5603,"code_insee":"57751","nom_standard":"Woippy","nom_a":null,"nom_de":null,"slug_ville":"woippy","departement_id":658,"code_postal":"57140","population":14302,"superficie_km2":"15.00","latitude_centre":"49.1640015","longitude_centre":"6.1580000","distance_km":3.95},{"id":5543,"code_insee":"57543","nom_standard":"Pierrevillers","nom_a":null,"nom_de":null,"slug_ville":"pierrevillers","departement_id":658,"code_postal":"57120","population":1478,"superficie_km2":"6.00","latitude_centre":"49.2260017","longitude_centre":"6.0960002","distance_km":4.44},{"id":5584,"code_insee":"57663","nom_standard":"Talange","nom_a":null,"nom_de":null,"slug_ville":"talange","departement_id":658,"code_postal":"57525","population":7938,"superficie_km2":"4.00","latitude_centre":"49.2340012","longitude_centre":"6.1719999","distance_km":4.8},{"id":5573,"code_insee":"57634","nom_standard":"Saulny","nom_a":null,"nom_de":null,"slug_ville":"saulny","departement_id":658,"code_postal":"57140","population":1559,"superficie_km2":"10.00","latitude_centre":"49.1599999","longitude_centre":"6.0949998","distance_km":5.17},{"id":5424,"code_insee":"57028","nom_standard":"Argancy","nom_a":null,"nom_de":null,"slug_ville":"argancy","departement_id":658,"code_postal":"57640","population":1330,"superficie_km2":"11.00","latitude_centre":"49.1990013","longitude_centre":"6.2100000","distance_km":5.24},{"id":5420,"code_insee":"57019","nom_standard":"Amnéville","nom_a":null,"nom_de":null,"slug_ville":"amneville","departement_id":658,"code_postal":"57360","population":10828,"superficie_km2":"10.00","latitude_centre":"49.2400017","longitude_centre":"6.0999999","distance_km":5.52},{"id":5515,"code_insee":"57452","nom_standard":"La Maxe","nom_a":null,"nom_de":null,"slug_ville":"la-maxe","departement_id":658,"code_postal":"57140","population":1047,"superficie_km2":"8.00","latitude_centre":"49.1619988","longitude_centre":"6.1919999","distance_km":5.53},{"id":5484,"code_insee":"57283","nom_standard":"Hagondange","nom_a":null,"nom_de":null,"slug_ville":"hagondange","departement_id":658,"code_postal":"57300","population":9321,"superficie_km2":"6.00","latitude_centre":"49.2470017","longitude_centre":"6.1580000","distance_km":5.75},{"id":5509,"code_insee":"57415","nom_standard":"Lorry-lès-Metz","nom_a":null,"nom_de":null,"slug_ville":"lorry-les-metz","departement_id":658,"code_postal":"57050","population":1731,"superficie_km2":"6.00","latitude_centre":"49.1440010","longitude_centre":"6.1090002","distance_km":6.26},{"id":5558,"code_insee":"57593","nom_standard":"Roncourt","nom_a":null,"nom_de":null,"slug_ville":"roncourt","departement_id":658,"code_postal":"57860","population":1039,"superficie_km2":"7.00","latitude_centre":"49.2000008","longitude_centre":"6.0520000","distance_km":6.26},{"id":5557,"code_insee":"57591","nom_standard":"Rombas","nom_a":null,"nom_de":null,"slug_ville":"rombas","departement_id":658,"code_postal":"57120","population":9697,"superficie_km2":"12.00","latitude_centre":"49.2439995","longitude_centre":"6.0879998","distance_km":6.36},{"id":5461,"code_insee":"57193","nom_standard":"Ennery","nom_a":null,"nom_de":null,"slug_ville":"ennery","departement_id":658,"code_postal":"57365","population":2262,"superficie_km2":"7.00","latitude_centre":"49.2280006","longitude_centre":"6.2189999","distance_km":6.82},{"id":5429,"code_insee":"57043","nom_standard":"Ay-sur-Moselle","nom_a":null,"nom_de":null,"slug_ville":"ay-sur-moselle","departement_id":658,"code_postal":"57300","population":1566,"superficie_km2":"5.00","latitude_centre":"49.2480011","longitude_centre":"6.1960001","distance_km":7.06},{"id":5568,"code_insee":"57622","nom_standard":"Saint-Privat-la-Montagne","nom_a":null,"nom_de":null,"slug_ville":"saint-privat-la-montagne","departement_id":658,"code_postal":"57855","population":1885,"superficie_km2":"6.00","latitude_centre":"49.1860008","longitude_centre":"6.0409999","distance_km":7.15},{"id":5544,"code_insee":"57545","nom_standard":"Plappeville","nom_a":null,"nom_de":null,"slug_ville":"plappeville","departement_id":658,"code_postal":"57050","population":2028,"superficie_km2":"3.00","latitude_centre":"49.1310005","longitude_centre":"6.1240001","distance_km":7.41},{"id":5520,"code_insee":"57474","nom_standard":"Mondelange","nom_a":null,"nom_de":null,"slug_ville":"mondelange","departement_id":658,"code_postal":"57300","population":5720,"superficie_km2":"4.00","latitude_centre":"49.2630005","longitude_centre":"6.1719999","distance_km":7.74}]}