{"ville":{"id":20479,"code_insee":"37247","nom_standard":"Sepmes","nom_a":null,"nom_de":null,"slug_ville":"sepmes","departement_id":0,"code_postal":"37800","population":604,"superficie_km2":"2878.83","latitude_centre":"47.0837","longitude_centre":"0.6835","dep_code":"37","dep_nom":"Indre-et-Loire","dep_slug":"indre-et-loire","reg_code":"24","reg_nom":"Centre-Val de Loire","reg_slug":"centre-val-de-loire"},"departement":{"code":"37","nom":"Indre-et-Loire","slug":"indre-et-loire"},"region":{"code":"24","nom":"Centre-Val de Loire","slug":"centre-val-de-loire"},"villes_proches":[{"id":20357,"code_insee":"37032","nom_standard":"Bournan","nom_a":null,"nom_de":null,"slug_ville":"bournan","departement_id":0,"code_postal":"37240","population":277,"superficie_km2":"1476.58","latitude_centre":"47.0726","longitude_centre":"0.728","distance_km":3.59},{"id":0,"code_insee":"37226","nom_standard":"Sainte-Maure-de-Touraine","nom_a":null,"nom_de":null,"slug_ville":"sainte-maure-de-touraine","departement_id":0,"code_postal":"37800","population":4092,"superficie_km2":"4071.69","latitude_centre":"47.1099","longitude_centre":"0.6488","distance_km":3.92},{"id":20403,"code_insee":"37098","nom_standard":"Draché","nom_a":null,"nom_de":null,"slug_ville":"drache","departement_id":0,"code_postal":"37800","population":698,"superficie_km2":"1856.56","latitude_centre":"47.0691","longitude_centre":"0.6317","distance_km":4.25},{"id":20355,"code_insee":"37029","nom_standard":"Bossée","nom_a":null,"nom_de":null,"slug_ville":"bossee","departement_id":0,"code_postal":"37240","population":327,"superficie_km2":"1906.00","latitude_centre":"47.1091","longitude_centre":"0.7336","distance_km":4.73},{"id":20388,"code_insee":"37080","nom_standard":"Civray-sur-Esves","nom_a":null,"nom_de":null,"slug_ville":"civray-sur-esves","departement_id":0,"code_postal":"37160","population":212,"superficie_km2":"1330.11","latitude_centre":"47.0346","longitude_centre":"0.7121","distance_km":5.87},{"id":20430,"code_insee":"37145","nom_standard":"Marcé-sur-Esves","nom_a":null,"nom_de":null,"slug_ville":"marce-sur-esves","departement_id":0,"code_postal":"37160","population":251,"superficie_km2":"1097.33","latitude_centre":"47.0301","longitude_centre":"0.6596","distance_km":6.23},{"id":20428,"code_insee":"37142","nom_standard":"Maillé","nom_a":null,"nom_de":null,"slug_ville":"maille","departement_id":0,"code_postal":"37800","population":557,"superficie_km2":"1560.56","latitude_centre":"47.0519","longitude_centre":"0.5875","distance_km":8.09},{"id":20375,"code_insee":"37057","nom_standard":"La Chapelle-Blanche-Saint-Martin","nom_a":null,"nom_de":null,"slug_ville":"la-chapelle-blanche-saint-martin","departement_id":0,"code_postal":"37240","population":688,"superficie_km2":"2857.49","latitude_centre":"47.0856","longitude_centre":"0.7904","distance_km":8.1},{"id":20464,"code_insee":"37212","nom_standard":"Sainte-Catherine-de-Fierbois","nom_a":null,"nom_de":null,"slug_ville":"sainte-catherine-de-fierbois","departement_id":0,"code_postal":"37800","population":732,"superficie_km2":"1564.73","latitude_centre":"47.1589","longitude_centre":"0.6789","distance_km":8.37},{"id":0,"code_insee":"37045","nom_standard":"La Celle-Saint-Avant","nom_a":null,"nom_de":null,"slug_ville":"la-celle-saint-avant","departement_id":0,"code_postal":"37160","population":1079,"superficie_km2":"1785.20","latitude_centre":"47.0219","longitude_centre":"0.6158","distance_km":8.57},{"id":0,"code_insee":"37176","nom_standard":"Noyant-de-Touraine","nom_a":null,"nom_de":null,"slug_ville":"noyant-de-touraine","departement_id":0,"code_postal":"37800","population":1160,"superficie_km2":"1389.96","latitude_centre":"47.1022","longitude_centre":"0.5666","distance_km":9.09},{"id":20399,"code_insee":"37094","nom_standard":"Cussay","nom_a":null,"nom_de":null,"slug_ville":"cussay","departement_id":0,"code_postal":"37240","population":571,"superficie_km2":"2611.92","latitude_centre":"47.019","longitude_centre":"0.7696","distance_km":9.71},{"id":0,"code_insee":"37115","nom_standard":"Descartes","nom_a":null,"nom_de":null,"slug_ville":"descartes","departement_id":0,"code_postal":"37160","population":3369,"superficie_km2":"3818.15","latitude_centre":"46.9958","longitude_centre":"0.6871","distance_km":9.78},{"id":20423,"code_insee":"37136","nom_standard":"Le Louroux","nom_a":null,"nom_de":null,"slug_ville":"le-louroux","departement_id":0,"code_postal":"37240","population":533,"superficie_km2":"2887.52","latitude_centre":"47.1569","longitude_centre":"0.7679","distance_km":10.35},{"id":20446,"code_insee":"37174","nom_standard":"Nouâtre","nom_a":null,"nom_de":null,"slug_ville":"nouatre","departement_id":0,"code_postal":"37800","population":786,"superficie_km2":"968.23","latitude_centre":"47.0351","longitude_centre":"0.5657","distance_km":10.43},{"id":0,"code_insee":"37216","nom_standard":"Saint-Épain","nom_a":null,"nom_de":null,"slug_ville":"saint-epain","departement_id":0,"code_postal":"37800","population":1471,"superficie_km2":"6330.54","latitude_centre":"47.1505","longitude_centre":"0.5773","distance_km":10.94},{"id":0,"code_insee":"86195","nom_standard":"Port-de-Piles","nom_a":null,"nom_de":null,"slug_ville":"port-de-piles","departement_id":0,"code_postal":"86220","population":545,"superficie_km2":"577.02","latitude_centre":"46.9989","longitude_centre":"0.5956","distance_km":11.54},{"id":20422,"code_insee":"37134","nom_standard":"Louans","nom_a":null,"nom_de":null,"slug_ville":"louans","departement_id":0,"code_postal":"37320","population":709,"superficie_km2":"1814.89","latitude_centre":"47.181","longitude_centre":"0.739","distance_km":11.61},{"id":0,"code_insee":"86042","nom_standard":"Buxeuil","nom_a":null,"nom_de":null,"slug_ville":"buxeuil","departement_id":0,"code_postal":"37160","population":887,"superficie_km2":"1202.61","latitude_centre":"46.9687","longitude_centre":"0.6618","distance_km":12.89},{"id":0,"code_insee":"37278","nom_standard":"Villeperdue","nom_a":null,"nom_de":null,"slug_ville":"villeperdue","departement_id":0,"code_postal":"37260","population":1126,"superficie_km2":"1202.89","latitude_centre":"47.202","longitude_centre":"0.6369","distance_km":13.62}]}