{"ville":{"id":3798,"code_insee":"38480","nom_standard":"Septème","nom_a":null,"nom_de":null,"slug_ville":"septeme","departement_id":639,"code_postal":"38780","population":2143,"superficie_km2":"22.00","latitude_centre":"45.5480003","longitude_centre":"4.9850001","dep_code":"38","dep_nom":"Isère","dep_slug":"isere","reg_code":"01","reg_nom":"Auvergne-Rhône-Alpes","reg_slug":"auvergne-rhone-alpes"},"departement":{"code":"38","nom":"Isère","slug":"isere"},"region":{"code":"01","nom":"Auvergne-Rhône-Alpes","slug":"auvergne-rhone-alpes"},"villes_proches":[{"id":3708,"code_insee":"38288","nom_standard":"Oytier-Saint-Oblas","nom_a":null,"nom_de":null,"slug_ville":"oytier-saint-oblas","departement_id":639,"code_postal":"38780","population":1720,"superficie_km2":"14.00","latitude_centre":"45.5649986","longitude_centre":"5.0310001","distance_km":4.05},{"id":3652,"code_insee":"38157","nom_standard":"Estrablin","nom_a":null,"nom_de":null,"slug_ville":"estrablin","departement_id":639,"code_postal":"38780","population":3643,"superficie_km2":"21.00","latitude_centre":"45.5139999","longitude_centre":"4.9590001","distance_km":4.29},{"id":3764,"code_insee":"38408","nom_standard":"Saint-Just-Chaleyssin","nom_a":null,"nom_de":null,"slug_ville":"saint-just-chaleyssin","departement_id":639,"code_postal":"38540","population":2676,"superficie_km2":"14.00","latitude_centre":"45.5870018","longitude_centre":"5.0040002","distance_km":4.58},{"id":3692,"code_insee":"38238","nom_standard":"Moidieu-Détourbe","nom_a":null,"nom_de":null,"slug_ville":"moidieu-detourbe","departement_id":639,"code_postal":"38440","population":1980,"superficie_km2":"18.00","latitude_centre":"45.5130005","longitude_centre":"5.0219998","distance_km":4.84},{"id":3720,"code_insee":"38318","nom_standard":"Pont-Évêque","nom_a":null,"nom_de":null,"slug_ville":"pont-eveque","departement_id":639,"code_postal":"38780","population":5466,"superficie_km2":"9.00","latitude_centre":"45.5340004","longitude_centre":"4.9239998","distance_km":5},{"id":3683,"code_insee":"38215","nom_standard":"Luzinay","nom_a":null,"nom_de":null,"slug_ville":"luzinay","departement_id":639,"code_postal":"38200","population":2397,"superficie_km2":"19.00","latitude_centre":"45.5900002","longitude_centre":"4.9569998","distance_km":5.15},{"id":3801,"code_insee":"38484","nom_standard":"Serpaize","nom_a":null,"nom_de":null,"slug_ville":"serpaize","departement_id":639,"code_postal":"38200","population":2108,"superficie_km2":"11.00","latitude_centre":"45.5579987","longitude_centre":"4.9200001","distance_km":5.18},{"id":3836,"code_insee":"38558","nom_standard":"Villette-de-Vienne","nom_a":null,"nom_de":null,"slug_ville":"villette-de-vienne","departement_id":639,"code_postal":"38200","population":1934,"superficie_km2":"11.00","latitude_centre":"45.5890007","longitude_centre":"4.9120002","distance_km":7.29},{"id":3817,"code_insee":"38519","nom_standard":"Valencin","nom_a":null,"nom_de":null,"slug_ville":"valencin","departement_id":639,"code_postal":"38540","population":2891,"superficie_km2":"10.00","latitude_centre":"45.6080017","longitude_centre":"5.0279999","distance_km":7.46},{"id":3754,"code_insee":"38389","nom_standard":"Saint-Georges-d'Espéranche","nom_a":null,"nom_de":null,"slug_ville":"saint-georges-d-esperanche","departement_id":639,"code_postal":"38790","population":3483,"superficie_km2":"25.00","latitude_centre":"45.5600014","longitude_centre":"5.0799999","distance_km":7.52},{"id":3654,"code_insee":"38160","nom_standard":"Eyzin-Pinet","nom_a":null,"nom_de":null,"slug_ville":"eyzin-pinet","departement_id":639,"code_postal":"38780","population":2316,"superficie_km2":"28.00","latitude_centre":"45.4780006","longitude_centre":"4.9980001","distance_km":7.85},{"id":3592,"code_insee":"38035","nom_standard":"Beauvoir-de-Marc","nom_a":null,"nom_de":null,"slug_ville":"beauvoir-de-marc","departement_id":639,"code_postal":"38440","population":1112,"superficie_km2":"11.00","latitude_centre":"45.5200005","longitude_centre":"5.0799999","distance_km":8.03},{"id":3678,"code_insee":"38199","nom_standard":"Jardin","nom_a":null,"nom_de":null,"slug_ville":"jardin","departement_id":639,"code_postal":"38200","population":2168,"superficie_km2":"9.00","latitude_centre":"45.4930000","longitude_centre":"4.9109998","distance_km":8.4},{"id":3827,"code_insee":"38544","nom_standard":"Vienne","nom_a":null,"nom_de":null,"slug_ville":"vienne","departement_id":639,"code_postal":"38200","population":31051,"superficie_km2":"23.00","latitude_centre":"45.5209999","longitude_centre":"4.8810000","distance_km":8.64},{"id":3632,"code_insee":"38110","nom_standard":"Chuzelles","nom_a":null,"nom_de":null,"slug_ville":"chuzelles","departement_id":639,"code_postal":"38200","population":2333,"superficie_km2":"13.00","latitude_centre":"45.5760002","longitude_centre":"4.8779998","distance_km":8.89},{"id":3645,"code_insee":"38144","nom_standard":"Diémoz","nom_a":null,"nom_de":null,"slug_ville":"diemoz","departement_id":639,"code_postal":"38790","population":2876,"superficie_km2":"14.00","latitude_centre":"45.5890007","longitude_centre":"5.0890002","distance_km":9.29},{"id":7340,"code_insee":"69270","nom_standard":"Chaponnay","nom_a":null,"nom_de":null,"slug_ville":"chaponnay","departement_id":670,"code_postal":"69970","population":4465,"superficie_km2":"19.00","latitude_centre":"45.6279984","longitude_centre":"4.9499998","distance_km":9.3},{"id":7297,"code_insee":"69189","nom_standard":"Sainte-Colombe","nom_a":null,"nom_de":null,"slug_ville":"sainte-colombe","departement_id":670,"code_postal":"69560","population":1953,"superficie_km2":"2.00","latitude_centre":"45.5250015","longitude_centre":"4.8590002","distance_km":10.14},{"id":3618,"code_insee":"38081","nom_standard":"Charantonnay","nom_a":null,"nom_de":null,"slug_ville":"charantonnay","departement_id":639,"code_postal":"38790","population":1991,"superficie_km2":"11.00","latitude_centre":"45.5379982","longitude_centre":"5.1160002","distance_km":10.26},{"id":7350,"code_insee":"69281","nom_standard":"Marennes","nom_a":null,"nom_de":null,"slug_ville":"marennes","departement_id":670,"code_postal":"69970","population":1963,"superficie_km2":"12.00","latitude_centre":"45.6230011","longitude_centre":"4.9080000","distance_km":10.27}]}