{"ville":{"id":926,"code_insee":"13106","nom_standard":"Septèmes-les-Vallons","nom_a":null,"nom_de":null,"slug_ville":"septemes-les-vallons","departement_id":613,"code_postal":"13240","population":11734,"superficie_km2":"18.00","latitude_centre":"43.3940010","longitude_centre":"5.3810000","dep_code":"13","dep_nom":"Bouches-du-Rhône","dep_slug":"bouches-du-rhone","reg_code":"18","reg_nom":"Provence-Alpes-Côte d'Azur","reg_slug":"provence-alpes-cote-d-azur"},"departement":{"code":"13","nom":"Bouches-du-Rhône","slug":"bouches-du-rhone"},"region":{"code":"18","nom":"Provence-Alpes-Côte d'Azur","slug":"provence-alpes-cote-d-azur"},"villes_proches":[{"id":927,"code_insee":"13107","nom_standard":"Simiane-Collongue","nom_a":null,"nom_de":null,"slug_ville":"simiane-collongue","departement_id":613,"code_postal":"13109","population":5849,"superficie_km2":"30.00","latitude_centre":"43.4119988","longitude_centre":"5.4380002","distance_km":5.02},{"id":894,"code_insee":"13071","nom_standard":"Les Pennes-Mirabeau","nom_a":null,"nom_de":null,"slug_ville":"les-pennes-mirabeau","departement_id":613,"code_postal":"13170","population":22161,"superficie_km2":"34.00","latitude_centre":"43.4029999","longitude_centre":"5.3160000","distance_km":5.35},{"id":840,"code_insee":"13015","nom_standard":"Bouc-Bel-Air","nom_a":null,"nom_de":null,"slug_ville":"bouc-bel-air","departement_id":613,"code_postal":"13320","population":15248,"superficie_km2":"22.00","latitude_centre":"43.4469986","longitude_centre":"5.4120002","distance_km":6.4},{"id":844,"code_insee":"13019","nom_standard":"Cabriès","nom_a":null,"nom_de":null,"slug_ville":"cabries","departement_id":613,"code_postal":"13480","population":10070,"superficie_km2":"37.00","latitude_centre":"43.4500008","longitude_centre":"5.3499999","distance_km":6.71},{"id":898,"code_insee":"13075","nom_standard":"Plan-de-Cuques","nom_a":null,"nom_de":null,"slug_ville":"plan-de-cuques","departement_id":613,"code_postal":"13380","population":11396,"superficie_km2":"9.00","latitude_centre":"43.3670006","longitude_centre":"5.4650002","distance_km":7.42},{"id":885,"code_insee":"13062","nom_standard":"Mimet","nom_a":null,"nom_de":null,"slug_ville":"mimet","departement_id":613,"code_postal":"13105","population":4187,"superficie_km2":"19.00","latitude_centre":"43.4129982","longitude_centre":"5.4990001","distance_km":9.76},{"id":866,"code_insee":"13041","nom_standard":"Gardanne","nom_a":null,"nom_de":null,"slug_ville":"gardanne","departement_id":613,"code_postal":"13120","population":21174,"superficie_km2":"27.00","latitude_centre":"43.4529991","longitude_centre":"5.4800000","distance_km":10.34},{"id":922,"code_insee":"13102","nom_standard":"Saint-Victoret","nom_a":null,"nom_de":null,"slug_ville":"saint-victoret","departement_id":613,"code_postal":"13730","population":6648,"superficie_km2":"5.00","latitude_centre":"43.4140015","longitude_centre":"5.2540002","distance_km":10.5},{"id":880,"code_insee":"13055","nom_standard":"Marseille","nom_a":null,"nom_de":null,"slug_ville":"marseille","departement_id":613,"code_postal":"13000","population":873076,"superficie_km2":"241.00","latitude_centre":"43.3000000","longitude_centre":"5.4000000","distance_km":10.56},{"id":911,"code_insee":"13088","nom_standard":"Le Rove","nom_a":null,"nom_de":null,"slug_ville":"le-rove","departement_id":613,"code_postal":"13740","population":5194,"superficie_km2":"23.00","latitude_centre":"43.3650017","longitude_centre":"5.2529998","distance_km":10.84},{"id":936,"code_insee":"13117","nom_standard":"Vitrolles","nom_a":null,"nom_de":null,"slug_ville":"vitrolles","departement_id":613,"code_postal":"13127","population":35532,"superficie_km2":"37.00","latitude_centre":"43.4500008","longitude_centre":"5.2639999","distance_km":11.32},{"id":831,"code_insee":"13002","nom_standard":"Allauch","nom_a":null,"nom_de":null,"slug_ville":"allauch","departement_id":613,"code_postal":"13190","population":21490,"superficie_km2":"50.00","latitude_centre":"43.3530006","longitude_centre":"5.5110002","distance_km":11.45},{"id":921,"code_insee":"13101","nom_standard":"Saint-Savournin","nom_a":null,"nom_de":null,"slug_ville":"saint-savournin","departement_id":613,"code_postal":"13119","population":3501,"superficie_km2":"6.00","latitude_centre":"43.4059982","longitude_centre":"5.5310001","distance_km":12.19},{"id":845,"code_insee":"13020","nom_standard":"Cadolive","nom_a":null,"nom_de":null,"slug_ville":"cadolive","departement_id":613,"code_postal":"13950","population":2202,"superficie_km2":"4.00","latitude_centre":"43.3940010","longitude_centre":"5.5320001","distance_km":12.2},{"id":868,"code_insee":"13043","nom_standard":"Gignac-la-Nerthe","nom_a":null,"nom_de":null,"slug_ville":"gignac-la-nerthe","departement_id":613,"code_postal":"13180","population":10083,"superficie_km2":"9.00","latitude_centre":"43.3899994","longitude_centre":"5.2280002","distance_km":12.37},{"id":871,"code_insee":"13046","nom_standard":"Gréasque","nom_a":null,"nom_de":null,"slug_ville":"greasque","departement_id":613,"code_postal":"13850","population":4392,"superficie_km2":"6.00","latitude_centre":"43.4259987","longitude_centre":"5.5469999","distance_km":13.87},{"id":879,"code_insee":"13054","nom_standard":"Marignane","nom_a":null,"nom_de":null,"slug_ville":"marignane","departement_id":613,"code_postal":"13700","population":33003,"superficie_km2":"24.00","latitude_centre":"43.4169998","longitude_centre":"5.2119999","distance_km":13.89},{"id":884,"code_insee":"13060","nom_standard":"Meyreuil","nom_a":null,"nom_de":null,"slug_ville":"meyreuil","departement_id":613,"code_postal":"13590","population":5935,"superficie_km2":"20.00","latitude_centre":"43.4910011","longitude_centre":"5.5009999","distance_km":14.5},{"id":858,"code_insee":"13033","nom_standard":"Ensuès-la-Redonne","nom_a":null,"nom_de":null,"slug_ville":"ensues-la-redonne","departement_id":613,"code_postal":"13820","population":5768,"superficie_km2":"26.00","latitude_centre":"43.3540001","longitude_centre":"5.1999998","distance_km":15.29},{"id":896,"code_insee":"13073","nom_standard":"Peypin","nom_a":null,"nom_de":null,"slug_ville":"peypin","departement_id":613,"code_postal":"13124","population":5613,"superficie_km2":"13.00","latitude_centre":"43.3849983","longitude_centre":"5.5710001","distance_km":15.39}]}