{"ville":{"id":27030,"code_insee":"60615","nom_standard":"Sérévillers","nom_a":null,"nom_de":null,"slug_ville":"serevillers","departement_id":0,"code_postal":"60120","population":132,"superficie_km2":"329.50","latitude_centre":"49.6322","longitude_centre":"2.4364","dep_code":"60","dep_nom":"Oise","dep_slug":"oise","reg_code":"32","reg_nom":"Hauts-de-France","reg_slug":"hauts-de-france"},"departement":{"code":"60","nom":"Oise","slug":"oise"},"region":{"code":"32","nom":"Hauts-de-France","slug":"hauts-de-france"},"villes_proches":[{"id":26656,"code_insee":"60111","nom_standard":"Broyes","nom_a":null,"nom_de":null,"slug_ville":"broyes","departement_id":0,"code_postal":"60120","population":150,"superficie_km2":"478.58","latitude_centre":"49.6291","longitude_centre":"2.4553","distance_km":1.4},{"id":26875,"code_insee":"60399","nom_standard":"Le Mesnil-Saint-Firmin","nom_a":null,"nom_de":null,"slug_ville":"le-mesnil-saint-firmin","departement_id":0,"code_postal":"60120","population":248,"superficie_km2":"412.28","latitude_centre":"49.6246","longitude_centre":"2.4092","distance_km":2.13},{"id":26945,"code_insee":"60496","nom_standard":"Plainville","nom_a":null,"nom_de":null,"slug_ville":"plainville","departement_id":0,"code_postal":"60120","population":159,"superficie_km2":"431.19","latitude_centre":"49.6128","longitude_centre":"2.4506","distance_km":2.39},{"id":26979,"code_insee":"60544","nom_standard":"Rocquencourt","nom_a":null,"nom_de":null,"slug_ville":"rocquencourt","departement_id":0,"code_postal":"60120","population":184,"superficie_km2":"981.93","latitude_centre":"49.6475","longitude_centre":"2.4115","distance_km":2.47},{"id":0,"code_insee":"80805","nom_standard":"Villers-Tournelle","nom_a":null,"nom_de":null,"slug_ville":"villers-tournelle","departement_id":0,"code_postal":"80500","population":160,"superficie_km2":"592.52","latitude_centre":"49.6496","longitude_centre":"2.4648","distance_km":2.82},{"id":0,"code_insee":"80174","nom_standard":"Le Cardonnois","nom_a":null,"nom_de":null,"slug_ville":"le-cardonnois","departement_id":0,"code_postal":"80500","population":75,"superficie_km2":"237.36","latitude_centre":"49.6309","longitude_centre":"2.4847","distance_km":3.48},{"id":0,"code_insee":"60702","nom_standard":"Welles-Pérennes","nom_a":null,"nom_de":null,"slug_ville":"welles-perennes","departement_id":0,"code_postal":"60420","population":233,"superficie_km2":"1343.70","latitude_centre":"49.6132","longitude_centre":"2.4789","distance_km":3.72},{"id":26811,"code_insee":"60311","nom_standard":"La Hérelle","nom_a":null,"nom_de":null,"slug_ville":"la-herelle","departement_id":0,"code_postal":"60120","population":237,"superficie_km2":"514.95","latitude_centre":"49.5998","longitude_centre":"2.4196","distance_km":3.8},{"id":26601,"code_insee":"60039","nom_standard":"Bacouël","nom_a":null,"nom_de":null,"slug_ville":"bacouel","departement_id":0,"code_postal":"60120","population":477,"superficie_km2":"560.76","latitude_centre":"49.6231","longitude_centre":"2.3805","distance_km":4.15},{"id":0,"code_insee":"80214","nom_standard":"Coullemelle","nom_a":null,"nom_de":null,"slug_ville":"coullemelle","departement_id":0,"code_postal":"80250","population":313,"superficie_km2":"937.91","latitude_centre":"49.6709","longitude_centre":"2.4246","distance_km":4.39},{"id":26679,"code_insee":"60146","nom_standard":"Chepoix","nom_a":null,"nom_de":null,"slug_ville":"chepoix","departement_id":0,"code_postal":"60120","population":442,"superficie_km2":"897.06","latitude_centre":"49.6028","longitude_centre":"2.3899","distance_km":4.68},{"id":26902,"code_insee":"60436","nom_standard":"Mory-Montcrux","nom_a":null,"nom_de":null,"slug_ville":"mory-montcrux","departement_id":0,"code_postal":"60120","population":84,"superficie_km2":"464.45","latitude_centre":"49.5943","longitude_centre":"2.3993","distance_km":4.99},{"id":0,"code_insee":"60627","nom_standard":"Tartigny","nom_a":null,"nom_de":null,"slug_ville":"tartigny","departement_id":0,"code_postal":"60120","population":250,"superficie_km2":"697.15","latitude_centre":"49.633","longitude_centre":"2.3664","distance_km":5.04},{"id":0,"code_insee":"80170","nom_standard":"Cantigny","nom_a":null,"nom_de":null,"slug_ville":"cantigny","departement_id":0,"code_postal":"80500","population":110,"superficie_km2":"405.19","latitude_centre":"49.6642","longitude_centre":"2.4893","distance_km":5.21},{"id":0,"code_insee":"80326","nom_standard":"Fontaine-sous-Montdidier","nom_a":null,"nom_de":null,"slug_ville":"fontaine-sous-montdidier","departement_id":0,"code_postal":"80500","population":97,"superficie_km2":"905.19","latitude_centre":"49.6557","longitude_centre":"2.5022","distance_km":5.41},{"id":0,"code_insee":"80657","nom_standard":"Quiry-le-Sec","nom_a":null,"nom_de":null,"slug_ville":"quiry-le-sec","departement_id":0,"code_postal":"80250","population":311,"superficie_km2":"683.37","latitude_centre":"49.6714","longitude_centre":"2.3838","distance_km":5.77},{"id":26998,"code_insee":"60564","nom_standard":"Sains-Morainvillers","nom_a":null,"nom_de":null,"slug_ville":"sains-morainvillers","departement_id":0,"code_postal":"60420","population":272,"superficie_km2":"1238.34","latitude_centre":"49.5806","longitude_centre":"2.4632","distance_km":6.05},{"id":0,"code_insee":"80390","nom_standard":"Grivesnes","nom_a":null,"nom_de":null,"slug_ville":"grivesnes","departement_id":0,"code_postal":"80250","population":409,"superficie_km2":"1882.78","latitude_centre":"49.6862","longitude_centre":"2.464","distance_km":6.32},{"id":26774,"code_insee":"60268","nom_standard":"Gannes","nom_a":null,"nom_de":null,"slug_ville":"gannes","departement_id":0,"code_postal":"60120","population":365,"superficie_km2":"855.46","latitude_centre":"49.5749","longitude_centre":"2.4164","distance_km":6.53},{"id":0,"code_insee":"80283","nom_standard":"Esclainvillers","nom_a":null,"nom_de":null,"slug_ville":"esclainvillers","departement_id":0,"code_postal":"80250","population":159,"superficie_km2":"561.70","latitude_centre":"49.6903","longitude_centre":"2.3975","distance_km":7.04}]}