{"ville":{"id":159,"code_insee":"01401","nom_standard":"Sergy","nom_a":null,"nom_de":null,"slug_ville":"sergy","departement_id":601,"code_postal":"01630","population":2218,"superficie_km2":"10.00","latitude_centre":"46.2630005","longitude_centre":"5.9889998","dep_code":"01","dep_nom":"Ain","dep_slug":"ain","reg_code":"01","reg_nom":"Auvergne-Rhône-Alpes","reg_slug":"auvergne-rhone-alpes"},"departement":{"code":"01","nom":"Ain","slug":"ain"},"region":{"code":"01","nom":"Auvergne-Rhône-Alpes","slug":"auvergne-rhone-alpes"},"villes_proches":[{"id":165,"code_insee":"01419","nom_standard":"Thoiry","nom_a":null,"nom_de":null,"slug_ville":"thoiry","departement_id":601,"code_postal":"01710","population":6136,"superficie_km2":"29.00","latitude_centre":"46.2439995","longitude_centre":"5.9650002","distance_km":2.81},{"id":50,"code_insee":"01135","nom_standard":"Crozet","nom_a":null,"nom_de":null,"slug_ville":"crozet","departement_id":601,"code_postal":"01170","population":2288,"superficie_km2":"27.00","latitude_centre":"46.2919998","longitude_centre":"5.9949999","distance_km":3.26},{"id":139,"code_insee":"01354","nom_standard":"Saint-Genis-Pouilly","nom_a":null,"nom_de":null,"slug_ville":"saint-genis-pouilly","departement_id":601,"code_postal":"01630","population":14558,"superficie_km2":"10.00","latitude_centre":"46.2540016","longitude_centre":"6.0359998","distance_km":3.75},{"id":41,"code_insee":"01103","nom_standard":"Chevry","nom_a":null,"nom_de":null,"slug_ville":"chevry","departement_id":601,"code_postal":"01170","population":2261,"superficie_km2":"6.00","latitude_centre":"46.2830010","longitude_centre":"6.0469999","distance_km":4.98},{"id":140,"code_insee":"01360","nom_standard":"Saint-Jean-de-Gonville","nom_a":null,"nom_de":null,"slug_ville":"saint-jean-de-gonville","departement_id":601,"code_postal":"01630","population":1988,"superficie_km2":"12.00","latitude_centre":"46.2179985","longitude_centre":"5.9419999","distance_km":6.17},{"id":58,"code_insee":"01153","nom_standard":"Échenevex","nom_a":null,"nom_de":null,"slug_ville":"echenevex","departement_id":601,"code_postal":"01170","population":2127,"superficie_km2":"16.00","latitude_centre":"46.3160019","longitude_centre":"6.0190001","distance_km":6.33},{"id":120,"code_insee":"01313","nom_standard":"Prévessin-Moëns","nom_a":null,"nom_de":null,"slug_ville":"prevessin-moens","departement_id":601,"code_postal":"01280","population":9063,"superficie_km2":"12.00","latitude_centre":"46.2579994","longitude_centre":"6.0720000","distance_km":6.41},{"id":158,"code_insee":"01399","nom_standard":"Ségny","nom_a":null,"nom_de":null,"slug_ville":"segny","departement_id":601,"code_postal":"01170","population":2412,"superficie_km2":"3.00","latitude_centre":"46.2939987","longitude_centre":"6.0730000","distance_km":7.32},{"id":109,"code_insee":"01281","nom_standard":"Ornex","nom_a":null,"nom_de":null,"slug_ville":"ornex","departement_id":601,"code_postal":"01210","population":4690,"superficie_km2":"6.00","latitude_centre":"46.2779999","longitude_centre":"6.0939999","distance_km":8.24},{"id":29,"code_insee":"01071","nom_standard":"Cessy","nom_a":null,"nom_de":null,"slug_ville":"cessy","departement_id":601,"code_postal":"01170","population":5307,"superficie_km2":"6.00","latitude_centre":"46.3160019","longitude_centre":"6.0780001","distance_km":9.03},{"id":62,"code_insee":"01160","nom_standard":"Ferney-Voltaire","nom_a":null,"nom_de":null,"slug_ville":"ferney-voltaire","departement_id":601,"code_postal":"01210","population":10920,"superficie_km2":"5.00","latitude_centre":"46.2519989","longitude_centre":"6.1079998","distance_km":9.23},{"id":173,"code_insee":"01435","nom_standard":"Versonnex","nom_a":null,"nom_de":null,"slug_ville":"versonnex","departement_id":601,"code_postal":"01210","population":2137,"superficie_km2":"6.00","latitude_centre":"46.2999992","longitude_centre":"6.1009998","distance_km":9.54},{"id":112,"code_insee":"01288","nom_standard":"Péron","nom_a":null,"nom_de":null,"slug_ville":"peron","departement_id":601,"code_postal":"01630","population":2838,"superficie_km2":"26.00","latitude_centre":"46.1910019","longitude_centre":"5.9200001","distance_km":9.61},{"id":33,"code_insee":"01078","nom_standard":"Challex","nom_a":null,"nom_de":null,"slug_ville":"challex","departement_id":601,"code_postal":"01630","population":1619,"superficie_km2":"9.00","latitude_centre":"46.1769981","longitude_centre":"5.9710002","distance_km":9.66},{"id":67,"code_insee":"01173","nom_standard":"Gex","nom_a":null,"nom_de":null,"slug_ville":"gex","departement_id":601,"code_postal":"01170","population":13078,"superficie_km2":"32.00","latitude_centre":"46.3470001","longitude_centre":"6.0460000","distance_km":10.32},{"id":60,"code_insee":"01158","nom_standard":"Farges","nom_a":null,"nom_de":null,"slug_ville":"farges","departement_id":601,"code_postal":"01550","population":1058,"superficie_km2":"14.00","latitude_centre":"46.1660004","longitude_centre":"5.9000001","distance_km":12.78},{"id":44,"code_insee":"01109","nom_standard":"Collonges","nom_a":null,"nom_de":null,"slug_ville":"collonges","departement_id":601,"code_postal":"01550","population":2249,"superficie_km2":"16.00","latitude_centre":"46.1419983","longitude_centre":"5.9000001","distance_km":15.1},{"id":7859,"code_insee":"74243","nom_standard":"Saint-Julien-en-Genevois","nom_a":null,"nom_de":null,"slug_ville":"saint-julien-en-genevois","departement_id":675,"code_postal":"74160","population":15840,"superficie_km2":"11.00","latitude_centre":"46.1389999","longitude_centre":"6.0790000","distance_km":15.43},{"id":53,"code_insee":"01143","nom_standard":"Divonne-les-Bains","nom_a":null,"nom_de":null,"slug_ville":"divonne-les-bains","departement_id":601,"code_postal":"01220","population":10137,"superficie_km2":"34.00","latitude_centre":"46.3759995","longitude_centre":"6.1160002","distance_km":15.91},{"id":7891,"code_insee":"74309","nom_standard":"Viry","nom_a":null,"nom_de":null,"slug_ville":"viry","departement_id":675,"code_postal":"74580","population":5635,"superficie_km2":"26.00","latitude_centre":"46.1189995","longitude_centre":"6.0250001","distance_km":16.25}]}