{"ville":{"id":7712,"code_insee":"73286","nom_standard":"Serrières-en-Chautagne","nom_a":null,"nom_de":null,"slug_ville":"serrieres-en-chautagne","departement_id":674,"code_postal":"73310","population":1159,"superficie_km2":"19.00","latitude_centre":"45.8810005","longitude_centre":"5.8429999","dep_code":"73","dep_nom":"Savoie","dep_slug":"savoie","reg_code":"01","reg_nom":"Auvergne-Rhône-Alpes","reg_slug":"auvergne-rhone-alpes"},"departement":{"code":"73","nom":"Savoie","slug":"savoie"},"region":{"code":"01","nom":"Auvergne-Rhône-Alpes","slug":"auvergne-rhone-alpes"},"villes_proches":[{"id":8,"code_insee":"01010","nom_standard":"Anglefort","nom_a":null,"nom_de":null,"slug_ville":"anglefort","departement_id":601,"code_postal":"01350","population":1125,"superficie_km2":"29.00","latitude_centre":"45.9090004","longitude_centre":"5.7950001","distance_km":4.85},{"id":51,"code_insee":"01138","nom_standard":"Culoz-Béon","nom_a":null,"nom_de":null,"slug_ville":"culoz-beon","departement_id":601,"code_postal":"01350","population":3426,"superficie_km2":"19.00","latitude_centre":"45.8559990","longitude_centre":"5.7839999","distance_km":5.35},{"id":7660,"code_insee":"73085","nom_standard":"Chindrieux","nom_a":null,"nom_de":null,"slug_ville":"chindrieux","departement_id":674,"code_postal":"73310","population":1445,"superficie_km2":"20.00","latitude_centre":"45.8129997","longitude_centre":"5.8449998","distance_km":7.56},{"id":162,"code_insee":"01407","nom_standard":"Seyssel","nom_a":null,"nom_de":null,"slug_ville":"seyssel","departement_id":601,"code_postal":"01420","population":1001,"superficie_km2":"2.00","latitude_centre":"45.9480019","longitude_centre":"5.8260002","distance_km":7.57},{"id":7850,"code_insee":"74225","nom_standard":"Rumilly","nom_a":null,"nom_de":null,"slug_ville":"rumilly","departement_id":675,"code_postal":"74150","population":15998,"superficie_km2":"17.00","latitude_centre":"45.8559990","longitude_centre":"5.9410000","distance_km":8.08},{"id":7883,"code_insee":"74289","nom_standard":"Vallières-sur-Fier","nom_a":null,"nom_de":null,"slug_ville":"vallieres-sur-fier","departement_id":675,"code_postal":"74150","population":2618,"superficie_km2":"9.00","latitude_centre":"45.9049988","longitude_centre":"5.9419999","distance_km":8.11},{"id":7872,"code_insee":"74269","nom_standard":"Seyssel","nom_a":null,"nom_de":null,"slug_ville":"seyssel","departement_id":675,"code_postal":"74910","population":2342,"superficie_km2":"17.00","latitude_centre":"45.9599991","longitude_centre":"5.8530002","distance_km":8.82},{"id":7863,"code_insee":"74255","nom_standard":"Sales","nom_a":null,"nom_de":null,"slug_ville":"sales","departement_id":675,"code_postal":"74150","population":2210,"superficie_km2":"9.00","latitude_centre":"45.8820000","longitude_centre":"5.9600000","distance_km":9.06},{"id":46,"code_insee":"01118","nom_standard":"Corbonod","nom_a":null,"nom_de":null,"slug_ville":"corbonod","departement_id":601,"code_postal":"01420","population":1296,"superficie_km2":"32.00","latitude_centre":"45.9659996","longitude_centre":"5.7900000","distance_km":10.3},{"id":7800,"code_insee":"74141","nom_standard":"Hauteville-sur-Fier","nom_a":null,"nom_de":null,"slug_ville":"hauteville-sur-fier","departement_id":675,"code_postal":"74150","population":1034,"superficie_km2":"5.00","latitude_centre":"45.9049988","longitude_centre":"5.9780002","distance_km":10.78},{"id":11,"code_insee":"01022","nom_standard":"Artemare","nom_a":null,"nom_de":null,"slug_ville":"artemare","departement_id":601,"code_postal":"01510","population":1177,"superficie_km2":"3.00","latitude_centre":"45.8699989","longitude_centre":"5.6910000","distance_km":11.83},{"id":7880,"code_insee":"74283","nom_standard":"Thusy","nom_a":null,"nom_de":null,"slug_ville":"thusy","departement_id":675,"code_postal":"74150","population":1157,"superficie_km2":"11.00","latitude_centre":"45.9500008","longitude_centre":"5.9640002","distance_km":12.1},{"id":7812,"code_insee":"74161","nom_standard":"Marcellaz-Albanais","nom_a":null,"nom_de":null,"slug_ville":"marcellaz-albanais","departement_id":675,"code_postal":"74150","population":1957,"superficie_km2":"15.00","latitude_centre":"45.8709984","longitude_centre":"6.0000000","distance_km":12.21},{"id":7643,"code_insee":"73010","nom_standard":"Entrelacs","nom_a":null,"nom_de":null,"slug_ville":"entrelacs","departement_id":674,"code_postal":"73410","population":6329,"superficie_km2":"15.00","latitude_centre":"45.7900009","longitude_centre":"5.9369998","distance_km":12.47},{"id":7884,"code_insee":"74292","nom_standard":"Vaulx","nom_a":null,"nom_de":null,"slug_ville":"vaulx","departement_id":675,"code_postal":"74150","population":1050,"superficie_km2":"11.00","latitude_centre":"45.9259987","longitude_centre":"5.9990001","distance_km":13.07},{"id":7852,"code_insee":"74233","nom_standard":"Saint-Félix","nom_a":null,"nom_de":null,"slug_ville":"saint-felix","departement_id":675,"code_postal":"74540","population":2431,"superficie_km2":"7.00","latitude_centre":"45.8079987","longitude_centre":"5.9770002","distance_km":13.18},{"id":7651,"code_insee":"73043","nom_standard":"La Biolle","nom_a":null,"nom_de":null,"slug_ville":"la-biolle","departement_id":674,"code_postal":"73410","population":2896,"superficie_km2":"13.00","latitude_centre":"45.7589989","longitude_centre":"5.9159999","distance_km":14.7},{"id":19,"code_insee":"01036","nom_standard":"Valromey-sur-Séran","nom_a":null,"nom_de":null,"slug_ville":"valromey-sur-seran","departement_id":601,"code_postal":"01260","population":1342,"superficie_km2":"20.00","latitude_centre":"45.8849983","longitude_centre":"5.6510000","distance_km":14.87},{"id":7762,"code_insee":"74075","nom_standard":"Chilly","nom_a":null,"nom_de":null,"slug_ville":"chilly","departement_id":675,"code_postal":"74270","population":1577,"superficie_km2":"19.00","latitude_centre":"45.9889984","longitude_centre":"5.9569998","distance_km":14.9},{"id":7805,"code_insee":"74152","nom_standard":"Lovagny","nom_a":null,"nom_de":null,"slug_ville":"lovagny","departement_id":675,"code_postal":"74330","population":1272,"superficie_km2":"5.00","latitude_centre":"45.9039993","longitude_centre":"6.0339999","distance_km":15}]}