{"ville":{"id":11298,"code_insee":"04206","nom_standard":"Sigonce","nom_a":null,"nom_de":null,"slug_ville":"sigonce","departement_id":0,"code_postal":"04300","population":419,"superficie_km2":"2031.70","latitude_centre":"44.0087","longitude_centre":"5.8505","dep_code":"04","dep_nom":"Alpes-de-Haute-Provence","dep_slug":"alpes-de-haute-provence","reg_code":"93","reg_nom":"Provence-Alpes-Côte d'Azur","reg_slug":"provence-alpes-cote-d-azur"},"departement":{"code":"04","nom":"Alpes-de-Haute-Provence","slug":"alpes-de-haute-provence"},"region":{"code":"93","nom":"Provence-Alpes-Côte d'Azur","slug":"provence-alpes-cote-d-azur"},"villes_proches":[{"id":11267,"code_insee":"04164","nom_standard":"Revest-Saint-Martin","nom_a":null,"nom_de":null,"slug_ville":"revest-saint-martin","departement_id":0,"code_postal":"04230","population":79,"superficie_km2":"756.22","latitude_centre":"44.0228","longitude_centre":"5.8258","distance_km":2.52},{"id":11242,"code_insee":"04130","nom_standard":"Montlaux","nom_a":null,"nom_de":null,"slug_ville":"montlaux","departement_id":0,"code_postal":"04230","population":209,"superficie_km2":"1983.30","latitude_centre":"44.0405","longitude_centre":"5.8443","distance_km":3.57},{"id":11216,"code_insee":"04087","nom_standard":"Fontienne","nom_a":null,"nom_de":null,"slug_ville":"fontienne","departement_id":0,"code_postal":"04230","population":129,"superficie_km2":"821.61","latitude_centre":"44.0076","longitude_centre":"5.7897","distance_km":4.86},{"id":11218,"code_insee":"04091","nom_standard":"Ganagobie","nom_a":null,"nom_de":null,"slug_ville":"ganagobie","departement_id":0,"code_postal":"04310","population":89,"superficie_km2":"1057.64","latitude_centre":"44.0026","longitude_centre":"5.9113","distance_km":4.91},{"id":11257,"code_insee":"04151","nom_standard":"Pierrerue","nom_a":null,"nom_de":null,"slug_ville":"pierrerue","departement_id":0,"code_postal":"04300","population":529,"superficie_km2":"1097.16","latitude_centre":"43.9645","longitude_centre":"5.8394","distance_km":4.99},{"id":11227,"code_insee":"04106","nom_standard":"Lurs","nom_a":null,"nom_de":null,"slug_ville":"lurs","departement_id":0,"code_postal":"04700","population":385,"superficie_km2":"2250.66","latitude_centre":"43.9674","longitude_centre":"5.878","distance_km":5.09},{"id":0,"code_insee":"04149","nom_standard":"Peyruis","nom_a":null,"nom_de":null,"slug_ville":"peyruis","departement_id":0,"code_postal":"04310","population":2798,"superficie_km2":"2335.04","latitude_centre":"44.0351","longitude_centre":"5.9306","distance_km":7.05},{"id":0,"code_insee":"04088","nom_standard":"Forcalquier","nom_a":null,"nom_de":null,"slug_ville":"forcalquier","departement_id":0,"code_postal":"04300","population":5222,"superficie_km2":"4330.81","latitude_centre":"43.9582","longitude_centre":"5.7842","distance_km":7.72},{"id":0,"code_insee":"04178","nom_standard":"Saint-Étienne-les-Orgues","nom_a":null,"nom_de":null,"slug_ville":"saint-etienne-les-orgues","departement_id":0,"code_postal":"04230","population":1286,"superficie_km2":"4875.07","latitude_centre":"44.0648","longitude_centre":"5.7798","distance_km":8.42},{"id":11249,"code_insee":"04138","nom_standard":"Niozelles","nom_a":null,"nom_de":null,"slug_ville":"niozelles","departement_id":0,"code_postal":"04300","population":274,"superficie_km2":"1060.78","latitude_centre":"43.933","longitude_centre":"5.8445","distance_km":8.43},{"id":11201,"code_insee":"04065","nom_standard":"Cruis","nom_a":null,"nom_de":null,"slug_ville":"cruis","departement_id":0,"code_postal":"04230","population":655,"superficie_km2":"3659.91","latitude_centre":"44.0845","longitude_centre":"5.8397","distance_km":8.47},{"id":11229,"code_insee":"04109","nom_standard":"Mallefougasse-Augès","nom_a":null,"nom_de":null,"slug_ville":"mallefougasse-auges","departement_id":0,"code_postal":"04230","population":327,"superficie_km2":"1949.21","latitude_centre":"44.0766","longitude_centre":"5.8998","distance_km":8.52},{"id":0,"code_insee":"04034","nom_standard":"La Brillanne","nom_a":null,"nom_de":null,"slug_ville":"la-brillanne","departement_id":0,"code_postal":"04700","population":1121,"superficie_km2":"693.74","latitude_centre":"43.93","longitude_centre":"5.8822","distance_km":9.11},{"id":0,"code_insee":"04116","nom_standard":"Les Mées","nom_a":null,"nom_de":null,"slug_ville":"les-mees","departement_id":0,"code_postal":"04190","population":4099,"superficie_km2":"6470.17","latitude_centre":"43.9956","longitude_centre":"5.9679","distance_km":9.5},{"id":11239,"code_insee":"04127","nom_standard":"Montfort","nom_a":null,"nom_de":null,"slug_ville":"montfort","departement_id":0,"code_postal":"04600","population":343,"superficie_km2":"1249.46","latitude_centre":"44.0551","longitude_centre":"5.9505","distance_km":9.51},{"id":0,"code_insee":"04111","nom_standard":"Mane","nom_a":null,"nom_de":null,"slug_ville":"mane","departement_id":0,"code_postal":"04300","population":1410,"superficie_km2":"2193.43","latitude_centre":"43.9426","longitude_centre":"5.7419","distance_km":11.38},{"id":11193,"code_insee":"04053","nom_standard":"Châteauneuf-Val-Saint-Donat","nom_a":null,"nom_de":null,"slug_ville":"chateauneuf-val-saint-donat","departement_id":0,"code_postal":"04200","population":532,"superficie_km2":"2121.20","latitude_centre":"44.0951","longitude_centre":"5.9289","distance_km":11.47},{"id":0,"code_insee":"04143","nom_standard":"Oraison","nom_a":null,"nom_de":null,"slug_ville":"oraison","departement_id":0,"code_postal":"04700","population":6155,"superficie_km2":"3867.95","latitude_centre":"43.9116","longitude_centre":"5.9232","distance_km":12.27},{"id":11285,"code_insee":"04188","nom_standard":"Saint-Maime","nom_a":null,"nom_de":null,"slug_ville":"saint-maime","departement_id":0,"code_postal":"04300","population":923,"superficie_km2":"764.76","latitude_centre":"43.8981","longitude_centre":"5.7988","distance_km":12.98},{"id":0,"code_insee":"04242","nom_standard":"Villeneuve","nom_a":null,"nom_de":null,"slug_ville":"villeneuve","departement_id":0,"code_postal":"04180","population":4360,"superficie_km2":"2552.10","latitude_centre":"43.8848","longitude_centre":"5.8509","distance_km":13.78}]}