{"ville":{"id":20716,"code_insee":"38494","nom_standard":"Soleymieu","nom_a":null,"nom_de":null,"slug_ville":"soleymieu","departement_id":0,"code_postal":"38460","population":895,"superficie_km2":"1333.61","latitude_centre":"45.7031","longitude_centre":"5.3622","dep_code":"38","dep_nom":"Isère","dep_slug":"isere","reg_code":"84","reg_nom":"Auvergne-Rhône-Alpes","reg_slug":"auvergne-rhone-alpes"},"departement":{"code":"38","nom":"Isère","slug":"isere"},"region":{"code":"84","nom":"Auvergne-Rhône-Alpes","slug":"auvergne-rhone-alpes"},"villes_proches":[{"id":0,"code_insee":"38515","nom_standard":"Trept","nom_a":null,"nom_de":null,"slug_ville":"trept","departement_id":0,"code_postal":"38460","population":2095,"superficie_km2":"1590.33","latitude_centre":"45.6864","longitude_centre":"5.3239","distance_km":3.51},{"id":0,"code_insee":"38467","nom_standard":"Salagnon","nom_a":null,"nom_de":null,"slug_ville":"salagnon","departement_id":0,"code_postal":"38890","population":1508,"superficie_km2":"828.99","latitude_centre":"45.6717","longitude_centre":"5.3523","distance_km":3.58},{"id":0,"code_insee":"38135","nom_standard":"Courtenay","nom_a":null,"nom_de":null,"slug_ville":"courtenay","departement_id":0,"code_postal":"38510","population":1277,"superficie_km2":"3221.61","latitude_centre":"45.7396","longitude_centre":"5.3887","distance_km":4.55},{"id":20713,"code_insee":"38488","nom_standard":"Siccieu-Saint-Julien-et-Carisieu","nom_a":null,"nom_de":null,"slug_ville":"siccieu-saint-julien-et-carisieu","departement_id":0,"code_postal":"38460","population":609,"superficie_km2":"1424.04","latitude_centre":"45.7286","longitude_centre":"5.3089","distance_km":5.02},{"id":0,"code_insee":"38483","nom_standard":"Sermérieu","nom_a":null,"nom_de":null,"slug_ville":"sermerieu","departement_id":0,"code_postal":"38510","population":1638,"superficie_km2":"1737.34","latitude_centre":"45.6689","longitude_centre":"5.4123","distance_km":5.44},{"id":20620,"code_insee":"38282","nom_standard":"Optevoz","nom_a":null,"nom_de":null,"slug_ville":"optevoz","departement_id":0,"code_postal":"38460","population":875,"superficie_km2":"1204.03","latitude_centre":"45.752","longitude_centre":"5.3406","distance_km":5.69},{"id":0,"code_insee":"38297","nom_standard":"Arandon-Passins","nom_a":null,"nom_de":null,"slug_ville":"arandon-passins","departement_id":0,"code_postal":"38510","population":1864,"superficie_km2":"2634.67","latitude_centre":"45.7064","longitude_centre":"5.4373","distance_km":5.84},{"id":20559,"code_insee":"38146","nom_standard":"Dizimieu","nom_a":null,"nom_de":null,"slug_ville":"dizimieu","departement_id":0,"code_postal":"38460","population":835,"superficie_km2":"970.21","latitude_centre":"45.7112","longitude_centre":"5.2846","distance_km":6.09},{"id":20674,"code_insee":"38392","nom_standard":"Saint-Hilaire-de-Brens","nom_a":null,"nom_de":null,"slug_ville":"saint-hilaire-de-brens","departement_id":0,"code_postal":"38460","population":603,"superficie_km2":"755.94","latitude_centre":"45.677","longitude_centre":"5.2913","distance_km":6.23},{"id":0,"code_insee":"38374","nom_standard":"Saint-Chef","nom_a":null,"nom_de":null,"slug_ville":"saint-chef","departement_id":0,"code_postal":"38890","population":3921,"superficie_km2":"2754.15","latitude_centre":"45.6401","longitude_centre":"5.3619","distance_km":7.01},{"id":20607,"code_insee":"38260","nom_standard":"Moras","nom_a":null,"nom_de":null,"slug_ville":"moras","departement_id":0,"code_postal":"38460","population":520,"superficie_km2":"826.10","latitude_centre":"45.6856","longitude_centre":"5.2626","distance_km":7.98},{"id":0,"code_insee":"38532","nom_standard":"Vénérieu","nom_a":null,"nom_de":null,"slug_ville":"venerieu","departement_id":0,"code_postal":"38460","population":968,"superficie_km2":"593.45","latitude_centre":"45.6593","longitude_centre":"5.2785","distance_km":8.12},{"id":0,"code_insee":"38138","nom_standard":"Crémieu","nom_a":null,"nom_de":null,"slug_ville":"cremieu","departement_id":0,"code_postal":"38460","population":3536,"superficie_km2":"622.56","latitude_centre":"45.7314","longitude_centre":"5.2635","distance_km":8.28},{"id":0,"code_insee":"38455","nom_standard":"Saint-Savin","nom_a":null,"nom_de":null,"slug_ville":"saint-savin","departement_id":0,"code_postal":"38300","population":4323,"superficie_km2":"2483.57","latitude_centre":"45.6282","longitude_centre":"5.3216","distance_km":8.91},{"id":20506,"code_insee":"38010","nom_standard":"Annoisin-Chatelans","nom_a":null,"nom_de":null,"slug_ville":"annoisin-chatelans","departement_id":0,"code_postal":"38460","population":719,"superficie_km2":"1337.25","latitude_centre":"45.7657","longitude_centre":"5.289","distance_km":8.98},{"id":0,"code_insee":"38546","nom_standard":"Vignieu","nom_a":null,"nom_de":null,"slug_ville":"vignieu","departement_id":0,"code_postal":"38890","population":1024,"superficie_km2":"941.78","latitude_centre":"45.6315","longitude_centre":"5.4227","distance_km":9.25},{"id":0,"code_insee":"38054","nom_standard":"Bouvesse-Quirieu","nom_a":null,"nom_de":null,"slug_ville":"bouvesse-quirieu","departement_id":0,"code_postal":"38390","population":1524,"superficie_km2":"1778.01","latitude_centre":"45.7794","longitude_centre":"5.4193","distance_km":9.57},{"id":20663,"code_insee":"38365","nom_standard":"Saint-Baudille-de-la-Tour","nom_a":null,"nom_de":null,"slug_ville":"saint-baudille-de-la-tour","departement_id":0,"code_postal":"38118","population":849,"superficie_km2":"2189.18","latitude_centre":"45.7905","longitude_centre":"5.347","distance_km":9.79},{"id":20600,"code_insee":"38250","nom_standard":"Montcarra","nom_a":null,"nom_de":null,"slug_ville":"montcarra","departement_id":0,"code_postal":"38890","population":612,"superficie_km2":"492.64","latitude_centre":"45.6091","longitude_centre":"5.4017","distance_km":10.89},{"id":20532,"code_insee":"38083","nom_standard":"Charette","nom_a":null,"nom_de":null,"slug_ville":"charette","departement_id":0,"code_postal":"38390","population":445,"superficie_km2":"1136.51","latitude_centre":"45.8045","longitude_centre":"5.3593","distance_km":11.28}]}