{"ville":{"id":23766,"code_insee":"51544","nom_standard":"Sommepy-Tahure","nom_a":null,"nom_de":null,"slug_ville":"sommepy-tahure","departement_id":0,"code_postal":"51600","population":663,"superficie_km2":"6809.50","latitude_centre":"49.2445","longitude_centre":"4.6016","dep_code":"51","dep_nom":"Marne","dep_slug":"marne","reg_code":"44","reg_nom":"Grand Est","reg_slug":"grand-est"},"departement":{"code":"51","nom":"Marne","slug":"marne"},"region":{"code":"44","nom":"Grand Est","slug":"grand-est"},"villes_proches":[{"id":11820,"code_insee":"08031","nom_standard":"Aure","nom_a":null,"nom_de":null,"slug_ville":"aure","departement_id":0,"code_postal":"08400","population":40,"superficie_km2":"1270.03","latitude_centre":"49.2761","longitude_centre":"4.6221","distance_km":3.82},{"id":12005,"code_insee":"08271","nom_standard":"Manre","nom_a":null,"nom_de":null,"slug_ville":"manre","departement_id":0,"code_postal":"08400","population":108,"superficie_km2":"1848.99","latitude_centre":"49.2568","longitude_centre":"4.6535","distance_km":4.01},{"id":0,"code_insee":"51553","nom_standard":"Souain-Perthes-lès-Hurlus","nom_a":null,"nom_de":null,"slug_ville":"souain-perthes-les-hurlus","departement_id":0,"code_postal":"51600","population":263,"superficie_km2":"5281.51","latitude_centre":"49.1909","longitude_centre":"4.578","distance_km":6.2},{"id":23731,"code_insee":"51501","nom_standard":"Sainte-Marie-à-Py","nom_a":null,"nom_de":null,"slug_ville":"sainte-marie-a-py","departement_id":0,"code_postal":"51600","population":194,"superficie_km2":"2679.65","latitude_centre":"49.2441","longitude_centre":"4.516","distance_km":6.21},{"id":23552,"code_insee":"51280","nom_standard":"Gratreuil","nom_a":null,"nom_de":null,"slug_ville":"gratreuil","departement_id":0,"code_postal":"51800","population":21,"superficie_km2":"474.19","latitude_centre":"49.246","longitude_centre":"4.6939","distance_km":6.7},{"id":11997,"code_insee":"08256","nom_standard":"Liry","nom_a":null,"nom_de":null,"slug_ville":"liry","departement_id":0,"code_postal":"08400","population":92,"superficie_km2":"1275.20","latitude_centre":"49.3071","longitude_centre":"4.642","distance_km":7.55},{"id":11809,"code_insee":"08018","nom_standard":"Ardeuil-et-Montfauxelles","nom_a":null,"nom_de":null,"slug_ville":"ardeuil-et-montfauxelles","departement_id":0,"code_postal":"08400","population":79,"superficie_km2":"433.29","latitude_centre":"49.2672","longitude_centre":"4.7048","distance_km":7.9},{"id":23705,"code_insee":"51470","nom_standard":"Rouvroy-Ripont","nom_a":null,"nom_de":null,"slug_ville":"rouvroy-ripont","departement_id":0,"code_postal":"51800","population":5,"superficie_km2":"1171.23","latitude_centre":"49.2211","longitude_centre":"4.7051","distance_km":7.95},{"id":12014,"code_insee":"08280","nom_standard":"Marvaux-Vieux","nom_a":null,"nom_de":null,"slug_ville":"marvaux-vieux","departement_id":0,"code_postal":"08400","population":69,"superficie_km2":"1155.26","latitude_centre":"49.2874","longitude_centre":"4.691","distance_km":8.05},{"id":23531,"code_insee":"51255","nom_standard":"Fontaine-en-Dormois","nom_a":null,"nom_de":null,"slug_ville":"fontaine-en-dormois","departement_id":0,"code_postal":"51800","population":16,"superficie_km2":"527.78","latitude_centre":"49.242","longitude_centre":"4.7202","distance_km":8.61},{"id":12118,"code_insee":"08410","nom_standard":"Semide","nom_a":null,"nom_de":null,"slug_ville":"semide","departement_id":0,"code_postal":"08400","population":174,"superficie_km2":"3691.65","latitude_centre":"49.3266","longitude_centre":"4.5771","distance_km":9.3},{"id":12090,"code_insee":"08379","nom_standard":"Saint-Étienne-à-Arnes","nom_a":null,"nom_de":null,"slug_ville":"saint-etienne-a-arnes","departement_id":0,"code_postal":"08310","population":245,"superficie_km2":"2977.25","latitude_centre":"49.3072","longitude_centre":"4.5111","distance_km":9.58},{"id":23624,"code_insee":"51368","nom_standard":"Minaucourt-le-Mesnil-lès-Hurlus","nom_a":null,"nom_de":null,"slug_ville":"minaucourt-le-mesnil-les-hurlus","departement_id":0,"code_postal":"51800","population":46,"superficie_km2":"2305.84","latitude_centre":"49.178","longitude_centre":"4.6919","distance_km":9.88},{"id":12033,"code_insee":"08308","nom_standard":"Mont-Saint-Martin","nom_a":null,"nom_de":null,"slug_ville":"mont-saint-martin","departement_id":0,"code_postal":"08400","population":88,"superficie_km2":"1405.40","latitude_centre":"49.3317","longitude_centre":"4.6421","distance_km":10.13},{"id":0,"code_insee":"51659","nom_standard":"Wargemoulin-Hurlus","nom_a":null,"nom_de":null,"slug_ville":"wargemoulin-hurlus","departement_id":0,"code_postal":"51800","population":45,"superficie_km2":"1511.55","latitude_centre":"49.1637","longitude_centre":"4.6661","distance_km":10.13},{"id":12028,"code_insee":"08303","nom_standard":"Monthois","nom_a":null,"nom_de":null,"slug_ville":"monthois","departement_id":0,"code_postal":"08400","population":390,"superficie_km2":"1207.76","latitude_centre":"49.3112","longitude_centre":"4.7094","distance_km":10.78},{"id":23585,"code_insee":"51317","nom_standard":"Laval-sur-Tourbe","nom_a":null,"nom_de":null,"slug_ville":"laval-sur-tourbe","departement_id":0,"code_postal":"51600","population":52,"superficie_km2":"1469.75","latitude_centre":"49.142","longitude_centre":"4.679","distance_km":12.71},{"id":11896,"code_insee":"08130","nom_standard":"Contreuve","nom_a":null,"nom_de":null,"slug_ville":"contreuve","departement_id":0,"code_postal":"08400","population":87,"superficie_km2":"1105.09","latitude_centre":"49.3591","longitude_centre":"4.6165","distance_km":12.79},{"id":12135,"code_insee":"08431","nom_standard":"Sugny","nom_a":null,"nom_de":null,"slug_ville":"sugny","departement_id":0,"code_postal":"08400","population":92,"superficie_km2":"607.12","latitude_centre":"49.3539","longitude_centre":"4.6585","distance_km":12.85},{"id":0,"code_insee":"51546","nom_standard":"Somme-Suippe","nom_a":null,"nom_de":null,"slug_ville":"somme-suippe","departement_id":0,"code_postal":"51600","population":513,"superficie_km2":"3150.33","latitude_centre":"49.1226","longitude_centre":"4.5847","distance_km":13.61}]}