{"ville":{"id":25314,"code_insee":"55493","nom_standard":"Sommeilles","nom_a":null,"nom_de":null,"slug_ville":"sommeilles","departement_id":0,"code_postal":"55800","population":181,"superficie_km2":"1870.73","latitude_centre":"48.9153","longitude_centre":"4.9659","dep_code":"55","dep_nom":"Meuse","dep_slug":"meuse","reg_code":"44","reg_nom":"Grand Est","reg_slug":"grand-est"},"departement":{"code":"55","nom":"Meuse","slug":"meuse"},"region":{"code":"44","nom":"Grand Est","slug":"grand-est"},"villes_proches":[{"id":23360,"code_insee":"51047","nom_standard":"Belval-en-Argonne","nom_a":null,"nom_de":null,"slug_ville":"belval-en-argonne","departement_id":0,"code_postal":"51330","population":44,"superficie_km2":"1220.92","latitude_centre":"48.9439","longitude_centre":"4.9814","distance_km":3.38},{"id":25229,"code_insee":"55388","nom_standard":"Noyers-Auzécourt","nom_a":null,"nom_de":null,"slug_ville":"noyers-auzecourt","departement_id":0,"code_postal":"55800","population":273,"superficie_km2":"1731.02","latitude_centre":"48.8852","longitude_centre":"4.9834","distance_km":3.58},{"id":23431,"code_insee":"51133","nom_standard":"Le Châtelier","nom_a":null,"nom_de":null,"slug_ville":"le-chatelier","departement_id":0,"code_postal":"51330","population":63,"superficie_km2":"1074.90","latitude_centre":"48.9411","longitude_centre":"4.9226","distance_km":4.27},{"id":25219,"code_insee":"55378","nom_standard":"Nettancourt","nom_a":null,"nom_de":null,"slug_ville":"nettancourt","departement_id":0,"code_postal":"55800","population":242,"superficie_km2":"1139.56","latitude_centre":"48.874","longitude_centre":"4.936","distance_km":5.09},{"id":25130,"code_insee":"55271","nom_standard":"Laheycourt","nom_a":null,"nom_de":null,"slug_ville":"laheycourt","departement_id":0,"code_postal":"55800","population":349,"superficie_km2":"1787.91","latitude_centre":"48.901","longitude_centre":"5.0353","distance_km":5.32},{"id":23544,"code_insee":"51272","nom_standard":"Givry-en-Argonne","nom_a":null,"nom_de":null,"slug_ville":"givry-en-argonne","departement_id":0,"code_postal":"51330","population":448,"superficie_km2":"748.51","latitude_centre":"48.9482","longitude_centre":"4.9113","distance_km":5.41},{"id":23430,"code_insee":"51132","nom_standard":"Les Charmontois","nom_a":null,"nom_de":null,"slug_ville":"les-charmontois","departement_id":0,"code_postal":"51330","population":119,"superficie_km2":"1472.69","latitude_centre":"48.9645","longitude_centre":"4.9894","distance_km":5.73},{"id":24972,"code_insee":"55069","nom_standard":"Brabant-le-Roi","nom_a":null,"nom_de":null,"slug_ville":"brabant-le-roi","departement_id":0,"code_postal":"55800","population":221,"superficie_km2":"1113.49","latitude_centre":"48.8576","longitude_centre":"4.9784","distance_km":6.48},{"id":0,"code_insee":"55560","nom_standard":"Villers-aux-Vents","nom_a":null,"nom_de":null,"slug_ville":"villers-aux-vents","departement_id":0,"code_postal":"55800","population":125,"superficie_km2":"609.23","latitude_centre":"48.8598","longitude_centre":"5.0231","distance_km":7.45},{"id":23647,"code_insee":"51397","nom_standard":"La Neuville-aux-Bois","nom_a":null,"nom_de":null,"slug_ville":"la-neuville-aux-bois","departement_id":0,"code_postal":"51330","population":138,"superficie_km2":"1459.71","latitude_centre":"48.9681","longitude_centre":"4.8937","distance_km":7.89},{"id":23829,"code_insee":"51619","nom_standard":"Le Vieil-Dampierre","nom_a":null,"nom_de":null,"slug_ville":"le-vieil-dampierre","departement_id":0,"code_postal":"51330","population":102,"superficie_km2":"1382.19","latitude_centre":"48.98","longitude_centre":"4.9188","distance_km":7.97},{"id":23865,"code_insee":"51658","nom_standard":"Vroil","nom_a":null,"nom_de":null,"slug_ville":"vroil","departement_id":0,"code_postal":"51330","population":103,"superficie_km2":"1033.30","latitude_centre":"48.8503","longitude_centre":"4.9106","distance_km":8.28},{"id":23429,"code_insee":"51130","nom_standard":"Charmont","nom_a":null,"nom_de":null,"slug_ville":"charmont","departement_id":0,"code_postal":"51330","population":232,"superficie_km2":"2281.55","latitude_centre":"48.8671","longitude_centre":"4.8733","distance_km":8.63},{"id":0,"code_insee":"55517","nom_standard":"Seuil-d'Argonne","nom_a":null,"nom_de":null,"slug_ville":"seuil-d-argonne","departement_id":0,"code_postal":"55250","population":530,"superficie_km2":"2551.65","latitude_centre":"48.9713","longitude_centre":"5.0527","distance_km":8.89},{"id":23503,"code_insee":"51222","nom_standard":"Éclaires","nom_a":null,"nom_de":null,"slug_ville":"eclaires","departement_id":0,"code_postal":"51800","population":82,"superficie_km2":"1091.25","latitude_centre":"48.9939","longitude_centre":"4.9983","distance_km":9.05},{"id":23441,"code_insee":"51143","nom_standard":"Le Chemin","nom_a":null,"nom_de":null,"slug_ville":"le-chemin","departement_id":0,"code_postal":"51800","population":63,"superficie_km2":"627.46","latitude_centre":"48.9993","longitude_centre":"4.9782","distance_km":9.38},{"id":25131,"code_insee":"55272","nom_standard":"Laimont","nom_a":null,"nom_de":null,"slug_ville":"laimont","departement_id":0,"code_postal":"55800","population":423,"superficie_km2":"1074.79","latitude_centre":"48.8422","longitude_centre":"5.0417","distance_km":9.84},{"id":0,"code_insee":"55427","nom_standard":"Revigny-sur-Ornain","nom_a":null,"nom_de":null,"slug_ville":"revigny-sur-ornain","departement_id":0,"code_postal":"55800","population":2499,"superficie_km2":"1935.59","latitude_centre":"48.8268","longitude_centre":"4.9769","distance_km":9.87},{"id":23761,"code_insee":"51537","nom_standard":"Sivry-Ante","nom_a":null,"nom_de":null,"slug_ville":"sivry-ante","departement_id":0,"code_postal":"51800","population":177,"superficie_km2":"2165.92","latitude_centre":"49.0025","longitude_centre":"4.9048","distance_km":10.67},{"id":25249,"code_insee":"55414","nom_standard":"Rancourt-sur-Ornain","nom_a":null,"nom_de":null,"slug_ville":"rancourt-sur-ornain","departement_id":0,"code_postal":"55800","population":180,"superficie_km2":"990.75","latitude_centre":"48.8191","longitude_centre":"4.9162","distance_km":11.3}]}