{"ville":{"id":33288,"code_insee":"80736","nom_standard":"Sorel-en-Vimeu","nom_a":null,"nom_de":null,"slug_ville":"sorel-en-vimeu","departement_id":0,"code_postal":"80490","population":235,"superficie_km2":"409.74","latitude_centre":"50.0126","longitude_centre":"1.9131","dep_code":"80","dep_nom":"Somme","dep_slug":"somme","reg_code":"32","reg_nom":"Hauts-de-France","reg_slug":"hauts-de-france"},"departement":{"code":"80","nom":"Somme","slug":"somme"},"region":{"code":"32","nom":"Hauts-de-France","slug":"hauts-de-france"},"villes_proches":[{"id":32971,"code_insee":"80328","nom_standard":"Fontaine-sur-Somme","nom_a":null,"nom_de":null,"slug_ville":"fontaine-sur-somme","departement_id":0,"code_postal":"80510","population":502,"superficie_km2":"1516.61","latitude_centre":"50.0243","longitude_centre":"1.9422","distance_km":2.45},{"id":33095,"code_insee":"80476","nom_standard":"Liercourt","nom_a":null,"nom_de":null,"slug_ville":"liercourt","departement_id":0,"code_postal":"80580","population":327,"superficie_km2":"551.31","latitude_centre":"50.0329","longitude_centre":"1.8989","distance_km":2.47},{"id":0,"code_insee":"80406","nom_standard":"Hallencourt","nom_a":null,"nom_de":null,"slug_ville":"hallencourt","departement_id":0,"code_postal":"80490","population":1351,"superficie_km2":"2059.18","latitude_centre":"49.9966","longitude_centre":"1.8821","distance_km":2.84},{"id":0,"code_insee":"80488","nom_standard":"Longpré-les-Corps-Saints","nom_a":null,"nom_de":null,"slug_ville":"longpre-les-corps-saints","departement_id":0,"code_postal":"80510","population":1500,"superficie_km2":"804.28","latitude_centre":"50.0133","longitude_centre":"1.9718","distance_km":4.2},{"id":32738,"code_insee":"80051","nom_standard":"Bailleul","nom_a":null,"nom_de":null,"slug_ville":"bailleul","departement_id":0,"code_postal":"80490","population":253,"superficie_km2":"1404.70","latitude_centre":"50.0248","longitude_centre":"1.8547","distance_km":4.39},{"id":32933,"code_insee":"80282","nom_standard":"Érondelle","nom_a":null,"nom_de":null,"slug_ville":"erondelle","departement_id":0,"code_postal":"80580","population":504,"superficie_km2":"399.24","latitude_centre":"50.0447","longitude_centre":"1.877","distance_km":4.4},{"id":32778,"code_insee":"80099","nom_standard":"Bettencourt-Rivière","nom_a":null,"nom_de":null,"slug_ville":"bettencourt-riviere","departement_id":0,"code_postal":"80270","population":209,"superficie_km2":"734.24","latitude_centre":"49.9923","longitude_centre":"1.9773","distance_km":5.11},{"id":0,"code_insee":"80013","nom_standard":"Airaines","nom_a":null,"nom_de":null,"slug_ville":"airaines","departement_id":0,"code_postal":"80270","population":2204,"superficie_km2":"2483.31","latitude_centre":"49.9707","longitude_centre":"1.9511","distance_km":5.39},{"id":0,"code_insee":"80635","nom_standard":"Pont-Remy","nom_a":null,"nom_de":null,"slug_ville":"pont-remy","departement_id":0,"code_postal":"80580","population":1438,"superficie_km2":"999.80","latitude_centre":"50.0628","longitude_centre":"1.917","distance_km":5.59},{"id":32868,"code_insee":"80200","nom_standard":"Cocquerel","nom_a":null,"nom_de":null,"slug_ville":"cocquerel","departement_id":0,"code_postal":"80510","population":220,"superficie_km2":"962.66","latitude_centre":"50.059","longitude_centre":"1.9585","distance_km":6.09},{"id":33103,"code_insee":"80486","nom_standard":"Long","nom_a":null,"nom_de":null,"slug_ville":"long","departement_id":0,"code_postal":"80510","population":590,"superficie_km2":"925.90","latitude_centre":"50.0419","longitude_centre":"1.9864","distance_km":6.17},{"id":32708,"code_insee":"80019","nom_standard":"Allery","nom_a":null,"nom_de":null,"slug_ville":"allery","departement_id":0,"code_postal":"80270","population":843,"superficie_km2":"1307.16","latitude_centre":"49.9583","longitude_centre":"1.8887","distance_km":6.28},{"id":32812,"code_insee":"80135","nom_standard":"Bray-lès-Mareuil","nom_a":null,"nom_de":null,"slug_ville":"bray-les-mareuil","departement_id":0,"code_postal":"80580","population":249,"superficie_km2":"543.17","latitude_centre":"50.0512","longitude_centre":"1.8486","distance_km":6.3},{"id":33139,"code_insee":"80529","nom_standard":"Mérélessart","nom_a":null,"nom_de":null,"slug_ville":"merelessart","departement_id":0,"code_postal":"80490","population":183,"superficie_km2":"375.08","latitude_centre":"49.9717","longitude_centre":"1.8482","distance_km":6.5},{"id":32916,"code_insee":"80262","nom_standard":"Eaucourt-sur-Somme","nom_a":null,"nom_de":null,"slug_ville":"eaucourt-sur-somme","departement_id":0,"code_postal":"80580","population":357,"superficie_km2":"443.12","latitude_centre":"50.0708","longitude_centre":"1.8848","distance_km":6.78},{"id":32985,"code_insee":"80344","nom_standard":"Francières","nom_a":null,"nom_de":null,"slug_ville":"francieres","departement_id":0,"code_postal":"80690","population":176,"superficie_km2":"584.63","latitude_centre":"50.0738","longitude_centre":"1.9442","distance_km":7.16},{"id":32922,"code_insee":"80268","nom_standard":"Épagne-Épagnette","nom_a":null,"nom_de":null,"slug_ville":"epagne-epagnette","departement_id":0,"code_postal":"80580","population":510,"superficie_km2":"683.49","latitude_centre":"50.0777","longitude_centre":"1.8654","distance_km":8.0},{"id":33079,"code_insee":"80459","nom_standard":"Laleu","nom_a":null,"nom_de":null,"slug_ville":"laleu","departement_id":0,"code_postal":"80270","population":98,"superficie_km2":"157.22","latitude_centre":"49.9417","longitude_centre":"1.9368","distance_km":8.06},{"id":33149,"code_insee":"80543","nom_standard":"Métigny","nom_a":null,"nom_de":null,"slug_ville":"metigny","departement_id":0,"code_postal":"80270","population":122,"superficie_km2":"671.84","latitude_centre":"49.935","longitude_centre":"1.9096","distance_km":8.63},{"id":32760,"code_insee":"80078","nom_standard":"Bellancourt","nom_a":null,"nom_de":null,"slug_ville":"bellancourt","departement_id":0,"code_postal":"80132","population":494,"superficie_km2":"609.65","latitude_centre":"50.0933","longitude_centre":"1.9119","distance_km":8.97}]}