{"ville":{"id":20124,"code_insee":"35329","nom_standard":"Sougeal","nom_a":null,"nom_de":null,"slug_ville":"sougeal","departement_id":0,"code_postal":"35610","population":547,"superficie_km2":"1434.85","latitude_centre":"48.5043","longitude_centre":"-1.5131","dep_code":"35","dep_nom":"Ille-et-Vilaine","dep_slug":"ille-et-vilaine","reg_code":"53","reg_nom":"Bretagne","reg_slug":"bretagne"},"departement":{"code":"35","nom":"Ille-et-Vilaine","slug":"ille-et-vilaine"},"region":{"code":"53","nom":"Bretagne","slug":"bretagne"},"villes_proches":[{"id":0,"code_insee":"35354","nom_standard":"Vieux-Viel","nom_a":null,"nom_de":null,"slug_ville":"vieux-viel","departement_id":0,"code_postal":"35610","population":329,"superficie_km2":"895.94","latitude_centre":"48.4997","longitude_centre":"-1.5549","distance_km":3.12},{"id":0,"code_insee":"50019","nom_standard":"Aucey-la-Plaine","nom_a":null,"nom_de":null,"slug_ville":"aucey-la-plaine","departement_id":0,"code_postal":"50170","population":412,"superficie_km2":"947.90","latitude_centre":"48.5268","longitude_centre":"-1.4786","distance_km":3.57},{"id":0,"code_insee":"50443","nom_standard":"Sacey","nom_a":null,"nom_de":null,"slug_ville":"sacey","departement_id":0,"code_postal":"50170","population":508,"superficie_km2":"1537.10","latitude_centre":"48.4977","longitude_centre":"-1.4594","distance_km":4.02},{"id":0,"code_insee":"35222","nom_standard":"Pleine-Fougères","nom_a":null,"nom_de":null,"slug_ville":"pleine-fougeres","departement_id":0,"code_postal":"35610","population":2002,"superficie_km2":"3257.61","latitude_centre":"48.5317","longitude_centre":"-1.5722","distance_km":5.31},{"id":0,"code_insee":"35339","nom_standard":"Trans-la-Forêt","nom_a":null,"nom_de":null,"slug_ville":"trans-la-foret","departement_id":0,"code_postal":"35610","population":634,"superficie_km2":"1513.06","latitude_centre":"48.4872","longitude_centre":"-1.6016","distance_km":6.79},{"id":0,"code_insee":"50410","nom_standard":"Pontorson","nom_a":null,"nom_de":null,"slug_ville":"pontorson","departement_id":0,"code_postal":"50170","population":4280,"superficie_km2":"6207.14","latitude_centre":"48.5612","longitude_centre":"-1.462","distance_km":7.36},{"id":0,"code_insee":"35019","nom_standard":"Bazouges-la-Pérouse","nom_a":null,"nom_de":null,"slug_ville":"bazouges-la-perouse","departement_id":0,"code_postal":"35560","population":1877,"superficie_km2":"5783.89","latitude_centre":"48.4444","longitude_centre":"-1.5638","distance_km":7.64},{"id":0,"code_insee":"35004","nom_standard":"Val-Couesnon","nom_a":null,"nom_de":null,"slug_ville":"val-couesnon","departement_id":0,"code_postal":"35460","population":4072,"superficie_km2":"7951.36","latitude_centre":"48.441","longitude_centre":"-1.465","distance_km":7.88},{"id":20097,"code_insee":"35248","nom_standard":"Sains","nom_a":null,"nom_de":null,"slug_ville":"sains","departement_id":0,"code_postal":"35610","population":468,"superficie_km2":"1044.12","latitude_centre":"48.5557","longitude_centre":"-1.5968","distance_km":8.41},{"id":20105,"code_insee":"35270","nom_standard":"Saint-Georges-de-Gréhaigne","nom_a":null,"nom_de":null,"slug_ville":"saint-georges-de-grehaigne","departement_id":0,"code_postal":"35610","population":384,"superficie_km2":"1223.77","latitude_centre":"48.5823","longitude_centre":"-1.547","distance_km":9.03},{"id":0,"code_insee":"35034","nom_standard":"La Boussac","nom_a":null,"nom_de":null,"slug_ville":"la-boussac","departement_id":0,"code_postal":"35120","population":1271,"superficie_km2":"2189.85","latitude_centre":"48.5155","longitude_centre":"-1.6509","distance_km":10.23},{"id":0,"code_insee":"50589","nom_standard":"Tanis","nom_a":null,"nom_de":null,"slug_ville":"tanis","departement_id":0,"code_postal":"50170","population":268,"superficie_km2":"756.97","latitude_centre":"48.5856","longitude_centre":"-1.4446","distance_km":10.35},{"id":0,"code_insee":"50042","nom_standard":"Beauvoir","nom_a":null,"nom_de":null,"slug_ville":"beauvoir","departement_id":0,"code_postal":"50170","population":419,"superficie_km2":"1437.19","latitude_centre":"48.6045","longitude_centre":"-1.5287","distance_km":11.2},{"id":0,"code_insee":"35247","nom_standard":"Roz-sur-Couesnon","nom_a":null,"nom_de":null,"slug_ville":"roz-sur-couesnon","departement_id":0,"code_postal":"35610","population":1059,"superficie_km2":"2601.39","latitude_centre":"48.5926","longitude_centre":"-1.596","distance_km":11.56},{"id":20089,"code_insee":"35205","nom_standard":"Noyal-sous-Bazouges","nom_a":null,"nom_de":null,"slug_ville":"noyal-sous-bazouges","departement_id":0,"code_postal":"35560","population":392,"superficie_km2":"1502.30","latitude_centre":"48.4191","longitude_centre":"-1.6207","distance_km":12.36},{"id":0,"code_insee":"50253","nom_standard":"Huisnes-sur-Mer","nom_a":null,"nom_de":null,"slug_ville":"huisnes-sur-mer","departement_id":0,"code_postal":"50170","population":169,"superficie_km2":"681.70","latitude_centre":"48.6103","longitude_centre":"-1.4498","distance_km":12.67},{"id":20095,"code_insee":"35242","nom_standard":"Rimou","nom_a":null,"nom_de":null,"slug_ville":"rimou","departement_id":0,"code_postal":"35560","population":357,"superficie_km2":"1345.50","latitude_centre":"48.3869","longitude_centre":"-1.5305","distance_km":13.12},{"id":0,"code_insee":"50353","nom_standard":"Le Mont-Saint-Michel","nom_a":null,"nom_de":null,"slug_ville":"le-mont-saint-michel","departement_id":0,"code_postal":"50170","population":23,"superficie_km2":"402.43","latitude_centre":"48.6245","longitude_centre":"-1.5278","distance_km":13.41},{"id":20096,"code_insee":"35244","nom_standard":"Romazy","nom_a":null,"nom_de":null,"slug_ville":"romazy","departement_id":0,"code_postal":"35490","population":277,"superficie_km2":"722.82","latitude_centre":"48.3834","longitude_centre":"-1.4926","distance_km":13.53},{"id":20114,"code_insee":"35309","nom_standard":"Saint-Rémy-du-Plain","nom_a":null,"nom_de":null,"slug_ville":"saint-remy-du-plain","departement_id":0,"code_postal":"35560","population":818,"superficie_km2":"1478.89","latitude_centre":"48.3767","longitude_centre":"-1.5692","distance_km":14.78}]}