{"ville":{"id":20481,"code_insee":"37251","nom_standard":"Souvigné","nom_a":null,"nom_de":null,"slug_ville":"souvigne","departement_id":0,"code_postal":"37330","population":933,"superficie_km2":"2485.05","latitude_centre":"47.5195","longitude_centre":"0.3997","dep_code":"37","dep_nom":"Indre-et-Loire","dep_slug":"indre-et-loire","reg_code":"24","reg_nom":"Centre-Val de Loire","reg_slug":"centre-val-de-loire"},"departement":{"code":"37","nom":"Indre-et-Loire","slug":"indre-et-loire"},"region":{"code":"24","nom":"Centre-Val de Loire","slug":"centre-val-de-loire"},"villes_proches":[{"id":20362,"code_insee":"37037","nom_standard":"Brèches","nom_a":null,"nom_de":null,"slug_ville":"breches","departement_id":0,"code_postal":"37330","population":239,"superficie_km2":"1155.13","latitude_centre":"47.5606","longitude_centre":"0.409","distance_km":4.62},{"id":20390,"code_insee":"37084","nom_standard":"Couesmes","nom_a":null,"nom_de":null,"slug_ville":"couesmes","departement_id":0,"code_postal":"37330","population":543,"superficie_km2":"2189.46","latitude_centre":"47.552","longitude_centre":"0.3607","distance_km":4.65},{"id":20392,"code_insee":"37086","nom_standard":"Courcelles-de-Touraine","nom_a":null,"nom_de":null,"slug_ville":"courcelles-de-touraine","departement_id":0,"code_postal":"37330","population":483,"superficie_km2":"2602.39","latitude_centre":"47.4893","longitude_centre":"0.3374","distance_km":5.76},{"id":0,"code_insee":"37249","nom_standard":"Sonzay","nom_a":null,"nom_de":null,"slug_ville":"sonzay","departement_id":0,"code_postal":"37360","population":1410,"superficie_km2":"4822.25","latitude_centre":"47.5128","longitude_centre":"0.4773","distance_km":5.88},{"id":0,"code_insee":"37062","nom_standard":"Château-la-Vallière","nom_a":null,"nom_de":null,"slug_ville":"chateau-la-valliere","departement_id":0,"code_postal":"37330","population":1734,"superficie_km2":"1961.57","latitude_centre":"47.5293","longitude_centre":"0.3214","distance_km":5.98},{"id":0,"code_insee":"37081","nom_standard":"Cléré-les-Pins","nom_a":null,"nom_de":null,"slug_ville":"clere-les-pins","departement_id":0,"code_postal":"37340","population":1429,"superficie_km2":"3590.49","latitude_centre":"47.4494","longitude_centre":"0.3764","distance_km":7.99},{"id":0,"code_insee":"37231","nom_standard":"Saint-Paterne-Racan","nom_a":null,"nom_de":null,"slug_ville":"saint-paterne-racan","departement_id":0,"code_postal":"37370","population":1715,"superficie_km2":"4815.20","latitude_centre":"47.5791","longitude_centre":"0.4644","distance_km":8.22},{"id":0,"code_insee":"37002","nom_standard":"Ambillou","nom_a":null,"nom_de":null,"slug_ville":"ambillou","departement_id":0,"code_postal":"37340","population":1746,"superficie_km2":"4963.75","latitude_centre":"47.454","longitude_centre":"0.4513","distance_km":8.25},{"id":20469,"code_insee":"37223","nom_standard":"Saint-Laurent-de-Lin","nom_a":null,"nom_de":null,"slug_ville":"saint-laurent-de-lin","departement_id":0,"code_postal":"37330","population":347,"superficie_km2":"1386.76","latitude_centre":"47.5133","longitude_centre":"0.2679","distance_km":9.92},{"id":0,"code_insee":"37241","nom_standard":"Savigné-sur-Lathan","nom_a":null,"nom_de":null,"slug_ville":"savigne-sur-lathan","departement_id":0,"code_postal":"37340","population":1305,"superficie_km2":"1779.17","latitude_centre":"47.4445","longitude_centre":"0.3202","distance_km":10.26},{"id":0,"code_insee":"72077","nom_standard":"Chenu","nom_a":null,"nom_de":null,"slug_ville":"chenu","departement_id":0,"code_postal":"72500","population":421,"superficie_km2":"3088.58","latitude_centre":"47.6076","longitude_centre":"0.3553","distance_km":10.35},{"id":20424,"code_insee":"37137","nom_standard":"Lublé","nom_a":null,"nom_de":null,"slug_ville":"luble","departement_id":0,"code_postal":"37330","population":141,"superficie_km2":"1263.29","latitude_centre":"47.5245","longitude_centre":"0.2607","distance_km":10.45},{"id":0,"code_insee":"37279","nom_standard":"Villiers-au-Bouin","nom_a":null,"nom_de":null,"slug_ville":"villiers-au-bouin","departement_id":0,"code_postal":"37330","population":727,"superficie_km2":"3040.32","latitude_centre":"47.58","longitude_centre":"0.2848","distance_km":10.94},{"id":20462,"code_insee":"37207","nom_standard":"Saint-Aubin-le-Dépeint","nom_a":null,"nom_de":null,"slug_ville":"saint-aubin-le-depeint","departement_id":0,"code_postal":"37370","population":340,"superficie_km2":"1510.26","latitude_centre":"47.619","longitude_centre":"0.3981","distance_km":11.06},{"id":0,"code_insee":"37182","nom_standard":"Pernay","nom_a":null,"nom_de":null,"slug_ville":"pernay","departement_id":0,"code_postal":"37230","population":1609,"superficie_km2":"1777.81","latitude_centre":"47.4522","longitude_centre":"0.5213","distance_km":11.81},{"id":0,"code_insee":"37213","nom_standard":"Saint-Christophe-sur-le-Nais","nom_a":null,"nom_de":null,"slug_ville":"saint-christophe-sur-le-nais","departement_id":0,"code_postal":"37370","population":1067,"superficie_km2":"1822.12","latitude_centre":"47.6243","longitude_centre":"0.4647","distance_km":12.63},{"id":0,"code_insee":"72311","nom_standard":"Saint-Pierre-de-Chevillé","nom_a":null,"nom_de":null,"slug_ville":"saint-pierre-de-cheville","departement_id":0,"code_postal":"72500","population":334,"superficie_km2":"1147.00","latitude_centre":"47.6361","longitude_centre":"0.4293","distance_km":13.15},{"id":0,"code_insee":"37150","nom_standard":"Mazières-de-Touraine","nom_a":null,"nom_de":null,"slug_ville":"mazieres-de-touraine","departement_id":0,"code_postal":"37130","population":1488,"superficie_km2":"3426.99","latitude_centre":"47.3921","longitude_centre":"0.4283","distance_km":14.33},{"id":0,"code_insee":"72221","nom_standard":"Nogent-sur-Loir","nom_a":null,"nom_de":null,"slug_ville":"nogent-sur-loir","departement_id":0,"code_postal":"72500","population":361,"superficie_km2":"1084.28","latitude_centre":"47.6573","longitude_centre":"0.3997","distance_km":15.32},{"id":0,"code_insee":"72049","nom_standard":"La Bruère-sur-Loir","nom_a":null,"nom_de":null,"slug_ville":"la-bruere-sur-loir","departement_id":0,"code_postal":"72500","population":250,"superficie_km2":"1151.55","latitude_centre":"47.6542","longitude_centre":"0.3525","distance_km":15.39}]}