{"ville":{"id":14353,"code_insee":"16375","nom_standard":"Suaux","nom_a":null,"nom_de":null,"slug_ville":"suaux","departement_id":0,"code_postal":"16260","population":378,"superficie_km2":"1191.70","latitude_centre":"45.8465","longitude_centre":"0.5153","dep_code":"16","dep_nom":"Charente","dep_slug":"charente","reg_code":"75","reg_nom":"Nouvelle-Aquitaine","reg_slug":"nouvelle-aquitaine"},"departement":{"code":"16","nom":"Charente","slug":"charente"},"region":{"code":"75","nom":"Nouvelle-Aquitaine","slug":"nouvelle-aquitaine"},"villes_proches":[{"id":14239,"code_insee":"16195","nom_standard":"Lussac","nom_a":null,"nom_de":null,"slug_ville":"lussac","departement_id":0,"code_postal":"16450","population":292,"superficie_km2":"1162.26","latitude_centre":"45.8566","longitude_centre":"0.4629","distance_km":4.21},{"id":14270,"code_insee":"16245","nom_standard":"Nieuil","nom_a":null,"nom_de":null,"slug_ville":"nieuil","departement_id":0,"code_postal":"16270","population":883,"superficie_km2":"2380.23","latitude_centre":"45.8846","longitude_centre":"0.5217","distance_km":4.27},{"id":14169,"code_insee":"16096","nom_standard":"Cherves-Châtelars","nom_a":null,"nom_de":null,"slug_ville":"cherves-chatelars","departement_id":0,"code_postal":"16310","population":414,"superficie_km2":"3071.12","latitude_centre":"45.8073","longitude_centre":"0.5502","distance_km":5.13},{"id":0,"code_insee":"16416","nom_standard":"Vitrac-Saint-Vincent","nom_a":null,"nom_de":null,"slug_ville":"vitrac-saint-vincent","departement_id":0,"code_postal":"16310","population":489,"superficie_km2":"2229.30","latitude_centre":"45.8011","longitude_centre":"0.4972","distance_km":5.24},{"id":0,"code_insee":"16085","nom_standard":"Chasseneuil-sur-Bonnieure","nom_a":null,"nom_de":null,"slug_ville":"chasseneuil-sur-bonnieure","departement_id":0,"code_postal":"16260","population":3111,"superficie_km2":"3323.13","latitude_centre":"45.8242","longitude_centre":"0.4453","distance_km":5.96},{"id":0,"code_insee":"16308","nom_standard":"Saint-Claud","nom_a":null,"nom_de":null,"slug_ville":"saint-claud","departement_id":0,"code_postal":"16450","population":1032,"superficie_km2":"2671.42","latitude_centre":"45.8971","longitude_centre":"0.4834","distance_km":6.14},{"id":0,"code_insee":"16192","nom_standard":"Terres-de-Haute-Charente","nom_a":null,"nom_de":null,"slug_ville":"terres-de-haute-charente","departement_id":0,"code_postal":"16270","population":3777,"superficie_km2":"8655.55","latitude_centre":"45.8874","longitude_centre":"0.583","distance_km":6.94},{"id":14260,"code_insee":"16225","nom_standard":"Montembœuf","nom_a":null,"nom_de":null,"slug_ville":"montemboeuf","departement_id":0,"code_postal":"16310","population":654,"superficie_km2":"1604.44","latitude_centre":"45.7745","longitude_centre":"0.5499","distance_km":8.44},{"id":14302,"code_insee":"16293","nom_standard":"Saint-Adjutory","nom_a":null,"nom_de":null,"slug_ville":"saint-adjutory","departement_id":0,"code_postal":"16310","population":503,"superficie_km2":"1421.43","latitude_centre":"45.7694","longitude_centre":"0.481","distance_km":8.98},{"id":14267,"code_insee":"16239","nom_standard":"Mouzon","nom_a":null,"nom_de":null,"slug_ville":"mouzon","departement_id":0,"code_postal":"16310","population":142,"superficie_km2":"1070.80","latitude_centre":"45.7965","longitude_centre":"0.6136","distance_km":9.43},{"id":14229,"code_insee":"16183","nom_standard":"Lésignac-Durand","nom_a":null,"nom_de":null,"slug_ville":"lesignac-durand","departement_id":0,"code_postal":"16310","population":167,"superficie_km2":"1990.28","latitude_centre":"45.8159","longitude_centre":"0.6427","distance_km":10.44},{"id":14152,"code_insee":"16068","nom_standard":"Cellefrouin","nom_a":null,"nom_de":null,"slug_ville":"cellefrouin","departement_id":0,"code_postal":"16260","population":598,"superficie_km2":"4005.33","latitude_centre":"45.8851","longitude_centre":"0.3866","distance_km":10.85},{"id":0,"code_insee":"16379","nom_standard":"Taponnat-Fleurignac","nom_a":null,"nom_de":null,"slug_ville":"taponnat-fleurignac","departement_id":0,"code_postal":"16110","population":1593,"superficie_km2":"2158.21","latitude_centre":"45.7713","longitude_centre":"0.4226","distance_km":11.02},{"id":14322,"code_insee":"16329","nom_standard":"Saint-Laurent-de-Céris","nom_a":null,"nom_de":null,"slug_ville":"saint-laurent-de-ceris","departement_id":0,"code_postal":"16450","population":720,"superficie_km2":"2974.44","latitude_centre":"45.9461","longitude_centre":"0.4977","distance_km":11.16},{"id":14279,"code_insee":"16255","nom_standard":"Parzac","nom_a":null,"nom_de":null,"slug_ville":"parzac","departement_id":0,"code_postal":"16450","population":143,"superficie_km2":"1134.03","latitude_centre":"45.9264","longitude_centre":"0.4221","distance_km":11.44},{"id":14210,"code_insee":"16157","nom_standard":"Le Grand-Madieu","nom_a":null,"nom_de":null,"slug_ville":"le-grand-madieu","departement_id":0,"code_postal":"16450","population":153,"superficie_km2":"836.43","latitude_centre":"45.9396","longitude_centre":"0.4483","distance_km":11.58},{"id":14252,"code_insee":"16213","nom_standard":"Mazerolles","nom_a":null,"nom_de":null,"slug_ville":"mazerolles","departement_id":0,"code_postal":"16310","population":314,"superficie_km2":"1745.51","latitude_centre":"45.7412","longitude_centre":"0.5201","distance_km":11.71},{"id":14245,"code_insee":"16205","nom_standard":"Manot","nom_a":null,"nom_de":null,"slug_ville":"manot","departement_id":0,"code_postal":"16500","population":555,"superficie_km2":"2037.99","latitude_centre":"45.9278","longitude_centre":"0.6157","distance_km":11.92},{"id":14233,"code_insee":"16188","nom_standard":"Le Lindois","nom_a":null,"nom_de":null,"slug_ville":"le-lindois","departement_id":0,"code_postal":"16310","population":339,"superficie_km2":"1803.50","latitude_centre":"45.754","longitude_centre":"0.5936","distance_km":11.94},{"id":0,"code_insee":"16425","nom_standard":"Yvrac-et-Malleyrand","nom_a":null,"nom_de":null,"slug_ville":"yvrac-et-malleyrand","departement_id":0,"code_postal":"16110","population":559,"superficie_km2":"1894.40","latitude_centre":"45.7324","longitude_centre":"0.4619","distance_km":13.35}]}