{"ville":{"id":12140,"code_insee":"08436","nom_standard":"Taillette","nom_a":null,"nom_de":null,"slug_ville":"taillette","departement_id":0,"code_postal":"08230","population":407,"superficie_km2":"1518.49","latitude_centre":"49.9259","longitude_centre":"4.4765","dep_code":"08","dep_nom":"Ardennes","dep_slug":"ardennes","reg_code":"44","reg_nom":"Grand Est","reg_slug":"grand-est"},"departement":{"code":"08","nom":"Ardennes","slug":"ardennes"},"region":{"code":"44","nom":"Grand Est","slug":"grand-est"},"villes_proches":[{"id":12073,"code_insee":"08355","nom_standard":"Regniowez","nom_a":null,"nom_de":null,"slug_ville":"regniowez","departement_id":0,"code_postal":"08230","population":369,"superficie_km2":"1832.67","latitude_centre":"49.9252","longitude_centre":"4.4168","distance_km":4.27},{"id":12124,"code_insee":"08417","nom_standard":"Sévigny-la-Forêt","nom_a":null,"nom_de":null,"slug_ville":"sevigny-la-foret","departement_id":0,"code_postal":"08230","population":270,"superficie_km2":"2620.91","latitude_centre":"49.8792","longitude_centre":"4.4724","distance_km":5.2},{"id":0,"code_insee":"08282","nom_standard":"Maubert-Fontaine","nom_a":null,"nom_de":null,"slug_ville":"maubert-fontaine","departement_id":0,"code_postal":"08260","population":1023,"superficie_km2":"1020.36","latitude_centre":"49.8833","longitude_centre":"4.4347","distance_km":5.6},{"id":0,"code_insee":"08367","nom_standard":"Rocroi","nom_a":null,"nom_de":null,"slug_ville":"rocroi","departement_id":0,"code_postal":"08230","population":2270,"superficie_km2":"5036.45","latitude_centre":"49.9277","longitude_centre":"4.5548","distance_km":5.61},{"id":11917,"code_insee":"08156","nom_standard":"Éteignières","nom_a":null,"nom_de":null,"slug_ville":"eteignieres","departement_id":0,"code_postal":"08260","population":465,"superficie_km2":"1179.31","latitude_centre":"49.8954","longitude_centre":"4.4127","distance_km":5.69},{"id":11953,"code_insee":"08202","nom_standard":"Gué-d'Hossus","nom_a":null,"nom_de":null,"slug_ville":"gue-d-hossus","departement_id":0,"code_postal":"08230","population":504,"superficie_km2":"522.52","latitude_centre":"49.9559","longitude_centre":"4.5416","distance_km":5.73},{"id":11858,"code_insee":"08078","nom_standard":"Bourg-Fidèle","nom_a":null,"nom_de":null,"slug_ville":"bourg-fidele","departement_id":0,"code_postal":"08230","population":818,"superficie_km2":"1476.79","latitude_centre":"49.892","longitude_centre":"4.553","distance_km":6.65},{"id":11916,"code_insee":"08155","nom_standard":"Étalle","nom_a":null,"nom_de":null,"slug_ville":"etalle","departement_id":0,"code_postal":"08260","population":94,"superficie_km2":"439.45","latitude_centre":"49.8526","longitude_centre":"4.4449","distance_km":8.46},{"id":12043,"code_insee":"08319","nom_standard":"Neuville-lez-Beaulieu","nom_a":null,"nom_de":null,"slug_ville":"neuville-lez-beaulieu","departement_id":0,"code_postal":"08380","population":320,"superficie_km2":"3601.13","latitude_centre":"49.9048","longitude_centre":"4.3565","distance_km":8.91},{"id":0,"code_insee":"08460","nom_standard":"Tremblois-lès-Rocroi","nom_a":null,"nom_de":null,"slug_ville":"tremblois-les-rocroi","departement_id":0,"code_postal":"08150","population":158,"superficie_km2":"168.68","latitude_centre":"49.8438","longitude_centre":"4.4994","distance_km":9.28},{"id":11889,"code_insee":"08121","nom_standard":"Chilly","nom_a":null,"nom_de":null,"slug_ville":"chilly","departement_id":0,"code_postal":"08260","population":134,"superficie_km2":"588.36","latitude_centre":"49.8417","longitude_centre":"4.4713","distance_km":9.37},{"id":11882,"code_insee":"08110","nom_standard":"Le Châtelet-sur-Sormonne","nom_a":null,"nom_de":null,"slug_ville":"le-chatelet-sur-sormonne","departement_id":0,"code_postal":"08150","population":174,"superficie_km2":"984.39","latitude_centre":"49.84","longitude_centre":"4.5175","distance_km":9.99},{"id":11991,"code_insee":"08249","nom_standard":"Laval-Morency","nom_a":null,"nom_de":null,"slug_ville":"laval-morency","departement_id":0,"code_postal":"08150","population":231,"superficie_km2":"435.48","latitude_centre":"49.8332","longitude_centre":"4.4938","distance_km":10.38},{"id":0,"code_insee":"08365","nom_standard":"Rimogne","nom_a":null,"nom_de":null,"slug_ville":"rimogne","departement_id":0,"code_postal":"08150","population":1317,"superficie_km2":"378.80","latitude_centre":"49.8405","longitude_centre":"4.5357","distance_km":10.4},{"id":11963,"code_insee":"08212","nom_standard":"Harcy","nom_a":null,"nom_de":null,"slug_ville":"harcy","departement_id":0,"code_postal":"08150","population":515,"superficie_km2":"1914.73","latitude_centre":"49.8475","longitude_centre":"4.5569","distance_km":10.45},{"id":11942,"code_insee":"08189","nom_standard":"Girondelle","nom_a":null,"nom_de":null,"slug_ville":"girondelle","departement_id":0,"code_postal":"08260","population":153,"superficie_km2":"1150.82","latitude_centre":"49.8531","longitude_centre":"4.3842","distance_km":10.45},{"id":12007,"code_insee":"08273","nom_standard":"Marby","nom_a":null,"nom_de":null,"slug_ville":"marby","departement_id":0,"code_postal":"08260","population":72,"superficie_km2":"739.72","latitude_centre":"49.8355","longitude_centre":"4.4276","distance_km":10.65},{"id":11852,"code_insee":"08071","nom_standard":"Blombay","nom_a":null,"nom_de":null,"slug_ville":"blombay","departement_id":0,"code_postal":"08260","population":128,"superficie_km2":"944.14","latitude_centre":"49.8166","longitude_centre":"4.4565","distance_km":12.24},{"id":11929,"code_insee":"08169","nom_standard":"Flaignes-Havys","nom_a":null,"nom_de":null,"slug_ville":"flaignes-havys","departement_id":0,"code_postal":"08260","population":89,"superficie_km2":"1376.66","latitude_centre":"49.825","longitude_centre":"4.3993","distance_km":12.51},{"id":11911,"code_insee":"08149","nom_standard":"L'Échelle","nom_a":null,"nom_de":null,"slug_ville":"l-echelle","departement_id":0,"code_postal":"08150","population":129,"superficie_km2":"990.64","latitude_centre":"49.8038","longitude_centre":"4.4884","distance_km":13.6}]}