{"ville":{"id":14069,"code_insee":"15231","nom_standard":"Talizat","nom_a":null,"nom_de":null,"slug_ville":"talizat","departement_id":0,"code_postal":"15170","population":592,"superficie_km2":"3802.53","latitude_centre":"45.1302","longitude_centre":"3.0554","dep_code":"15","dep_nom":"Cantal","dep_slug":"cantal","reg_code":"84","reg_nom":"Auvergne-Rhône-Alpes","reg_slug":"auvergne-rhone-alpes"},"departement":{"code":"15","nom":"Cantal","slug":"cantal"},"region":{"code":"84","nom":"Auvergne-Rhône-Alpes","slug":"auvergne-rhone-alpes"},"villes_proches":[{"id":0,"code_insee":"15247","nom_standard":"Valjouze","nom_a":null,"nom_de":null,"slug_ville":"valjouze","departement_id":0,"code_postal":"15170","population":26,"superficie_km2":"299.56","latitude_centre":"45.1636","longitude_centre":"3.0592","distance_km":3.73},{"id":14014,"code_insee":"15161","nom_standard":"Rézentières","nom_a":null,"nom_de":null,"slug_ville":"rezentieres","departement_id":0,"code_postal":"15170","population":114,"superficie_km2":"1335.87","latitude_centre":"45.1333","longitude_centre":"3.1066","distance_km":4.03},{"id":13951,"code_insee":"15080","nom_standard":"Joursac","nom_a":null,"nom_de":null,"slug_ville":"joursac","departement_id":0,"code_postal":"15170","population":160,"superficie_km2":"2122.16","latitude_centre":"45.1617","longitude_centre":"3.0158","distance_km":4.68},{"id":13941,"code_insee":"15069","nom_standard":"Ferrières-Saint-Mary","nom_a":null,"nom_de":null,"slug_ville":"ferrieres-saint-mary","departement_id":0,"code_postal":"15170","population":235,"superficie_km2":"1925.98","latitude_centre":"45.1698","longitude_centre":"3.0789","distance_km":4.77},{"id":0,"code_insee":"15141","nom_standard":"Neussargues-Moissac","nom_a":null,"nom_de":null,"slug_ville":"neussargues-moissac","departement_id":0,"code_postal":"15170","population":824,"superficie_km2":"1388.97","latitude_centre":"45.136","longitude_centre":"2.9875","distance_km":5.37},{"id":13929,"code_insee":"15055","nom_standard":"Coren","nom_a":null,"nom_de":null,"slug_ville":"coren","departement_id":0,"code_postal":"15100","population":445,"superficie_km2":"1680.78","latitude_centre":"45.0871","longitude_centre":"3.1021","distance_km":6.03},{"id":13927,"code_insee":"15053","nom_standard":"Coltines","nom_a":null,"nom_de":null,"slug_ville":"coltines","departement_id":0,"code_postal":"15170","population":427,"superficie_km2":"1917.93","latitude_centre":"45.0939","longitude_centre":"2.9944","distance_km":6.26},{"id":13885,"code_insee":"15004","nom_standard":"Andelat","nom_a":null,"nom_de":null,"slug_ville":"andelat","departement_id":0,"code_postal":"15100","population":468,"superficie_km2":"2106.11","latitude_centre":"45.0653","longitude_centre":"3.055","distance_km":7.22},{"id":0,"code_insee":"15259","nom_standard":"Vieillespesse","nom_a":null,"nom_de":null,"slug_ville":"vieillespesse","departement_id":0,"code_postal":"15500","population":271,"superficie_km2":"2499.03","latitude_centre":"45.1158","longitude_centre":"3.1579","distance_km":8.2},{"id":13909,"code_insee":"15031","nom_standard":"Celles","nom_a":null,"nom_de":null,"slug_ville":"celles","departement_id":0,"code_postal":"15170","population":217,"superficie_km2":"1825.53","latitude_centre":"45.1023","longitude_centre":"2.9554","distance_km":8.44},{"id":14022,"code_insee":"15171","nom_standard":"Sainte-Anastasie","nom_a":null,"nom_de":null,"slug_ville":"sainte-anastasie","departement_id":0,"code_postal":"15170","population":122,"superficie_km2":"1602.35","latitude_centre":"45.1794","longitude_centre":"2.9723","distance_km":8.51},{"id":14046,"code_insee":"15203","nom_standard":"Saint-Mary-le-Plain","nom_a":null,"nom_de":null,"slug_ville":"saint-mary-le-plain","departement_id":0,"code_postal":"15500","population":188,"superficie_km2":"2213.60","latitude_centre":"45.1714","longitude_centre":"3.1495","distance_km":8.69},{"id":13988,"code_insee":"15125","nom_standard":"Mentières","nom_a":null,"nom_de":null,"slug_ville":"mentieres","departement_id":0,"code_postal":"15100","population":121,"superficie_km2":"1317.90","latitude_centre":"45.0782","longitude_centre":"3.1426","distance_km":8.96},{"id":14007,"code_insee":"15151","nom_standard":"Peyrusse","nom_a":null,"nom_de":null,"slug_ville":"peyrusse","departement_id":0,"code_postal":"15170","population":140,"superficie_km2":"2918.03","latitude_centre":"45.2137","longitude_centre":"3.0316","distance_km":9.47},{"id":14015,"code_insee":"15164","nom_standard":"Roffiac","nom_a":null,"nom_de":null,"slug_ville":"roffiac","departement_id":0,"code_postal":"15100","population":561,"superficie_km2":"2153.72","latitude_centre":"45.0475","longitude_centre":"3.0154","distance_km":9.72},{"id":0,"code_insee":"15244","nom_standard":"Ussel","nom_a":null,"nom_de":null,"slug_ville":"ussel","departement_id":0,"code_postal":"15300","population":453,"superficie_km2":"1022.24","latitude_centre":"45.0732","longitude_centre":"2.955","distance_km":10.11},{"id":13918,"code_insee":"15043","nom_standard":"Charmensac","nom_a":null,"nom_de":null,"slug_ville":"charmensac","departement_id":0,"code_postal":"15500","population":71,"superficie_km2":"1535.92","latitude_centre":"45.2255","longitude_centre":"3.0742","distance_km":10.7},{"id":13901,"code_insee":"15022","nom_standard":"Bonnac","nom_a":null,"nom_de":null,"slug_ville":"bonnac","departement_id":0,"code_postal":"15500","population":158,"superficie_km2":"2258.37","latitude_centre":"45.2114","longitude_centre":"3.1438","distance_km":11.38},{"id":0,"code_insee":"15187","nom_standard":"Saint-Flour","nom_a":null,"nom_de":null,"slug_ville":"saint-flour","departement_id":0,"code_postal":"15100","population":6391,"superficie_km2":"2708.10","latitude_centre":"45.0251","longitude_centre":"3.073","distance_km":11.77},{"id":13990,"code_insee":"15127","nom_standard":"Molompize","nom_a":null,"nom_de":null,"slug_ville":"molompize","departement_id":0,"code_postal":"15500","population":270,"superficie_km2":"1756.73","latitude_centre":"45.2276","longitude_centre":"3.1284","distance_km":12.25}]}