{"ville":{"id":7875,"code_insee":"74276","nom_standard":"Taninges","nom_a":null,"nom_de":null,"slug_ville":"taninges","departement_id":675,"code_postal":"74440","population":3465,"superficie_km2":"43.00","latitude_centre":"46.1259995","longitude_centre":"6.6079998","dep_code":"74","dep_nom":"Haute-Savoie","dep_slug":"haute-savoie","reg_code":"01","reg_nom":"Auvergne-Rhône-Alpes","reg_slug":"auvergne-rhone-alpes"},"departement":{"code":"74","nom":"Haute-Savoie","slug":"haute-savoie"},"region":{"code":"01","nom":"Auvergne-Rhône-Alpes","slug":"auvergne-rhone-alpes"},"villes_proches":[{"id":7759,"code_insee":"74064","nom_standard":"Châtillon-sur-Cluses","nom_a":null,"nom_de":null,"slug_ville":"chatillon-sur-cluses","departement_id":675,"code_postal":"74300","population":1214,"superficie_km2":"9.00","latitude_centre":"46.0890007","longitude_centre":"6.5780001","distance_km":4.72},{"id":7794,"code_insee":"74134","nom_standard":"Les Gets","nom_a":null,"nom_de":null,"slug_ville":"les-gets","departement_id":675,"code_postal":"74260","population":1223,"superficie_km2":"30.00","latitude_centre":"46.1539993","longitude_centre":"6.6599998","distance_km":5.07},{"id":7826,"code_insee":"74183","nom_standard":"Mieussy","nom_a":null,"nom_de":null,"slug_ville":"mieussy","departement_id":675,"code_postal":"74440","population":2486,"superficie_km2":"44.00","latitude_centre":"46.1450005","longitude_centre":"6.5339999","distance_km":6.08},{"id":7876,"code_insee":"74278","nom_standard":"Thyez","nom_a":null,"nom_de":null,"slug_ville":"thyez","departement_id":675,"code_postal":"74300","population":6379,"superficie_km2":"10.00","latitude_centre":"46.0880013","longitude_centre":"6.5370002","distance_km":6.91},{"id":7766,"code_insee":"74081","nom_standard":"Cluses","nom_a":null,"nom_de":null,"slug_ville":"cluses","departement_id":675,"code_postal":"74300","population":17164,"superficie_km2":"10.00","latitude_centre":"46.0629997","longitude_centre":"6.5790000","distance_km":7.35},{"id":7815,"code_insee":"74164","nom_standard":"Marignier","nom_a":null,"nom_de":null,"slug_ville":"marignier","departement_id":675,"code_postal":"74970","population":6401,"superficie_km2":"21.00","latitude_centre":"46.0950012","longitude_centre":"6.4940000","distance_km":9.44},{"id":7869,"code_insee":"74264","nom_standard":"Scionzier","nom_a":null,"nom_de":null,"slug_ville":"scionzier","departement_id":675,"code_postal":"74950","population":9059,"superficie_km2":"11.00","latitude_centre":"46.0489998","longitude_centre":"6.5469999","distance_km":9.77},{"id":7836,"code_insee":"74205","nom_standard":"Onnion","nom_a":null,"nom_de":null,"slug_ville":"onnion","departement_id":675,"code_postal":"74490","population":1267,"superficie_km2":"19.00","latitude_centre":"46.1819992","longitude_centre":"6.4990001","distance_km":10.45},{"id":7819,"code_insee":"74169","nom_standard":"Marnaz","nom_a":null,"nom_de":null,"slug_ville":"marnaz","departement_id":675,"code_postal":"74460","population":5827,"superficie_km2":"9.00","latitude_centre":"46.0519981","longitude_centre":"6.5219998","distance_km":10.57},{"id":7857,"code_insee":"74241","nom_standard":"Saint-Jeoire","nom_a":null,"nom_de":null,"slug_ville":"saint-jeoire","departement_id":675,"code_postal":"74490","population":3431,"superficie_km2":"23.00","latitude_centre":"46.1389999","longitude_centre":"6.4650002","distance_km":11.11},{"id":7865,"code_insee":"74258","nom_standard":"Samoëns","nom_a":null,"nom_de":null,"slug_ville":"samoens","departement_id":675,"code_postal":"74340","population":2286,"superficie_km2":"97.00","latitude_centre":"46.0880013","longitude_centre":"6.7430000","distance_km":11.23},{"id":7734,"code_insee":"74014","nom_standard":"Arâches-la-Frasse","nom_a":null,"nom_de":null,"slug_ville":"araches-la-frasse","departement_id":675,"code_postal":"74300","population":1797,"superficie_km2":"37.00","latitude_centre":"46.0299988","longitude_centre":"6.6609998","distance_km":11.43},{"id":7894,"code_insee":"74312","nom_standard":"Vougy","nom_a":null,"nom_de":null,"slug_ville":"vougy","departement_id":675,"code_postal":"74130","population":1579,"superficie_km2":"4.00","latitude_centre":"46.0670013","longitude_centre":"6.4850001","distance_km":11.53},{"id":7830,"code_insee":"74191","nom_standard":"Morzine","nom_a":null,"nom_de":null,"slug_ville":"morzine","departement_id":675,"code_postal":"74110","population":2660,"superficie_km2":"44.00","latitude_centre":"46.1730003","longitude_centre":"6.7420001","distance_km":11.57},{"id":7854,"code_insee":"74238","nom_standard":"Saint-Jean-d'Aulps","nom_a":null,"nom_de":null,"slug_ville":"saint-jean-d-aulps","departement_id":675,"code_postal":"74430","population":1596,"superficie_km2":"40.00","latitude_centre":"46.2280006","longitude_centre":"6.6609998","distance_km":12.05},{"id":7745,"code_insee":"74032","nom_standard":"Bellevaux","nom_a":null,"nom_de":null,"slug_ville":"bellevaux","departement_id":675,"code_postal":"74470","population":1334,"superficie_km2":"49.00","latitude_centre":"46.2280006","longitude_centre":"6.5530000","distance_km":12.11},{"id":7741,"code_insee":"74024","nom_standard":"Ayse","nom_a":null,"nom_de":null,"slug_ville":"ayse","departement_id":675,"code_postal":"74130","population":2274,"superficie_km2":"10.00","latitude_centre":"46.0870018","longitude_centre":"6.4460001","distance_km":13.22},{"id":7881,"code_insee":"74284","nom_standard":"La Tour","nom_a":null,"nom_de":null,"slug_ville":"la-tour","departement_id":675,"code_postal":"74250","population":1320,"superficie_km2":"8.00","latitude_centre":"46.1339989","longitude_centre":"6.4320002","distance_km":13.59},{"id":7810,"code_insee":"74159","nom_standard":"Magland","nom_a":null,"nom_de":null,"slug_ville":"magland","departement_id":675,"code_postal":"74300","population":3251,"superficie_km2":"40.00","latitude_centre":"46.0009995","longitude_centre":"6.6339998","distance_km":14.04},{"id":7829,"code_insee":"74189","nom_standard":"Mont-Saxonnex","nom_a":null,"nom_de":null,"slug_ville":"mont-saxonnex","departement_id":675,"code_postal":"74130","population":1650,"superficie_km2":"26.00","latitude_centre":"46.0349999","longitude_centre":"6.4800000","distance_km":14.14}]}