{"ville":{"id":33296,"code_insee":"80747","nom_standard":"Templeux-la-Fosse","nom_a":null,"nom_de":null,"slug_ville":"templeux-la-fosse","departement_id":0,"code_postal":"80240","population":139,"superficie_km2":"724.71","latitude_centre":"49.972","longitude_centre":"3.0249","dep_code":"80","dep_nom":"Somme","dep_slug":"somme","reg_code":"32","reg_nom":"Hauts-de-France","reg_slug":"hauts-de-france"},"departement":{"code":"80","nom":"Somme","slug":"somme"},"region":{"code":"32","nom":"Hauts-de-France","slug":"hauts-de-france"},"villes_proches":[{"id":32704,"code_insee":"80014","nom_standard":"Aizecourt-le-Bas","nom_a":null,"nom_de":null,"slug_ville":"aizecourt-le-bas","departement_id":0,"code_postal":"80240","population":69,"superficie_km2":"357.87","latitude_centre":"49.9867","longitude_centre":"3.0283","distance_km":1.65},{"id":32913,"code_insee":"80258","nom_standard":"Driencourt","nom_a":null,"nom_de":null,"slug_ville":"driencourt","departement_id":0,"code_postal":"80240","population":78,"superficie_km2":"504.32","latitude_centre":"49.9588","longitude_centre":"3.0069","distance_km":1.95},{"id":33104,"code_insee":"80487","nom_standard":"Longavesnes","nom_a":null,"nom_de":null,"slug_ville":"longavesnes","departement_id":0,"code_postal":"80240","population":77,"superficie_km2":"410.19","latitude_centre":"49.9726","longitude_centre":"3.0621","distance_km":2.66},{"id":32705,"code_insee":"80015","nom_standard":"Aizecourt-le-Haut","nom_a":null,"nom_de":null,"slug_ville":"aizecourt-le-haut","departement_id":0,"code_postal":"80200","population":66,"superficie_km2":"367.64","latitude_centre":"49.9682","longitude_centre":"2.9836","distance_km":2.98},{"id":33094,"code_insee":"80475","nom_standard":"Liéramont","nom_a":null,"nom_de":null,"slug_ville":"lieramont","departement_id":0,"code_postal":"80240","population":217,"superficie_km2":"731.63","latitude_centre":"49.9942","longitude_centre":"3.0505","distance_km":3.07},{"id":33195,"code_insee":"80601","nom_standard":"Nurlu","nom_a":null,"nom_de":null,"slug_ville":"nurlu","departement_id":0,"code_postal":"80240","population":373,"superficie_km2":"672.94","latitude_centre":"50.0015","longitude_centre":"3.0185","distance_km":3.31},{"id":32826,"code_insee":"80150","nom_standard":"Buire-Courcelles","nom_a":null,"nom_de":null,"slug_ville":"buire-courcelles","departement_id":0,"code_postal":"80200","population":220,"superficie_km2":"783.41","latitude_centre":"49.9374","longitude_centre":"3.0072","distance_km":4.05},{"id":0,"code_insee":"80762","nom_standard":"Tincourt-Boucly","nom_a":null,"nom_de":null,"slug_ville":"tincourt-boucly","departement_id":0,"code_postal":"80240","population":334,"superficie_km2":"1283.76","latitude_centre":"49.9378","longitude_centre":"3.0476","distance_km":4.14},{"id":32830,"code_insee":"80154","nom_standard":"Bussu","nom_a":null,"nom_de":null,"slug_ville":"bussu","departement_id":0,"code_postal":"80200","population":207,"superficie_km2":"689.28","latitude_centre":"49.9473","longitude_centre":"2.9779","distance_km":4.34},{"id":33127,"code_insee":"80516","nom_standard":"Marquaix","nom_a":null,"nom_de":null,"slug_ville":"marquaix","departement_id":0,"code_postal":"80240","population":190,"superficie_km2":"530.63","latitude_centre":"49.9487","longitude_centre":"3.0752","distance_km":4.43},{"id":0,"code_insee":"80552","nom_standard":"Moislains","nom_a":null,"nom_de":null,"slug_ville":"moislains","departement_id":0,"code_postal":"80200","population":1109,"superficie_km2":"2070.02","latitude_centre":"49.9938","longitude_centre":"2.9688","distance_km":4.69},{"id":33036,"code_insee":"80404","nom_standard":"Guyencourt-Saulcourt","nom_a":null,"nom_de":null,"slug_ville":"guyencourt-saulcourt","departement_id":0,"code_postal":"80240","population":145,"superficie_km2":"502.55","latitude_centre":"49.9956","longitude_centre":"3.0804","distance_km":4.76},{"id":0,"code_insee":"80677","nom_standard":"Roisel","nom_a":null,"nom_de":null,"slug_ville":"roisel","departement_id":0,"code_postal":"80240","population":1626,"superficie_km2":"1014.47","latitude_centre":"49.9418","longitude_centre":"3.0973","distance_km":6.17},{"id":33289,"code_insee":"80737","nom_standard":"Sorel","nom_a":null,"nom_de":null,"slug_ville":"sorel","departement_id":0,"code_postal":"80240","population":162,"superficie_km2":"791.64","latitude_centre":"50.0291","longitude_centre":"3.0498","distance_km":6.59},{"id":32849,"code_insee":"80177","nom_standard":"Cartigny","nom_a":null,"nom_de":null,"slug_ville":"cartigny","departement_id":0,"code_postal":"80200","population":688,"superficie_km2":"1526.19","latitude_centre":"49.9109","longitude_centre":"3.0154","distance_km":6.83},{"id":0,"code_insee":"80240","nom_standard":"Doingt","nom_a":null,"nom_de":null,"slug_ville":"doingt","departement_id":0,"code_postal":"80200","population":1389,"superficie_km2":"866.20","latitude_centre":"49.9223","longitude_centre":"2.963","distance_km":7.08},{"id":32927,"code_insee":"80275","nom_standard":"Équancourt","nom_a":null,"nom_de":null,"slug_ville":"equancourt","departement_id":0,"code_postal":"80360","population":300,"superficie_km2":"778.87","latitude_centre":"50.0354","longitude_centre":"3.013","distance_km":7.1},{"id":32958,"code_insee":"80312","nom_standard":"Fins","nom_a":null,"nom_de":null,"slug_ville":"fins","departement_id":0,"code_postal":"80360","population":278,"superficie_km2":"685.80","latitude_centre":"50.0376","longitude_centre":"3.0453","distance_km":7.44},{"id":32946,"code_insee":"80298","nom_standard":"Étricourt-Manancourt","nom_a":null,"nom_de":null,"slug_ville":"etricourt-manancourt","departement_id":0,"code_postal":"80360","population":510,"superficie_km2":"1106.20","latitude_centre":"50.0325","longitude_centre":"2.9797","distance_km":7.46},{"id":33043,"code_insee":"80413","nom_standard":"Hancourt","nom_a":null,"nom_de":null,"slug_ville":"hancourt","departement_id":0,"code_postal":"80240","population":94,"superficie_km2":"408.62","latitude_centre":"49.9053","longitude_centre":"3.0678","distance_km":8.03}]}