{"ville":{"id":11130,"code_insee":"03282","nom_standard":"Theneuille","nom_a":null,"nom_de":null,"slug_ville":"theneuille","departement_id":0,"code_postal":"03350","population":340,"superficie_km2":"3989.94","latitude_centre":"46.5944","longitude_centre":"2.8807","dep_code":"03","dep_nom":"Allier","dep_slug":"allier","reg_code":"84","reg_nom":"Auvergne-Rhône-Alpes","reg_slug":"auvergne-rhone-alpes"},"departement":{"code":"03","nom":"Allier","slug":"allier"},"region":{"code":"84","nom":"Auvergne-Rhône-Alpes","slug":"auvergne-rhone-alpes"},"villes_proches":[{"id":0,"code_insee":"03048","nom_standard":"Cérilly","nom_a":null,"nom_de":null,"slug_ville":"cerilly","departement_id":0,"code_postal":"03350","population":1316,"superficie_km2":"7113.31","latitude_centre":"46.6263","longitude_centre":"2.8085","distance_km":6.56},{"id":0,"code_insee":"03320","nom_standard":"Ygrande","nom_a":null,"nom_de":null,"slug_ville":"ygrande","departement_id":0,"code_postal":"03160","population":762,"superficie_km2":"5329.57","latitude_centre":"46.5471","longitude_centre":"2.9382","distance_km":6.85},{"id":11104,"code_insee":"03251","nom_standard":"Saint-Plaisir","nom_a":null,"nom_de":null,"slug_ville":"saint-plaisir","departement_id":0,"code_postal":"03160","population":422,"superficie_km2":"5285.68","latitude_centre":"46.6289","longitude_centre":"2.9551","distance_km":6.86},{"id":11020,"code_insee":"03150","nom_standard":"Louroux-Bourbonnais","nom_a":null,"nom_de":null,"slug_ville":"louroux-bourbonnais","departement_id":0,"code_postal":"03350","population":205,"superficie_km2":"3334.55","latitude_centre":"46.5358","longitude_centre":"2.8329","distance_km":7.47},{"id":0,"code_insee":"03313","nom_standard":"Le Vilhain","nom_a":null,"nom_de":null,"slug_ville":"le-vilhain","departement_id":0,"code_postal":"03350","population":266,"superficie_km2":"2645.15","latitude_centre":"46.5609","longitude_centre":"2.7951","distance_km":7.53},{"id":10975,"code_insee":"03087","nom_standard":"Couleuvre","nom_a":null,"nom_de":null,"slug_ville":"couleuvre","departement_id":0,"code_postal":"03320","population":580,"superficie_km2":"5411.17","latitude_centre":"46.6747","longitude_centre":"2.9041","distance_km":9.11},{"id":0,"code_insee":"03312","nom_standard":"Vieure","nom_a":null,"nom_de":null,"slug_ville":"vieure","departement_id":0,"code_postal":"03430","population":277,"superficie_km2":"3007.42","latitude_centre":"46.4994","longitude_centre":"2.8749","distance_km":10.57},{"id":11073,"code_insee":"03218","nom_standard":"Saint-Aubin-le-Monial","nom_a":null,"nom_de":null,"slug_ville":"saint-aubin-le-monial","departement_id":0,"code_postal":"03160","population":262,"superficie_km2":"2194.32","latitude_centre":"46.5341","longitude_centre":"3.0063","distance_km":11.71},{"id":11077,"code_insee":"03222","nom_standard":"Saint-Caprais","nom_a":null,"nom_de":null,"slug_ville":"saint-caprais","departement_id":0,"code_postal":"03190","population":103,"superficie_km2":"2001.78","latitude_centre":"46.5468","longitude_centre":"2.7359","distance_km":12.27},{"id":0,"code_insee":"03084","nom_standard":"Cosne-d'Allier","nom_a":null,"nom_de":null,"slug_ville":"cosne-d-allier","departement_id":0,"code_postal":"03430","population":2006,"superficie_km2":"2525.94","latitude_centre":"46.4876","longitude_centre":"2.8317","distance_km":12.45},{"id":0,"code_insee":"03036","nom_standard":"Bourbon-l'Archambault","nom_a":null,"nom_de":null,"slug_ville":"bourbon-l-archambault","departement_id":0,"code_postal":"03160","population":2494,"superficie_km2":"5533.10","latitude_centre":"46.5829","longitude_centre":"3.0448","distance_km":12.6},{"id":10938,"code_insee":"03041","nom_standard":"Le Brethon","nom_a":null,"nom_de":null,"slug_ville":"le-brethon","departement_id":0,"code_postal":"03350","population":324,"superficie_km2":"4406.10","latitude_centre":"46.5893","longitude_centre":"2.7136","distance_km":12.78},{"id":11002,"code_insee":"03130","nom_standard":"Isle-et-Bardais","nom_a":null,"nom_de":null,"slug_ville":"isle-et-bardais","departement_id":0,"code_postal":"03360","population":273,"superficie_km2":"4503.49","latitude_centre":"46.6866","longitude_centre":"2.7762","distance_km":12.99},{"id":10993,"code_insee":"03117","nom_standard":"Franchesse","nom_a":null,"nom_de":null,"slug_ville":"franchesse","departement_id":0,"code_postal":"03160","population":449,"superficie_km2":"4061.44","latitude_centre":"46.6422","longitude_centre":"3.0411","distance_km":13.35},{"id":0,"code_insee":"03296","nom_standard":"Valigny","nom_a":null,"nom_de":null,"slug_ville":"valigny","departement_id":0,"code_postal":"03360","population":378,"superficie_km2":"2099.55","latitude_centre":"46.7153","longitude_centre":"2.8214","distance_km":14.18},{"id":0,"code_insee":"03046","nom_standard":"Buxières-les-Mines","nom_a":null,"nom_de":null,"slug_ville":"buxieres-les-mines","departement_id":0,"code_postal":"03440","population":994,"superficie_km2":"4771.83","latitude_centre":"46.4715","longitude_centre":"2.945","distance_km":14.52},{"id":11067,"code_insee":"03210","nom_standard":"Pouzy-Mésangy","nom_a":null,"nom_de":null,"slug_ville":"pouzy-mesangy","departement_id":0,"code_postal":"03320","population":378,"superficie_km2":"3540.95","latitude_centre":"46.7048","longitude_centre":"3.0109","distance_km":15.79},{"id":0,"code_insee":"03155","nom_standard":"Lurcy-Lévis","nom_a":null,"nom_de":null,"slug_ville":"lurcy-levis","departement_id":0,"code_postal":"03320","population":1821,"superficie_km2":"7213.27","latitude_centre":"46.7371","longitude_centre":"2.9111","distance_km":16.04},{"id":0,"code_insee":"03303","nom_standard":"Venas","nom_a":null,"nom_de":null,"slug_ville":"venas","departement_id":0,"code_postal":"03190","population":217,"superficie_km2":"3211.75","latitude_centre":"46.4696","longitude_centre":"2.7649","distance_km":16.46},{"id":0,"code_insee":"03285","nom_standard":"Tortezais","nom_a":null,"nom_de":null,"slug_ville":"tortezais","departement_id":0,"code_postal":"03430","population":172,"superficie_km2":"2428.19","latitude_centre":"46.4427","longitude_centre":"2.8744","distance_km":16.88}]}