{"ville":{"id":14074,"code_insee":"15236","nom_standard":"Thiézac","nom_a":null,"nom_de":null,"slug_ville":"thiezac","departement_id":0,"code_postal":"15800","population":590,"superficie_km2":"4150.66","latitude_centre":"45.0198","longitude_centre":"2.667","dep_code":"15","dep_nom":"Cantal","dep_slug":"cantal","reg_code":"84","reg_nom":"Auvergne-Rhône-Alpes","reg_slug":"auvergne-rhone-alpes"},"departement":{"code":"15","nom":"Cantal","slug":"cantal"},"region":{"code":"84","nom":"Auvergne-Rhône-Alpes","slug":"auvergne-rhone-alpes"},"villes_proches":[{"id":14029,"code_insee":"15180","nom_standard":"Saint-Clément","nom_a":null,"nom_de":null,"slug_ville":"saint-clement","departement_id":0,"code_postal":"15800","population":80,"superficie_km2":"1728.49","latitude_centre":"44.985","longitude_centre":"2.6836","distance_km":4.08},{"id":14039,"code_insee":"15192","nom_standard":"Saint-Jacques-des-Blats","nom_a":null,"nom_de":null,"slug_ville":"saint-jacques-des-blats","departement_id":0,"code_postal":"15800","population":305,"superficie_km2":"3131.02","latitude_centre":"45.0536","longitude_centre":"2.7185","distance_km":5.52},{"id":14027,"code_insee":"15178","nom_standard":"Saint-Cirgues-de-Jordanne","nom_a":null,"nom_de":null,"slug_ville":"saint-cirgues-de-jordanne","departement_id":0,"code_postal":"15590","population":133,"superficie_km2":"1622.35","latitude_centre":"45.0448","longitude_centre":"2.603","distance_km":5.75},{"id":0,"code_insee":"15258","nom_standard":"Vic-sur-Cère","nom_a":null,"nom_de":null,"slug_ville":"vic-sur-cere","departement_id":0,"code_postal":"15800","population":1905,"superficie_km2":"2937.14","latitude_centre":"44.9687","longitude_centre":"2.6294","distance_km":6.41},{"id":13980,"code_insee":"15113","nom_standard":"Mandailles-Saint-Julien","nom_a":null,"nom_de":null,"slug_ville":"mandailles-saint-julien","departement_id":0,"code_postal":"15590","population":172,"superficie_km2":"3541.77","latitude_centre":"45.0775","longitude_centre":"2.6649","distance_km":6.42},{"id":14003,"code_insee":"15146","nom_standard":"Pailherols","nom_a":null,"nom_de":null,"slug_ville":"pailherols","departement_id":0,"code_postal":"15800","population":143,"superficie_km2":"2596.56","latitude_centre":"44.9684","longitude_centre":"2.7088","distance_km":6.59},{"id":13965,"code_insee":"15096","nom_standard":"Lascelle","nom_a":null,"nom_de":null,"slug_ville":"lascelle","departement_id":0,"code_postal":"15590","population":260,"superficie_km2":"1910.38","latitude_centre":"45.0355","longitude_centre":"2.579","distance_km":7.13},{"id":13979,"code_insee":"15112","nom_standard":"Malbo","nom_a":null,"nom_de":null,"slug_ville":"malbo","departement_id":0,"code_postal":"15230","population":90,"superficie_km2":"2938.69","latitude_centre":"44.9857","longitude_centre":"2.7554","distance_km":7.92},{"id":13952,"code_insee":"15081","nom_standard":"Jou-sous-Monjou","nom_a":null,"nom_de":null,"slug_ville":"jou-sous-monjou","departement_id":0,"code_postal":"15800","population":112,"superficie_km2":"627.35","latitude_centre":"44.9411","longitude_centre":"2.6605","distance_km":8.77},{"id":13956,"code_insee":"15086","nom_standard":"Lacapelle-Barrès","nom_a":null,"nom_de":null,"slug_ville":"lacapelle-barres","departement_id":0,"code_postal":"15230","population":57,"superficie_km2":"632.86","latitude_centre":"44.9516","longitude_centre":"2.7245","distance_km":8.83},{"id":0,"code_insee":"15252","nom_standard":"Velzic","nom_a":null,"nom_de":null,"slug_ville":"velzic","departement_id":0,"code_postal":"15590","population":401,"superficie_km2":"1123.99","latitude_centre":"44.9946","longitude_centre":"2.5591","distance_km":8.93},{"id":13904,"code_insee":"15026","nom_standard":"Brezons","nom_a":null,"nom_de":null,"slug_ville":"brezons","departement_id":0,"code_postal":"15230","population":177,"superficie_km2":"4348.15","latitude_centre":"45.005","longitude_centre":"2.7865","distance_km":9.54},{"id":0,"code_insee":"15154","nom_standard":"Polminhac","nom_a":null,"nom_de":null,"slug_ville":"polminhac","departement_id":0,"code_postal":"15800","population":1197,"superficie_km2":"2906.55","latitude_centre":"44.9554","longitude_centre":"2.5816","distance_km":9.82},{"id":14050,"code_insee":"15208","nom_standard":"Saint-Projet-de-Salers","nom_a":null,"nom_de":null,"slug_ville":"saint-projet-de-salers","departement_id":0,"code_postal":"15140","population":133,"superficie_km2":"3599.13","latitude_centre":"45.0853","longitude_centre":"2.5671","distance_km":10.71},{"id":13940,"code_insee":"15067","nom_standard":"Le Fau","nom_a":null,"nom_de":null,"slug_ville":"le-fau","departement_id":0,"code_postal":"15140","population":34,"superficie_km2":"1946.13","latitude_centre":"45.1106","longitude_centre":"2.5971","distance_km":11.49},{"id":14000,"code_insee":"15139","nom_standard":"Narnhac","nom_a":null,"nom_de":null,"slug_ville":"narnhac","departement_id":0,"code_postal":"15230","population":69,"superficie_km2":"1039.38","latitude_centre":"44.9375","longitude_centre":"2.7645","distance_km":11.94},{"id":13896,"code_insee":"15017","nom_standard":"Badailhac","nom_a":null,"nom_de":null,"slug_ville":"badailhac","departement_id":0,"code_postal":"15800","population":129,"superficie_km2":"1243.96","latitude_centre":"44.9144","longitude_centre":"2.626","distance_km":12.16},{"id":13970,"code_insee":"15102","nom_standard":"Lavigerie","nom_a":null,"nom_de":null,"slug_ville":"lavigerie","departement_id":0,"code_postal":"15300","population":116,"superficie_km2":"2418.88","latitude_centre":"45.1274","longitude_centre":"2.7269","distance_km":12.86},{"id":14013,"code_insee":"15159","nom_standard":"Raulhac","nom_a":null,"nom_de":null,"slug_ville":"raulhac","departement_id":0,"code_postal":"15800","population":274,"superficie_km2":"1711.39","latitude_centre":"44.9022","longitude_centre":"2.6573","distance_km":13.1},{"id":13939,"code_insee":"15066","nom_standard":"Le Falgoux","nom_a":null,"nom_de":null,"slug_ville":"le-falgoux","departement_id":0,"code_postal":"15380","population":113,"superficie_km2":"3063.62","latitude_centre":"45.142","longitude_centre":"2.6299","distance_km":13.9}]}