{"ville":{"id":616,"code_insee":"08448","nom_standard":"Thilay","nom_a":null,"nom_de":null,"slug_ville":"thilay","departement_id":608,"code_postal":"08800","population":1007,"superficie_km2":"36.00","latitude_centre":"49.9000015","longitude_centre":"4.8080001","dep_code":"08","dep_nom":"Ardennes","dep_slug":"ardennes","reg_code":"06","reg_nom":"Grand Est","reg_slug":"grand-est"},"departement":{"code":"08","nom":"Ardennes","slug":"ardennes"},"region":{"code":"06","nom":"Grand Est","slug":"grand-est"},"villes_proches":[{"id":594,"code_insee":"08218","nom_standard":"Les Hautes-Rivières","nom_a":null,"nom_de":null,"slug_ville":"les-hautes-rivieres","departement_id":608,"code_postal":"08800","population":1318,"superficie_km2":"31.00","latitude_centre":"49.9090004","longitude_centre":"4.8470001","distance_km":2.97},{"id":600,"code_insee":"08302","nom_standard":"Monthermé","nom_a":null,"nom_de":null,"slug_ville":"montherme","departement_id":608,"code_postal":"08800","population":2170,"superficie_km2":"33.00","latitude_centre":"49.9000015","longitude_centre":"4.7480001","distance_km":4.3},{"id":578,"code_insee":"08081","nom_standard":"Bogny-sur-Meuse","nom_a":null,"nom_de":null,"slug_ville":"bogny-sur-meuse","departement_id":608,"code_postal":"08120","population":5006,"superficie_km2":"23.00","latitude_centre":"49.8479996","longitude_centre":"4.7509999","distance_km":7.08},{"id":583,"code_insee":"08139","nom_standard":"Deville","nom_a":null,"nom_de":null,"slug_ville":"deville","departement_id":608,"code_postal":"08800","population":1044,"superficie_km2":"8.00","latitude_centre":"49.8750000","longitude_centre":"4.6939998","distance_km":8.63},{"id":608,"code_insee":"08363","nom_standard":"Revin","nom_a":null,"nom_de":null,"slug_ville":"revin","departement_id":608,"code_postal":"08500","population":5815,"superficie_km2":"39.00","latitude_centre":"49.9339981","longitude_centre":"4.6919999","distance_km":9.13},{"id":603,"code_insee":"08328","nom_standard":"Nouzonville","nom_a":null,"nom_de":null,"slug_ville":"nouzonville","departement_id":608,"code_postal":"08700","population":5592,"superficie_km2":"11.00","latitude_centre":"49.8199997","longitude_centre":"4.7540002","distance_km":9.7},{"id":595,"code_insee":"08222","nom_standard":"Haybes","nom_a":null,"nom_de":null,"slug_ville":"haybes","departement_id":608,"code_postal":"08170","population":1819,"superficie_km2":"28.00","latitude_centre":"49.9930000","longitude_centre":"4.7350001","distance_km":11.59},{"id":572,"code_insee":"08003","nom_standard":"Aiglemont","nom_a":null,"nom_de":null,"slug_ville":"aiglemont","departement_id":608,"code_postal":"08090","population":1659,"superficie_km2":"9.00","latitude_centre":"49.7900009","longitude_centre":"4.7700000","distance_km":12.53},{"id":599,"code_insee":"08298","nom_standard":"Montcy-Notre-Dame","nom_a":null,"nom_de":null,"slug_ville":"montcy-notre-dame","departement_id":608,"code_postal":"08090","population":1585,"superficie_km2":"6.00","latitude_centre":"49.7910004","longitude_centre":"4.7440000","distance_km":12.96},{"id":591,"code_insee":"08185","nom_standard":"Fumay","nom_a":null,"nom_de":null,"slug_ville":"fumay","departement_id":608,"code_postal":"08170","population":3151,"superficie_km2":"38.00","latitude_centre":"49.9729996","longitude_centre":"4.6599998","distance_km":13.34},{"id":580,"code_insee":"08105","nom_standard":"Charleville-Mézières","nom_a":null,"nom_de":null,"slug_ville":"charleville-mezieres","departement_id":608,"code_postal":"08000","population":46398,"superficie_km2":"32.00","latitude_centre":"49.7750015","longitude_centre":"4.7170000","distance_km":15.36},{"id":606,"code_insee":"08361","nom_standard":"Renwez","nom_a":null,"nom_de":null,"slug_ville":"renwez","departement_id":608,"code_postal":"08150","population":1637,"superficie_km2":"16.00","latitude_centre":"49.8489990","longitude_centre":"4.6050000","distance_km":15.61},{"id":611,"code_insee":"08385","nom_standard":"Saint-Laurent","nom_a":null,"nom_de":null,"slug_ville":"saint-laurent","departement_id":608,"code_postal":"08090","population":1070,"superficie_km2":"4.00","latitude_centre":"49.7589989","longitude_centre":"4.7760000","distance_km":15.85},{"id":617,"code_insee":"08457","nom_standard":"Tournes","nom_a":null,"nom_de":null,"slug_ville":"tournes","departement_id":608,"code_postal":"08090","population":1056,"superficie_km2":"8.00","latitude_centre":"49.7989998","longitude_centre":"4.6399999","distance_km":16.47},{"id":624,"code_insee":"08497","nom_standard":"Warcq","nom_a":null,"nom_de":null,"slug_ville":"warcq","departement_id":608,"code_postal":"08000","population":1253,"superficie_km2":"9.00","latitude_centre":"49.7680016","longitude_centre":"4.6659999","distance_km":17.86},{"id":620,"code_insee":"08487","nom_standard":"Vireux-Wallerand","nom_a":null,"nom_de":null,"slug_ville":"vireux-wallerand","departement_id":608,"code_postal":"08320","population":1894,"superficie_km2":"21.00","latitude_centre":"50.0569992","longitude_centre":"4.7470002","distance_km":17.99},{"id":618,"code_insee":"08480","nom_standard":"Villers-Semeuse","nom_a":null,"nom_de":null,"slug_ville":"villers-semeuse","departement_id":608,"code_postal":"08000","population":3608,"superficie_km2":"7.00","latitude_centre":"49.7410011","longitude_centre":"4.7509999","distance_km":18.15},{"id":610,"code_insee":"08367","nom_standard":"Rocroi","nom_a":null,"nom_de":null,"slug_ville":"rocroi","departement_id":608,"code_postal":"08230","population":2259,"superficie_km2":"51.00","latitude_centre":"49.9319992","longitude_centre":"4.5580001","distance_km":18.25},{"id":597,"code_insee":"08263","nom_standard":"Lumes","nom_a":null,"nom_de":null,"slug_ville":"lumes","departement_id":608,"code_postal":"08440","population":1106,"superficie_km2":"6.00","latitude_centre":"49.7350006","longitude_centre":"4.7870002","distance_km":18.41},{"id":623,"code_insee":"08491","nom_standard":"Vrigne aux Bois","nom_a":null,"nom_de":null,"slug_ville":"vrigne-aux-bois","departement_id":608,"code_postal":"08350","population":3540,"superficie_km2":"8.00","latitude_centre":"49.7369995","longitude_centre":"4.8559999","distance_km":18.45}]}