{"ville":{"id":963,"code_insee":"14098","nom_standard":"Thue et Mue","nom_a":null,"nom_de":null,"slug_ville":"thue-et-mue","departement_id":614,"code_postal":"14250","population":6169,"superficie_km2":"6.00","latitude_centre":"49.2150002","longitude_centre":"-0.5170000","dep_code":"14","dep_nom":"Calvados","dep_slug":"calvados","reg_code":"14","reg_nom":"Normandie","reg_slug":"normandie"},"departement":{"code":"14","nom":"Calvados","slug":"calvados"},"region":{"code":"14","nom":"Normandie","slug":"normandie"},"villes_proches":[{"id":1042,"code_insee":"14543","nom_standard":"Rots","nom_a":null,"nom_de":null,"slug_ville":"rots","departement_id":614,"code_postal":"14980","population":2508,"superficie_km2":"12.00","latitude_centre":"49.2060013","longitude_centre":"-0.4750000","distance_km":3.21},{"id":1055,"code_insee":"14610","nom_standard":"Saint-Manvieu-Norrey","nom_a":null,"nom_de":null,"slug_ville":"saint-manvieu-norrey","departement_id":614,"code_postal":"14740","population":2078,"superficie_km2":"8.00","latitude_centre":"49.1870003","longitude_centre":"-0.5010000","distance_km":3.32},{"id":973,"code_insee":"14137","nom_standard":"Carpiquet","nom_a":null,"nom_de":null,"slug_ville":"carpiquet","departement_id":614,"code_postal":"14650","population":3133,"superficie_km2":"6.00","latitude_centre":"49.1870003","longitude_centre":"-0.4510000","distance_km":5.72},{"id":1015,"code_insee":"14355","nom_standard":"Ponts sur Seulles","nom_a":null,"nom_de":null,"slug_ville":"ponts-sur-seulles","departement_id":614,"code_postal":"14480","population":1209,"superficie_km2":"4.00","latitude_centre":"49.2669983","longitude_centre":"-0.5160000","distance_km":5.78},{"id":970,"code_insee":"14123","nom_standard":"Cairon","nom_a":null,"nom_de":null,"slug_ville":"cairon","departement_id":614,"code_postal":"14610","population":2023,"superficie_km2":"6.00","latitude_centre":"49.2340012","longitude_centre":"-0.4380000","distance_km":6.11},{"id":948,"code_insee":"14030","nom_standard":"Authie","nom_a":null,"nom_de":null,"slug_ville":"authie","departement_id":614,"code_postal":"14280","population":1676,"superficie_km2":"3.00","latitude_centre":"49.2060013","longitude_centre":"-0.4310000","distance_km":6.33},{"id":946,"code_insee":"14026","nom_standard":"Audrieu","nom_a":null,"nom_de":null,"slug_ville":"audrieu","departement_id":614,"code_postal":"14250","population":1148,"superficie_km2":"11.00","latitude_centre":"49.2050018","longitude_centre":"-0.6040000","distance_km":6.42},{"id":1000,"code_insee":"14278","nom_standard":"Fontenay-le-Pesnel","nom_a":null,"nom_de":null,"slug_ville":"fontenay-le-pesnel","departement_id":614,"code_postal":"14250","population":1217,"superficie_km2":"10.00","latitude_centre":"49.1739998","longitude_centre":"-0.5800000","distance_km":6.46},{"id":1063,"code_insee":"14685","nom_standard":"Thaon","nom_a":null,"nom_de":null,"slug_ville":"thaon","departement_id":614,"code_postal":"14610","population":1808,"superficie_km2":"9.00","latitude_centre":"49.2550011","longitude_centre":"-0.4490000","distance_km":6.65},{"id":1072,"code_insee":"14738","nom_standard":"Verson","nom_a":null,"nom_de":null,"slug_ville":"verson","departement_id":614,"code_postal":"14790","population":3794,"superficie_km2":"10.00","latitude_centre":"49.1640015","longitude_centre":"-0.4630000","distance_km":6.9},{"id":1023,"code_insee":"14406","nom_standard":"Moulins-en-Bessin","nom_a":null,"nom_de":null,"slug_ville":"moulins-en-bessin","departement_id":614,"code_postal":"14480","population":1088,"superficie_km2":"4.00","latitude_centre":"49.2490006","longitude_centre":"-0.6010000","distance_km":7.18},{"id":1053,"code_insee":"14587","nom_standard":"Saint-Germain-la-Blanche-Herbe","nom_a":null,"nom_de":null,"slug_ville":"saint-germain-la-blanche-herbe","departement_id":614,"code_postal":"14280","population":2403,"superficie_km2":"3.00","latitude_centre":"49.1959992","longitude_centre":"-0.4220000","distance_km":7.22},{"id":1030,"code_insee":"14454","nom_standard":"Mouen","nom_a":null,"nom_de":null,"slug_ville":"mouen","departement_id":614,"code_postal":"14790","population":1731,"superficie_km2":"4.00","latitude_centre":"49.1500015","longitude_centre":"-0.4880000","distance_km":7.53},{"id":983,"code_insee":"14200","nom_standard":"Creully sur Seulles","nom_a":null,"nom_de":null,"slug_ville":"creully-sur-seulles","departement_id":614,"code_postal":"14480","population":2266,"superficie_km2":"9.00","latitude_centre":"49.2859993","longitude_centre":"-0.5430000","distance_km":8.12},{"id":965,"code_insee":"14101","nom_standard":"Bretteville-sur-Odon","nom_a":null,"nom_de":null,"slug_ville":"bretteville-sur-odon","departement_id":614,"code_postal":"14760","population":4148,"superficie_km2":"7.00","latitude_centre":"49.1730003","longitude_centre":"-0.4220000","distance_km":8.33},{"id":1048,"code_insee":"14566","nom_standard":"Saint-Contest","nom_a":null,"nom_de":null,"slug_ville":"saint-contest","departement_id":614,"code_postal":"14280","population":2487,"superficie_km2":"8.00","latitude_centre":"49.2159996","longitude_centre":"-0.4010000","distance_km":8.43},{"id":1003,"code_insee":"14311","nom_standard":"Grainville-sur-Odon","nom_a":null,"nom_de":null,"slug_ville":"grainville-sur-odon","departement_id":614,"code_postal":"14210","population":1050,"superficie_km2":"5.00","latitude_centre":"49.1389999","longitude_centre":"-0.5320000","distance_km":8.52},{"id":1067,"code_insee":"14707","nom_standard":"Tourville-sur-Odon","nom_a":null,"nom_de":null,"slug_ville":"tourville-sur-odon","departement_id":614,"code_postal":"14210","population":1127,"superficie_km2":"2.00","latitude_centre":"49.1370010","longitude_centre":"-0.5010000","distance_km":8.75},{"id":1065,"code_insee":"14692","nom_standard":"Tilly-sur-Seulles","nom_a":null,"nom_de":null,"slug_ville":"tilly-sur-seulles","departement_id":614,"code_postal":"14250","population":1786,"superficie_km2":"9.00","latitude_centre":"49.1720009","longitude_centre":"-0.6230000","distance_km":9.07},{"id":951,"code_insee":"14044","nom_standard":"Basly","nom_a":null,"nom_de":null,"slug_ville":"basly","departement_id":614,"code_postal":"14610","population":1057,"superficie_km2":"4.00","latitude_centre":"49.2760010","longitude_centre":"-0.4260000","distance_km":9.47}]}