{"ville":{"id":1064,"code_insee":"14689","nom_standard":"Thury-Harcourt-le-Hom","nom_a":null,"nom_de":null,"slug_ville":"thury-harcourt-le-hom","departement_id":614,"code_postal":"14220","population":3593,"superficie_km2":"5.00","latitude_centre":"48.9860001","longitude_centre":"-0.4850000","dep_code":"14","dep_nom":"Calvados","dep_slug":"calvados","reg_code":"14","reg_nom":"Normandie","reg_slug":"normandie"},"departement":{"code":"14","nom":"Calvados","slug":"calvados"},"region":{"code":"14","nom":"Normandie","slug":"normandie"},"villes_proches":[{"id":975,"code_insee":"14150","nom_standard":"Cesny-les-Sources","nom_a":null,"nom_de":null,"slug_ville":"cesny-les-sources","departement_id":614,"code_postal":"14220","population":1390,"superficie_km2":"7.00","latitude_centre":"48.9850006","longitude_centre":"-0.3940000","distance_km":6.64},{"id":976,"code_insee":"14162","nom_standard":"Clécy","nom_a":null,"nom_de":null,"slug_ville":"clecy","departement_id":614,"code_postal":"14570","population":1316,"superficie_km2":"24.00","latitude_centre":"48.9029999","longitude_centre":"-0.4940000","distance_km":9.25},{"id":1054,"code_insee":"14592","nom_standard":"Sainte-Honorine-du-Fay","nom_a":null,"nom_de":null,"slug_ville":"sainte-honorine-du-fay","departement_id":614,"code_postal":"14210","population":1332,"superficie_km2":"8.00","latitude_centre":"49.0699997","longitude_centre":"-0.4910000","distance_km":9.35},{"id":947,"code_insee":"14027","nom_standard":"Les Monts d'Aunay","nom_a":null,"nom_de":null,"slug_ville":"les-monts-d-aunay","departement_id":614,"code_postal":"14770","population":4554,"superficie_km2":"13.00","latitude_centre":"49.0139999","longitude_centre":"-0.6340000","distance_km":11.31},{"id":994,"code_insee":"14257","nom_standard":"Évrecy","nom_a":null,"nom_de":null,"slug_ville":"evrecy","departement_id":614,"code_postal":"14210","population":2037,"superficie_km2":"9.00","latitude_centre":"49.0940018","longitude_centre":"-0.5010000","distance_km":12.07},{"id":941,"code_insee":"14006","nom_standard":"Amayé-sur-Orne","nom_a":null,"nom_de":null,"slug_ville":"amaye-sur-orne","departement_id":614,"code_postal":"14210","population":1061,"superficie_km2":"5.00","latitude_centre":"49.0909996","longitude_centre":"-0.4340000","distance_km":12.25},{"id":1013,"code_insee":"14349","nom_standard":"Laize-Clinchamps","nom_a":null,"nom_de":null,"slug_ville":"laize-clinchamps","departement_id":614,"code_postal":"14320","population":2140,"superficie_km2":"2.00","latitude_centre":"49.0800018","longitude_centre":"-0.3810000","distance_km":12.91},{"id":964,"code_insee":"14100","nom_standard":"Bretteville-sur-Laize","nom_a":null,"nom_de":null,"slug_ville":"bretteville-sur-laize","departement_id":614,"code_postal":"14680","population":1911,"superficie_km2":"10.00","latitude_centre":"49.0499992","longitude_centre":"-0.3260000","distance_km":13.6},{"id":992,"code_insee":"14249","nom_standard":"Esquay-Notre-Dame","nom_a":null,"nom_de":null,"slug_ville":"esquay-notre-dame","departement_id":614,"code_postal":"14210","population":1442,"superficie_km2":"3.00","latitude_centre":"49.1129990","longitude_centre":"-0.4710000","distance_km":14.16},{"id":1025,"code_insee":"14408","nom_standard":"May-sur-Orne","nom_a":null,"nom_de":null,"slug_ville":"may-sur-orne","departement_id":614,"code_postal":"14320","population":2017,"superficie_km2":"4.00","latitude_centre":"49.0970001","longitude_centre":"-0.3790000","distance_km":14.56},{"id":996,"code_insee":"14266","nom_standard":"Feuguerolles-Bully","nom_a":null,"nom_de":null,"slug_ville":"feuguerolles-bully","departement_id":614,"code_postal":"14320","population":1509,"superficie_km2":"8.00","latitude_centre":"49.1119995","longitude_centre":"-0.4080000","distance_km":15.09},{"id":999,"code_insee":"14277","nom_standard":"Fontenay-le-Marmion","nom_a":null,"nom_de":null,"slug_ville":"fontenay-le-marmion","departement_id":614,"code_postal":"14320","population":1997,"superficie_km2":"10.00","latitude_centre":"49.0870018","longitude_centre":"-0.3450000","distance_km":15.18},{"id":1052,"code_insee":"14579","nom_standard":"Seulline","nom_a":null,"nom_de":null,"slug_ville":"seulline","departement_id":614,"code_postal":"14260","population":1304,"superficie_km2":"24.00","latitude_centre":"49.0270004","longitude_centre":"-0.6890000","distance_km":15.56},{"id":950,"code_insee":"14042","nom_standard":"Baron-sur-Odon","nom_a":null,"nom_de":null,"slug_ville":"baron-sur-odon","departement_id":614,"code_postal":"14210","population":1055,"superficie_km2":"6.00","latitude_centre":"49.1279984","longitude_centre":"-0.4820000","distance_km":15.79},{"id":1075,"code_insee":"14752","nom_standard":"Villers-Bocage","nom_a":null,"nom_de":null,"slug_ville":"villers-bocage","departement_id":614,"code_postal":"14310","population":3130,"superficie_km2":"6.00","latitude_centre":"49.0779991","longitude_centre":"-0.6530000","distance_km":15.96},{"id":979,"code_insee":"14174","nom_standard":"Condé-en-Normandie","nom_a":null,"nom_de":null,"slug_ville":"conde-en-normandie","departement_id":614,"code_postal":"14110","population":6157,"superficie_km2":"12.00","latitude_centre":"48.8499985","longitude_centre":"-0.5620000","distance_km":16.14},{"id":1033,"code_insee":"14475","nom_standard":"Val d'Arry","nom_a":null,"nom_de":null,"slug_ville":"val-d-arry","departement_id":614,"code_postal":"14310","population":2420,"superficie_km2":"9.00","latitude_centre":"49.1240006","longitude_centre":"-0.5750000","distance_km":16.69},{"id":1067,"code_insee":"14707","nom_standard":"Tourville-sur-Odon","nom_a":null,"nom_de":null,"slug_ville":"tourville-sur-odon","departement_id":614,"code_postal":"14210","population":1127,"superficie_km2":"2.00","latitude_centre":"49.1370010","longitude_centre":"-0.5010000","distance_km":16.83},{"id":1022,"code_insee":"14396","nom_standard":"Maltot","nom_a":null,"nom_de":null,"slug_ville":"maltot","departement_id":614,"code_postal":"14930","population":1028,"superficie_km2":"4.00","latitude_centre":"49.1320000","longitude_centre":"-0.4230000","distance_km":16.85},{"id":1044,"code_insee":"14556","nom_standard":"Saint-André-sur-Orne","nom_a":null,"nom_de":null,"slug_ville":"saint-andre-sur-orne","departement_id":614,"code_postal":"14320","population":1790,"superficie_km2":"4.00","latitude_centre":"49.1240006","longitude_centre":"-0.3880000","distance_km":16.89}]}