{"ville":{"id":22759,"code_insee":"47309","nom_standard":"Tombebœuf","nom_a":null,"nom_de":null,"slug_ville":"tombeboeuf","departement_id":0,"code_postal":"47380","population":443,"superficie_km2":"1842.42","latitude_centre":"44.5208","longitude_centre":"0.46","dep_code":"47","dep_nom":"Lot-et-Garonne","dep_slug":"lot-et-garonne","reg_code":"75","reg_nom":"Nouvelle-Aquitaine","reg_slug":"nouvelle-aquitaine"},"departement":{"code":"47","nom":"Lot-et-Garonne","slug":"lot-et-garonne"},"region":{"code":"75","nom":"Nouvelle-Aquitaine","slug":"nouvelle-aquitaine"},"villes_proches":[{"id":0,"code_insee":"47319","nom_standard":"Villebramar","nom_a":null,"nom_de":null,"slug_ville":"villebramar","departement_id":0,"code_postal":"47380","population":109,"superficie_km2":"1007.96","latitude_centre":"44.525","longitude_centre":"0.4749","distance_km":1.27},{"id":0,"code_insee":"47313","nom_standard":"Tourtrès","nom_a":null,"nom_de":null,"slug_ville":"tourtres","departement_id":0,"code_postal":"47380","population":140,"superficie_km2":"1174.68","latitude_centre":"44.5098","longitude_centre":"0.417","distance_km":3.62},{"id":22624,"code_insee":"47136","nom_standard":"Laperche","nom_a":null,"nom_de":null,"slug_ville":"laperche","departement_id":0,"code_postal":"47800","population":141,"superficie_km2":"843.93","latitude_centre":"44.5453","longitude_centre":"0.4156","distance_km":4.45},{"id":22644,"code_insee":"47170","nom_standard":"Monbahus","nom_a":null,"nom_de":null,"slug_ville":"monbahus","departement_id":0,"code_postal":"47290","population":626,"superficie_km2":"3210.64","latitude_centre":"44.5352","longitude_centre":"0.5224","distance_km":5.2},{"id":22654,"code_insee":"47182","nom_standard":"Montastruc","nom_a":null,"nom_de":null,"slug_ville":"montastruc","departement_id":0,"code_postal":"47380","population":232,"superficie_km2":"2477.81","latitude_centre":"44.4938","longitude_centre":"0.517","distance_km":5.43},{"id":22659,"code_insee":"47188","nom_standard":"Montignac-de-Lauzun","nom_a":null,"nom_de":null,"slug_ville":"montignac-de-lauzun","departement_id":0,"code_postal":"47800","population":286,"superficie_km2":"2053.00","latitude_centre":"44.568","longitude_centre":"0.4793","distance_km":5.47},{"id":22571,"code_insee":"47071","nom_standard":"Coulx","nom_a":null,"nom_de":null,"slug_ville":"coulx","departement_id":0,"code_postal":"47260","population":256,"superficie_km2":"1640.17","latitude_centre":"44.4702","longitude_centre":"0.465","distance_km":5.64},{"id":22533,"code_insee":"47014","nom_standard":"Armillac","nom_a":null,"nom_de":null,"slug_ville":"armillac","departement_id":0,"code_postal":"47800","population":209,"superficie_km2":"785.12","latitude_centre":"44.5552","longitude_centre":"0.3909","distance_km":6.68},{"id":22553,"code_insee":"47042","nom_standard":"Brugnac","nom_a":null,"nom_de":null,"slug_ville":"brugnac","departement_id":0,"code_postal":"47260","population":180,"superficie_km2":"1484.50","latitude_centre":"44.4546","longitude_centre":"0.4558","distance_km":7.37},{"id":0,"code_insee":"47317","nom_standard":"Verteuil-d'Agenais","nom_a":null,"nom_de":null,"slug_ville":"verteuil-d-agenais","departement_id":0,"code_postal":"47260","population":539,"superficie_km2":"2245.59","latitude_centre":"44.4684","longitude_centre":"0.4021","distance_km":7.42},{"id":22696,"code_insee":"47232","nom_standard":"Saint-Barthélemy-d'Agenais","nom_a":null,"nom_de":null,"slug_ville":"saint-barthelemy-d-agenais","departement_id":0,"code_postal":"47350","population":549,"superficie_km2":"1543.23","latitude_centre":"44.5209","longitude_centre":"0.365","distance_km":7.53},{"id":22629,"code_insee":"47144","nom_standard":"Lavergne","nom_a":null,"nom_de":null,"slug_ville":"lavergne","departement_id":0,"code_postal":"47800","population":554,"superficie_km2":"2027.24","latitude_centre":"44.5824","longitude_centre":"0.4158","distance_km":7.69},{"id":22611,"code_insee":"47122","nom_standard":"Labretonie","nom_a":null,"nom_de":null,"slug_ville":"labretonie","departement_id":0,"code_postal":"47350","population":167,"superficie_km2":"1186.06","latitude_centre":"44.4916","longitude_centre":"0.3701","distance_km":7.83},{"id":22663,"code_insee":"47192","nom_standard":"Monviel","nom_a":null,"nom_de":null,"slug_ville":"monviel","departement_id":0,"code_postal":"47290","population":76,"superficie_km2":"625.24","latitude_centre":"44.567","longitude_centre":"0.541","distance_km":8.22},{"id":22660,"code_insee":"47189","nom_standard":"Montignac-Toupinerie","nom_a":null,"nom_de":null,"slug_ville":"montignac-toupinerie","departement_id":0,"code_postal":"47350","population":137,"superficie_km2":"834.48","latitude_centre":"44.5491","longitude_centre":"0.3514","distance_km":9.17},{"id":22698,"code_insee":"47235","nom_standard":"Saint-Colomb-de-Lauzun","nom_a":null,"nom_de":null,"slug_ville":"saint-colomb-de-lauzun","departement_id":0,"code_postal":"47410","population":473,"superficie_km2":"2332.92","latitude_centre":"44.6063","longitude_centre":"0.4741","distance_km":9.57},{"id":22749,"code_insee":"47296","nom_standard":"Ségalas","nom_a":null,"nom_de":null,"slug_ville":"segalas","departement_id":0,"code_postal":"47410","population":155,"superficie_km2":"1288.54","latitude_centre":"44.589","longitude_centre":"0.5336","distance_km":9.57},{"id":22647,"code_insee":"47173","nom_standard":"Monclar","nom_a":null,"nom_de":null,"slug_ville":"monclar","departement_id":0,"code_postal":"47380","population":900,"superficie_km2":"2421.93","latitude_centre":"44.4445","longitude_centre":"0.5257","distance_km":9.96},{"id":22547,"code_insee":"47035","nom_standard":"Bourgougnague","nom_a":null,"nom_de":null,"slug_ville":"bourgougnague","departement_id":0,"code_postal":"47410","population":285,"superficie_km2":"1176.51","latitude_centre":"44.6223","longitude_centre":"0.4186","distance_km":11.75},{"id":22623,"code_insee":"47135","nom_standard":"Laparade","nom_a":null,"nom_de":null,"slug_ville":"laparade","departement_id":0,"code_postal":"47260","population":395,"superficie_km2":"1621.62","latitude_centre":"44.409","longitude_centre":"0.4425","distance_km":12.51}]}