{"ville":{"id":7510,"code_insee":"71543","nom_standard":"Tournus","nom_a":null,"nom_de":null,"slug_ville":"tournus","departement_id":672,"code_postal":"71700","population":5627,"superficie_km2":"15.00","latitude_centre":"46.5649986","longitude_centre":"4.9000001","dep_code":"71","dep_nom":"Saône-et-Loire","dep_slug":"saone-et-loire","reg_code":"02","reg_nom":"Bourgogne-Franche-Comté","reg_slug":"bourgogne-franche-comte"},"departement":{"code":"71","nom":"Saône-et-Loire","slug":"saone-et-loire"},"region":{"code":"02","nom":"Bourgogne-Franche-Comté","slug":"bourgogne-franche-comte"},"villes_proches":[{"id":7436,"code_insee":"71158","nom_standard":"Cuisery","nom_a":null,"nom_de":null,"slug_ville":"cuisery","departement_id":672,"code_postal":"71290","population":1579,"superficie_km2":"11.00","latitude_centre":"46.5569992","longitude_centre":"4.9940000","distance_km":7.24},{"id":7502,"code_insee":"71512","nom_standard":"Sennecey-le-Grand","nom_a":null,"nom_de":null,"slug_ville":"sennecey-le-grand","departement_id":672,"code_postal":"71240","population":2922,"superficie_km2":"27.00","latitude_centre":"46.6370010","longitude_centre":"4.8909998","distance_km":8.04},{"id":7505,"code_insee":"71522","nom_standard":"Simandre","nom_a":null,"nom_de":null,"slug_ville":"simandre","departement_id":672,"code_postal":"71290","population":1742,"superficie_km2":"23.00","latitude_centre":"46.6119995","longitude_centre":"4.9870000","distance_km":8.46},{"id":128,"code_insee":"01337","nom_standard":"Saint-Bénigne","nom_a":null,"nom_de":null,"slug_ville":"saint-benigne","departement_id":601,"code_postal":"01190","population":1343,"superficie_km2":"17.00","latitude_centre":"46.4519997","longitude_centre":"4.9530001","distance_km":13.2},{"id":118,"code_insee":"01305","nom_standard":"Pont-de-Vaux","nom_a":null,"nom_de":null,"slug_ville":"pont-de-vaux","departement_id":601,"code_postal":"01190","population":2189,"superficie_km2":"8.00","latitude_centre":"46.4420013","longitude_centre":"4.9289999","distance_km":13.86},{"id":7514,"code_insee":"71584","nom_standard":"Viré","nom_a":null,"nom_de":null,"slug_ville":"vire","departement_id":672,"code_postal":"71260","population":1210,"superficie_km2":"11.00","latitude_centre":"46.4449997","longitude_centre":"4.8499999","distance_km":13.88},{"id":7476,"code_insee":"71373","nom_standard":"Romenay","nom_a":null,"nom_de":null,"slug_ville":"romenay","departement_id":672,"code_postal":"71470","population":1731,"superficie_km2":"49.00","latitude_centre":"46.5139999","longitude_centre":"5.0819998","distance_km":15.03},{"id":124,"code_insee":"01323","nom_standard":"Reyssouze","nom_a":null,"nom_de":null,"slug_ville":"reyssouze","departement_id":601,"code_postal":"01190","population":1010,"superficie_km2":"10.00","latitude_centre":"46.4290009","longitude_centre":"4.9130001","distance_km":15.15},{"id":7484,"code_insee":"71420","nom_standard":"Saint-Germain-du-Plain","nom_a":null,"nom_de":null,"slug_ville":"saint-germain-du-plain","departement_id":672,"code_postal":"71370","population":2329,"superficie_km2":"20.00","latitude_centre":"46.6940002","longitude_centre":"4.9840002","distance_km":15.71},{"id":7512,"code_insee":"71555","nom_standard":"Varennes-le-Grand","nom_a":null,"nom_de":null,"slug_ville":"varennes-le-grand","departement_id":672,"code_postal":"71240","population":2321,"superficie_km2":"19.00","latitude_centre":"46.7099991","longitude_centre":"4.8779998","distance_km":16.21},{"id":154,"code_insee":"01388","nom_standard":"Saint-Trivier-de-Courtes","nom_a":null,"nom_de":null,"slug_ville":"saint-trivier-de-courtes","departement_id":601,"code_postal":"01560","population":1119,"superficie_km2":"16.00","latitude_centre":"46.4609985","longitude_centre":"5.0669999","distance_km":17.23},{"id":7487,"code_insee":"71444","nom_standard":"Saint-Loup-de-Varennes","nom_a":null,"nom_de":null,"slug_ville":"saint-loup-de-varennes","departement_id":672,"code_postal":"71240","population":1226,"superficie_km2":"8.00","latitude_centre":"46.7239990","longitude_centre":"4.8520002","distance_km":18.06},{"id":7468,"code_insee":"71336","nom_standard":"Ouroux-sur-Saône","nom_a":null,"nom_de":null,"slug_ville":"ouroux-sur-saone","departement_id":672,"code_postal":"71370","population":3134,"superficie_km2":"23.00","latitude_centre":"46.7239990","longitude_centre":"4.9510002","distance_km":18.1},{"id":7412,"code_insee":"71016","nom_standard":"Azé","nom_a":null,"nom_de":null,"slug_ville":"aze","departement_id":672,"code_postal":"71260","population":1079,"superficie_km2":"15.00","latitude_centre":"46.4319992","longitude_centre":"4.7500000","distance_km":18.72},{"id":7482,"code_insee":"71417","nom_standard":"Saint-Gengoux-le-National","nom_a":null,"nom_de":null,"slug_ville":"saint-gengoux-le-national","departement_id":672,"code_postal":"71460","population":1047,"superficie_km2":"9.00","latitude_centre":"46.6129990","longitude_centre":"4.6640000","distance_km":18.81},{"id":7503,"code_insee":"71513","nom_standard":"Senozan","nom_a":null,"nom_de":null,"slug_ville":"senozan","departement_id":672,"code_postal":"71260","population":1127,"superficie_km2":"5.00","latitude_centre":"46.3969994","longitude_centre":"4.8649998","distance_km":18.87},{"id":7504,"code_insee":"71520","nom_standard":"Sevrey","nom_a":null,"nom_de":null,"slug_ville":"sevrey","departement_id":672,"code_postal":"71100","population":1235,"superficie_km2":"9.00","latitude_centre":"46.7360001","longitude_centre":"4.8290000","distance_km":19.77},{"id":7442,"code_insee":"71189","nom_standard":"Épervans","nom_a":null,"nom_de":null,"slug_ville":"epervans","departement_id":672,"code_postal":"71380","population":1630,"superficie_km2":"13.00","latitude_centre":"46.7459984","longitude_centre":"4.9020000","distance_km":20.13},{"id":7454,"code_insee":"71269","nom_standard":"Lux","nom_a":null,"nom_de":null,"slug_ville":"lux","departement_id":672,"code_postal":"71100","population":1957,"superficie_km2":"6.00","latitude_centre":"46.7490006","longitude_centre":"4.8600001","distance_km":20.69},{"id":7489,"code_insee":"71448","nom_standard":"Saint-Martin-Belle-Roche","nom_a":null,"nom_de":null,"slug_ville":"saint-martin-belle-roche","departement_id":672,"code_postal":"71118","population":1390,"superficie_km2":"5.00","latitude_centre":"46.3800011","longitude_centre":"4.8540001","distance_km":20.87}]}