{"ville":{"id":24849,"code_insee":"54529","nom_standard":"Tramont-Émy","nom_a":null,"nom_de":null,"slug_ville":"tramont-emy","departement_id":0,"code_postal":"54115","population":28,"superficie_km2":"395.46","latitude_centre":"48.4134","longitude_centre":"5.9484","dep_code":"54","dep_nom":"Meurthe-et-Moselle","dep_slug":"meurthe-et-moselle","reg_code":"44","reg_nom":"Grand Est","reg_slug":"grand-est"},"departement":{"code":"54","nom":"Meurthe-et-Moselle","slug":"meurthe-et-moselle"},"region":{"code":"44","nom":"Grand Est","slug":"grand-est"},"villes_proches":[{"id":0,"code_insee":"54531","nom_standard":"Tramont-Saint-André","nom_a":null,"nom_de":null,"slug_ville":"tramont-saint-andre","departement_id":0,"code_postal":"54115","population":62,"superficie_km2":"704.20","latitude_centre":"48.414","longitude_centre":"5.9247","distance_km":1.75},{"id":0,"code_insee":"54530","nom_standard":"Tramont-Lassus","nom_a":null,"nom_de":null,"slug_ville":"tramont-lassus","departement_id":0,"code_postal":"54115","population":89,"superficie_km2":"580.37","latitude_centre":"48.4042","longitude_centre":"5.968","distance_km":1.77},{"id":0,"code_insee":"54545","nom_standard":"Vandeléville","nom_a":null,"nom_de":null,"slug_ville":"vandeleville","departement_id":0,"code_postal":"54115","population":209,"superficie_km2":"1001.72","latitude_centre":"48.4251","longitude_centre":"5.9867","distance_km":3.11},{"id":0,"code_insee":"88013","nom_standard":"Aroffe","nom_a":null,"nom_de":null,"slug_ville":"aroffe","departement_id":0,"code_postal":"88170","population":93,"superficie_km2":"853.52","latitude_centre":"48.4112","longitude_centre":"5.8997","distance_km":3.6},{"id":0,"code_insee":"88504","nom_standard":"Vicherey","nom_a":null,"nom_de":null,"slug_ville":"vicherey","departement_id":0,"code_postal":"88170","population":154,"superficie_km2":"594.43","latitude_centre":"48.3817","longitude_centre":"5.9331","distance_km":3.7},{"id":24590,"code_insee":"54190","nom_standard":"Fécocourt","nom_a":null,"nom_de":null,"slug_ville":"fecocourt","departement_id":0,"code_postal":"54115","population":105,"superficie_km2":"797.77","latitude_centre":"48.4033","longitude_centre":"5.998","distance_km":3.83},{"id":0,"code_insee":"88459","nom_standard":"Soncourt","nom_a":null,"nom_de":null,"slug_ville":"soncourt","departement_id":0,"code_postal":"88170","population":42,"superficie_km2":"390.13","latitude_centre":"48.3875","longitude_centre":"5.9093","distance_km":4.08},{"id":24498,"code_insee":"54068","nom_standard":"Beuvezin","nom_a":null,"nom_de":null,"slug_ville":"beuvezin","departement_id":0,"code_postal":"54115","population":90,"superficie_km2":"762.42","latitude_centre":"48.3794","longitude_centre":"5.9705","distance_km":4.12},{"id":24485,"code_insee":"54052","nom_standard":"Battigny","nom_a":null,"nom_de":null,"slug_ville":"battigny","departement_id":0,"code_postal":"54115","population":139,"superficie_km2":"651.86","latitude_centre":"48.4428","longitude_centre":"5.984","distance_km":4.19},{"id":0,"code_insee":"88350","nom_standard":"Pleuvezain","nom_a":null,"nom_de":null,"slug_ville":"pleuvezain","departement_id":0,"code_postal":"88170","population":70,"superficie_km2":"380.09","latitude_centre":"48.3772","longitude_centre":"5.9153","distance_km":4.71},{"id":24616,"code_insee":"54220","nom_standard":"Gémonville","nom_a":null,"nom_de":null,"slug_ville":"gemonville","departement_id":0,"code_postal":"54115","population":74,"superficie_km2":"912.87","latitude_centre":"48.4193","longitude_centre":"5.8823","distance_km":4.92},{"id":24589,"code_insee":"54189","nom_standard":"Favières","nom_a":null,"nom_de":null,"slug_ville":"favieres","departement_id":0,"code_postal":"54115","population":572,"superficie_km2":"2983.54","latitude_centre":"48.4574","longitude_centre":"5.9335","distance_km":5.01},{"id":0,"code_insee":"88278","nom_standard":"Maconcourt","nom_a":null,"nom_de":null,"slug_ville":"maconcourt","departement_id":0,"code_postal":"88170","population":65,"superficie_km2":"490.84","latitude_centre":"48.3634","longitude_centre":"5.9364","distance_km":5.63},{"id":24629,"code_insee":"54237","nom_standard":"Grimonviller","nom_a":null,"nom_de":null,"slug_ville":"grimonviller","departement_id":0,"code_postal":"54115","population":116,"superficie_km2":"484.34","latitude_centre":"48.3815","longitude_centre":"6.0087","distance_km":5.69},{"id":24614,"code_insee":"54218","nom_standard":"Gélaucourt","nom_a":null,"nom_de":null,"slug_ville":"gelaucourt","departement_id":0,"code_postal":"54115","population":49,"superficie_km2":"225.91","latitude_centre":"48.4606","longitude_centre":"5.9897","distance_km":6.07},{"id":24444,"code_insee":"54003","nom_standard":"Aboncourt","nom_a":null,"nom_de":null,"slug_ville":"aboncourt","departement_id":0,"code_postal":"54115","population":91,"superficie_km2":"693.07","latitude_centre":"48.3605","longitude_centre":"5.9875","distance_km":6.55},{"id":24822,"code_insee":"54494","nom_standard":"Saulxerotte","nom_a":null,"nom_de":null,"slug_ville":"saulxerotte","departement_id":0,"code_postal":"54115","population":104,"superficie_km2":"311.37","latitude_centre":"48.474","longitude_centre":"5.9357","distance_km":6.8},{"id":0,"code_insee":"88433","nom_standard":"Saint-Prancher","nom_a":null,"nom_de":null,"slug_ville":"saint-prancher","departement_id":0,"code_postal":"88500","population":66,"superficie_km2":"443.72","latitude_centre":"48.3451","longitude_centre":"5.9468","distance_km":7.6},{"id":0,"code_insee":"88389","nom_standard":"Repel","nom_a":null,"nom_de":null,"slug_ville":"repel","departement_id":0,"code_postal":"88500","population":83,"superficie_km2":"350.28","latitude_centre":"48.345","longitude_centre":"5.9807","distance_km":7.97},{"id":0,"code_insee":"88150","nom_standard":"Dommartin-sur-Vraine","nom_a":null,"nom_de":null,"slug_ville":"dommartin-sur-vraine","departement_id":0,"code_postal":"88170","population":278,"superficie_km2":"705.22","latitude_centre":"48.343","longitude_centre":"5.9118","distance_km":8.28}]}