{"ville":{"id":29264,"code_insee":"65451","nom_standard":"Trébons","nom_a":null,"nom_de":null,"slug_ville":"trebons","departement_id":0,"code_postal":"65200","population":760,"superficie_km2":"1032.61","latitude_centre":"43.0952","longitude_centre":"0.1071","dep_code":"65","dep_nom":"Hautes-Pyrénées","dep_slug":"hautes-pyrenees","reg_code":"76","reg_nom":"Occitanie","reg_slug":"occitanie"},"departement":{"code":"65","nom":"Hautes-Pyrénées","slug":"hautes-pyrenees"},"region":{"code":"76","nom":"Occitanie","slug":"occitanie"},"villes_proches":[{"id":0,"code_insee":"65370","nom_standard":"Pouzac","nom_a":null,"nom_de":null,"slug_ville":"pouzac","departement_id":0,"code_postal":"65200","population":1099,"superficie_km2":"757.39","latitude_centre":"43.0788","longitude_centre":"0.1304","distance_km":2.63},{"id":28894,"code_insee":"65043","nom_standard":"Astugue","nom_a":null,"nom_de":null,"slug_ville":"astugue","departement_id":0,"code_postal":"65200","population":263,"superficie_km2":"799.48","latitude_centre":"43.0954","longitude_centre":"0.0727","distance_km":2.79},{"id":29161,"code_insee":"65335","nom_standard":"Ordizan","nom_a":null,"nom_de":null,"slug_ville":"ordizan","departement_id":0,"code_postal":"65200","population":513,"superficie_km2":"592.25","latitude_centre":"43.1068","longitude_centre":"0.1384","distance_km":2.85},{"id":29147,"code_insee":"65320","nom_standard":"Montgaillard","nom_a":null,"nom_de":null,"slug_ville":"montgaillard","departement_id":0,"code_postal":"65200","population":816,"superficie_km2":"963.14","latitude_centre":"43.1214","longitude_centre":"0.1155","distance_km":2.99},{"id":28870,"code_insee":"65016","nom_standard":"Antist","nom_a":null,"nom_de":null,"slug_ville":"antist","departement_id":0,"code_postal":"65200","population":189,"superficie_km2":"239.19","latitude_centre":"43.1194","longitude_centre":"0.1357","distance_km":3.55},{"id":29155,"code_insee":"65328","nom_standard":"Neuilh","nom_a":null,"nom_de":null,"slug_ville":"neuilh","departement_id":0,"code_postal":"65200","population":93,"superficie_km2":"236.90","latitude_centre":"43.0754","longitude_centre":"0.0709","distance_km":3.67},{"id":29073,"code_insee":"65238","nom_standard":"Labassère","nom_a":null,"nom_de":null,"slug_ville":"labassere","departement_id":0,"code_postal":"65200","population":227,"superficie_km2":"1005.82","latitude_centre":"43.0625","longitude_centre":"0.09","distance_km":3.89},{"id":29113,"code_insee":"65281","nom_standard":"Loucrup","nom_a":null,"nom_de":null,"slug_ville":"loucrup","departement_id":0,"code_postal":"65200","population":253,"superficie_km2":"372.92","latitude_centre":"43.1173","longitude_centre":"0.0687","distance_km":3.97},{"id":29169,"code_insee":"65345","nom_standard":"Ossun-ez-Angles","nom_a":null,"nom_de":null,"slug_ville":"ossun-ez-angles","departement_id":0,"code_postal":"65100","population":57,"superficie_km2":"217.10","latitude_centre":"43.0802","longitude_centre":"0.0563","distance_km":4.45},{"id":29055,"code_insee":"65216","nom_standard":"Hauban","nom_a":null,"nom_de":null,"slug_ville":"hauban","departement_id":0,"code_postal":"65200","population":94,"superficie_km2":"218.35","latitude_centre":"43.0991","longitude_centre":"0.1646","distance_km":4.69},{"id":29060,"code_insee":"65221","nom_standard":"Hiis","nom_a":null,"nom_de":null,"slug_ville":"hiis","departement_id":0,"code_postal":"65200","population":268,"superficie_km2":"305.32","latitude_centre":"43.1365","longitude_centre":"0.0949","distance_km":4.7},{"id":29081,"code_insee":"65247","nom_standard":"Arrayou-Lahitte","nom_a":null,"nom_de":null,"slug_ville":"arrayou-lahitte","departement_id":0,"code_postal":"65100","population":99,"superficie_km2":"487.55","latitude_centre":"43.092","longitude_centre":"0.0437","distance_km":5.16},{"id":0,"code_insee":"65464","nom_standard":"Vielle-Adour","nom_a":null,"nom_de":null,"slug_ville":"vielle-adour","departement_id":0,"code_postal":"65360","population":479,"superficie_km2":"582.41","latitude_centre":"43.1439","longitude_centre":"0.1293","distance_km":5.71},{"id":0,"code_insee":"65479","nom_standard":"Visker","nom_a":null,"nom_de":null,"slug_ville":"visker","departement_id":0,"code_postal":"65200","population":362,"superficie_km2":"418.35","latitude_centre":"43.1387","longitude_centre":"0.0674","distance_km":5.81},{"id":29138,"code_insee":"65310","nom_standard":"Mérilheu","nom_a":null,"nom_de":null,"slug_ville":"merilheu","departement_id":0,"code_postal":"65200","population":232,"superficie_km2":"336.93","latitude_centre":"43.101","longitude_centre":"0.1786","distance_km":5.84},{"id":29164,"code_insee":"65338","nom_standard":"Orignac","nom_a":null,"nom_de":null,"slug_ville":"orignac","departement_id":0,"code_postal":"65200","population":253,"superficie_km2":"1010.59","latitude_centre":"43.1236","longitude_centre":"0.1695","distance_km":5.97},{"id":28884,"code_insee":"65033","nom_standard":"Arrodets-ez-Angles","nom_a":null,"nom_de":null,"slug_ville":"arrodets-ez-angles","departement_id":0,"code_postal":"65100","population":113,"superficie_km2":"463.41","latitude_centre":"43.0701","longitude_centre":"0.0404","distance_km":6.09},{"id":28873,"code_insee":"65019","nom_standard":"Arcizac-Adour","nom_a":null,"nom_de":null,"slug_ville":"arcizac-adour","departement_id":0,"code_postal":"65360","population":614,"superficie_km2":"511.86","latitude_centre":"43.1502","longitude_centre":"0.0894","distance_km":6.28},{"id":29100,"code_insee":"65268","nom_standard":"Layrisse","nom_a":null,"nom_de":null,"slug_ville":"layrisse","departement_id":0,"code_postal":"65380","population":249,"superficie_km2":"338.59","latitude_centre":"43.1377","longitude_centre":"0.0496","distance_km":6.64},{"id":28930,"code_insee":"65084","nom_standard":"Bernac-Dessus","nom_a":null,"nom_de":null,"slug_ville":"bernac-dessus","departement_id":0,"code_postal":"65360","population":282,"superficie_km2":"466.96","latitude_centre":"43.1547","longitude_centre":"0.1302","distance_km":6.88}]}