{"ville":{"id":11134,"code_insee":"03288","nom_standard":"Treignat","nom_a":null,"nom_de":null,"slug_ville":"treignat","departement_id":0,"code_postal":"03380","population":434,"superficie_km2":"2934.97","latitude_centre":"46.3469","longitude_centre":"2.3458","dep_code":"03","dep_nom":"Allier","dep_slug":"allier","reg_code":"84","reg_nom":"Auvergne-Rhône-Alpes","reg_slug":"auvergne-rhone-alpes"},"departement":{"code":"03","nom":"Allier","slug":"allier"},"region":{"code":"84","nom":"Auvergne-Rhône-Alpes","slug":"auvergne-rhone-alpes"},"villes_proches":[{"id":0,"code_insee":"23108","nom_standard":"Leyrat","nom_a":null,"nom_de":null,"slug_ville":"leyrat","departement_id":0,"code_postal":"23600","population":143,"superficie_km2":"1840.72","latitude_centre":"46.3564","longitude_centre":"2.2985","distance_km":3.78},{"id":0,"code_insee":"23174","nom_standard":"Soumans","nom_a":null,"nom_de":null,"slug_ville":"soumans","departement_id":0,"code_postal":"23600","population":611,"superficie_km2":"3677.15","latitude_centre":"46.3086","longitude_centre":"2.3359","distance_km":4.33},{"id":10908,"code_insee":"03005","nom_standard":"Archignat","nom_a":null,"nom_de":null,"slug_ville":"archignat","departement_id":0,"code_postal":"03380","population":321,"superficie_km2":"2451.30","latitude_centre":"46.3634","longitude_centre":"2.4102","distance_km":5.27},{"id":11110,"code_insee":"03259","nom_standard":"Saint-Sauvier","nom_a":null,"nom_de":null,"slug_ville":"saint-sauvier","departement_id":0,"code_postal":"03370","population":320,"superficie_km2":"3173.80","latitude_centre":"46.3955","longitude_centre":"2.3337","distance_km":5.48},{"id":0,"code_insee":"23145","nom_standard":"Nouhant","nom_a":null,"nom_de":null,"slug_ville":"nouhant","departement_id":0,"code_postal":"23170","population":313,"superficie_km2":"2570.25","latitude_centre":"46.2924","longitude_centre":"2.3901","distance_km":6.95},{"id":0,"code_insee":"23104","nom_standard":"Lavaufranche","nom_a":null,"nom_de":null,"slug_ville":"lavaufranche","departement_id":0,"code_postal":"23600","population":232,"superficie_km2":"1617.98","latitude_centre":"46.305","longitude_centre":"2.2738","distance_km":7.23},{"id":11100,"code_insee":"03246","nom_standard":"Saint-Martinien","nom_a":null,"nom_de":null,"slug_ville":"saint-martinien","departement_id":0,"code_postal":"03380","population":597,"superficie_km2":"2579.31","latitude_centre":"46.3328","longitude_centre":"2.442","distance_km":7.55},{"id":0,"code_insee":"23233","nom_standard":"Saint-Pierre-le-Bost","nom_a":null,"nom_de":null,"slug_ville":"saint-pierre-le-bost","departement_id":0,"code_postal":"23600","population":119,"superficie_km2":"1718.60","latitude_centre":"46.3957","longitude_centre":"2.2592","distance_km":8.58},{"id":11037,"code_insee":"03172","nom_standard":"Mesples","nom_a":null,"nom_de":null,"slug_ville":"mesples","departement_id":0,"code_postal":"03370","population":129,"superficie_km2":"1534.65","latitude_centre":"46.424","longitude_centre":"2.363","distance_km":8.67},{"id":11008,"code_insee":"03136","nom_standard":"Lamaids","nom_a":null,"nom_de":null,"slug_ville":"lamaids","departement_id":0,"code_postal":"03380","population":210,"superficie_km2":"772.99","latitude_centre":"46.302","longitude_centre":"2.441","distance_km":8.85},{"id":0,"code_insee":"23259","nom_standard":"Verneiges","nom_a":null,"nom_de":null,"slug_ville":"verneiges","departement_id":0,"code_postal":"23170","population":119,"superficie_km2":"764.63","latitude_centre":"46.2643","longitude_centre":"2.3387","distance_km":9.2},{"id":0,"code_insee":"23031","nom_standard":"Boussac","nom_a":null,"nom_de":null,"slug_ville":"boussac","departement_id":0,"code_postal":"23600","population":1236,"superficie_km2":"154.54","latitude_centre":"46.3482","longitude_centre":"2.2216","distance_km":9.53},{"id":10944,"code_insee":"03051","nom_standard":"Chambérat","nom_a":null,"nom_de":null,"slug_ville":"chamberat","departement_id":0,"code_postal":"03370","population":277,"superficie_km2":"2871.68","latitude_centre":"46.4145","longitude_centre":"2.4227","distance_km":9.56},{"id":0,"code_insee":"23240","nom_standard":"Saint-Silvain-Bas-le-Roc","nom_a":null,"nom_de":null,"slug_ville":"saint-silvain-bas-le-roc","departement_id":0,"code_postal":"23600","population":410,"superficie_km2":"1547.83","latitude_centre":"46.3312","longitude_centre":"2.2189","distance_km":9.9},{"id":0,"code_insee":"23032","nom_standard":"Boussac-Bourg","nom_a":null,"nom_de":null,"slug_ville":"boussac-bourg","departement_id":0,"code_postal":"23600","population":686,"superficie_km2":"3864.55","latitude_centre":"46.3685","longitude_centre":"2.2161","distance_km":10.24},{"id":11102,"code_insee":"03249","nom_standard":"Saint-Palais","nom_a":null,"nom_de":null,"slug_ville":"saint-palais","departement_id":0,"code_postal":"03370","population":163,"superficie_km2":"2040.31","latitude_centre":"46.4415","longitude_centre":"2.3078","distance_km":10.92},{"id":0,"code_insee":"23026","nom_standard":"Bord-Saint-Georges","nom_a":null,"nom_de":null,"slug_ville":"bord-saint-georges","departement_id":0,"code_postal":"23230","population":368,"superficie_km2":"3244.63","latitude_centre":"46.2481","longitude_centre":"2.2854","distance_km":11.93},{"id":0,"code_insee":"23009","nom_standard":"Auge","nom_a":null,"nom_de":null,"slug_ville":"auge","departement_id":0,"code_postal":"23170","population":92,"superficie_km2":"1001.40","latitude_centre":"46.2365","longitude_centre":"2.3295","distance_km":12.34},{"id":0,"code_insee":"03317","nom_standard":"Viplaix","nom_a":null,"nom_de":null,"slug_ville":"viplaix","departement_id":0,"code_postal":"03370","population":293,"superficie_km2":"3090.10","latitude_centre":"46.4608","longitude_centre":"2.368","distance_km":12.78},{"id":0,"code_insee":"23106","nom_standard":"Lépaud","nom_a":null,"nom_de":null,"slug_ville":"lepaud","departement_id":0,"code_postal":"23170","population":359,"superficie_km2":"2413.61","latitude_centre":"46.2286","longitude_centre":"2.3845","distance_km":13.49}]}