{"ville":{"id":15967,"code_insee":"22368","nom_standard":"Tréméreuc","nom_a":null,"nom_de":null,"slug_ville":"tremereuc","departement_id":0,"code_postal":"22490","population":729,"superficie_km2":"415.59","latitude_centre":"48.5601","longitude_centre":"-2.0634","dep_code":"22","dep_nom":"Côtes-d'Armor","dep_slug":"cotes-d-armor","reg_code":"53","reg_nom":"Bretagne","reg_slug":"bretagne"},"departement":{"code":"22","nom":"Côtes-d'Armor","slug":"cotes-d-armor"},"region":{"code":"53","nom":"Bretagne","slug":"bretagne"},"villes_proches":[{"id":0,"code_insee":"35228","nom_standard":"Pleurtuit","nom_a":null,"nom_de":null,"slug_ville":"pleurtuit","departement_id":0,"code_postal":"35730","population":7167,"superficie_km2":"2884.74","latitude_centre":"48.5791","longitude_centre":"-2.0696","distance_km":2.16},{"id":0,"code_insee":"22190","nom_standard":"Pleslin-Trigavou","nom_a":null,"nom_de":null,"slug_ville":"pleslin-trigavou","departement_id":0,"code_postal":"22490","population":4065,"superficie_km2":"2194.69","latitude_centre":"48.5285","longitude_centre":"-2.0706","distance_km":3.55},{"id":15849,"code_insee":"22103","nom_standard":"Langrolay-sur-Rance","nom_a":null,"nom_de":null,"slug_ville":"langrolay-sur-rance","departement_id":0,"code_postal":"22490","population":991,"superficie_km2":"529.99","latitude_centre":"48.5547","longitude_centre":"-2.0151","distance_km":3.61},{"id":0,"code_insee":"35181","nom_standard":"Le Minihic-sur-Rance","nom_a":null,"nom_de":null,"slug_ville":"le-minihic-sur-rance","departement_id":0,"code_postal":"35870","population":1524,"superficie_km2":"386.88","latitude_centre":"48.5737","longitude_centre":"-2.011","distance_km":4.14},{"id":0,"code_insee":"22209","nom_standard":"Beaussais-sur-Mer","nom_a":null,"nom_de":null,"slug_ville":"beaussais-sur-mer","departement_id":0,"code_postal":"22650","population":4498,"superficie_km2":"4188.33","latitude_centre":"48.5627","longitude_centre":"-2.1383","distance_km":5.52},{"id":0,"code_insee":"22213","nom_standard":"Plouër-sur-Rance","nom_a":null,"nom_de":null,"slug_ville":"plouer-sur-rance","departement_id":0,"code_postal":"22490","population":3416,"superficie_km2":"2021.07","latitude_centre":"48.5254","longitude_centre":"-2.0064","distance_km":5.7},{"id":0,"code_insee":"35241","nom_standard":"La Richardais","nom_a":null,"nom_de":null,"slug_ville":"la-richardais","departement_id":0,"code_postal":"35780","population":2664,"superficie_km2":"315.72","latitude_centre":"48.61","longitude_centre":"-2.043","distance_km":5.75},{"id":0,"code_insee":"35287","nom_standard":"Saint-Lunaire","nom_a":null,"nom_de":null,"slug_ville":"saint-lunaire","departement_id":0,"code_postal":"35800","population":2768,"superficie_km2":"1037.12","latitude_centre":"48.62","longitude_centre":"-2.1004","distance_km":7.2},{"id":0,"code_insee":"35314","nom_standard":"Saint-Suliac","nom_a":null,"nom_de":null,"slug_ville":"saint-suliac","departement_id":0,"code_postal":"35430","population":1018,"superficie_km2":"469.67","latitude_centre":"48.5713","longitude_centre":"-1.967","distance_km":7.2},{"id":0,"code_insee":"22105","nom_standard":"Languenan","nom_a":null,"nom_de":null,"slug_ville":"languenan","departement_id":0,"code_postal":"22130","population":1170,"superficie_km2":"1608.44","latitude_centre":"48.5127","longitude_centre":"-2.1344","distance_km":7.42},{"id":0,"code_insee":"35093","nom_standard":"Dinard","nom_a":null,"nom_de":null,"slug_ville":"dinard","departement_id":0,"code_postal":"35800","population":10772,"superficie_km2":"761.87","latitude_centre":"48.629","longitude_centre":"-2.0602","distance_km":7.66},{"id":0,"code_insee":"22094","nom_standard":"Lancieux","nom_a":null,"nom_de":null,"slug_ville":"lancieux","departement_id":0,"code_postal":"22770","population":1611,"superficie_km2":"655.18","latitude_centre":"48.6034","longitude_centre":"-2.1479","distance_km":7.86},{"id":0,"code_insee":"35256","nom_standard":"Saint-Briac-sur-Mer","nom_a":null,"nom_de":null,"slug_ville":"saint-briac-sur-mer","departement_id":0,"code_postal":"35800","population":2258,"superficie_km2":"813.87","latitude_centre":"48.6172","longitude_centre":"-2.13","distance_km":8.02},{"id":0,"code_insee":"22339","nom_standard":"Taden","nom_a":null,"nom_de":null,"slug_ville":"taden","departement_id":0,"code_postal":"22100","population":2636,"superficie_km2":"2033.55","latitude_centre":"48.4867","longitude_centre":"-2.0536","distance_km":8.19},{"id":0,"code_insee":"35358","nom_standard":"La Ville-ès-Nonais","nom_a":null,"nom_de":null,"slug_ville":"la-ville-es-nonais","departement_id":0,"code_postal":"35430","population":1233,"superficie_km2":"441.95","latitude_centre":"48.5504","longitude_centre":"-1.9508","distance_km":8.36},{"id":0,"code_insee":"22327","nom_standard":"Saint-Samson-sur-Rance","nom_a":null,"nom_de":null,"slug_ville":"saint-samson-sur-rance","departement_id":0,"code_postal":"22100","population":1625,"superficie_km2":"636.27","latitude_centre":"48.49","longitude_centre":"-2.0172","distance_km":8.5},{"id":0,"code_insee":"35284","nom_standard":"Saint-Jouan-des-Guérets","nom_a":null,"nom_de":null,"slug_ville":"saint-jouan-des-guerets","departement_id":0,"code_postal":"35430","population":2847,"superficie_km2":"925.03","latitude_centre":"48.6043","longitude_centre":"-1.9667","distance_km":8.65},{"id":0,"code_insee":"22385","nom_standard":"La Vicomté-sur-Rance","nom_a":null,"nom_de":null,"slug_ville":"la-vicomte-sur-rance","departement_id":0,"code_postal":"22690","population":1149,"superficie_km2":"465.63","latitude_centre":"48.4882","longitude_centre":"-1.9834","distance_km":9.93},{"id":0,"code_insee":"35288","nom_standard":"Saint-Malo","nom_a":null,"nom_de":null,"slug_ville":"saint-malo","departement_id":0,"code_postal":"35400","population":47439,"superficie_km2":"3640.72","latitude_centre":"48.6465","longitude_centre":"-2.0066","distance_km":10.48},{"id":0,"code_insee":"22259","nom_standard":"Quévert","nom_a":null,"nom_de":null,"slug_ville":"quevert","departement_id":0,"code_postal":"22100","population":3955,"superficie_km2":"1282.63","latitude_centre":"48.466","longitude_centre":"-2.0852","distance_km":10.59}]}