{"ville":{"id":6170,"code_insee":"60643","nom_standard":"Tricot","nom_a":null,"nom_de":null,"slug_ville":"tricot","departement_id":661,"code_postal":"60420","population":1365,"superficie_km2":"12.00","latitude_centre":"49.5629997","longitude_centre":"2.5850000","dep_code":"60","dep_nom":"Oise","dep_slug":"oise","reg_code":"09","reg_nom":"Hauts-de-France","reg_slug":"hauts-de-france"},"departement":{"code":"60","nom":"Oise","slug":"oise"},"region":{"code":"09","nom":"Hauts-de-France","slug":"hauts-de-france"},"villes_proches":[{"id":6104,"code_insee":"60374","nom_standard":"Maignelay-Montigny","nom_a":null,"nom_de":null,"slug_ville":"maignelay-montigny","departement_id":661,"code_postal":"60420","population":2555,"superficie_km2":"19.00","latitude_centre":"49.5480003","longitude_centre":"2.5130000","distance_km":5.45},{"id":6138,"code_insee":"60526","nom_standard":"Ravenel","nom_a":null,"nom_de":null,"slug_ville":"ravenel","departement_id":661,"code_postal":"60130","population":1054,"superficie_km2":"11.00","latitude_centre":"49.5139999","longitude_centre":"2.4990001","distance_km":8.26},{"id":8601,"code_insee":"80561","nom_standard":"Montdidier","nom_a":null,"nom_de":null,"slug_ville":"montdidier","departement_id":681,"code_postal":"80500","population":6009,"superficie_km2":"13.00","latitude_centre":"49.6479988","longitude_centre":"2.5690000","distance_km":9.52},{"id":6140,"code_insee":"60533","nom_standard":"Ressons-sur-Matz","nom_a":null,"nom_de":null,"slug_ville":"ressons-sur-matz","departement_id":661,"code_postal":"60490","population":1733,"superficie_km2":"9.00","latitude_centre":"49.5340004","longitude_centre":"2.7330000","distance_km":11.15},{"id":6150,"code_insee":"60581","nom_standard":"Saint-Just-en-Chaussée","nom_a":null,"nom_de":null,"slug_ville":"saint-just-en-chaussee","departement_id":661,"code_postal":"60130","population":6060,"superficie_km2":"15.00","latitude_centre":"49.5110016","longitude_centre":"2.4180000","distance_km":13.37},{"id":6028,"code_insee":"60017","nom_standard":"Ansauvillers","nom_a":null,"nom_de":null,"slug_ville":"ansauvillers","departement_id":661,"code_postal":"60120","population":1163,"superficie_km2":"7.00","latitude_centre":"49.5670013","longitude_centre":"2.3859999","distance_km":14.36},{"id":6077,"code_insee":"60223","nom_standard":"Estrées-Saint-Denis","nom_a":null,"nom_de":null,"slug_ville":"estrees-saint-denis","departement_id":661,"code_postal":"60190","population":3693,"superficie_km2":"8.00","latitude_centre":"49.4259987","longitude_centre":"2.6300001","distance_km":15.58},{"id":8611,"code_insee":"80625","nom_standard":"Trois-Rivières","nom_a":null,"nom_de":null,"slug_ville":"trois-rivieres","departement_id":681,"code_postal":"80500","population":1495,"superficie_km2":"4.00","latitude_centre":"49.7070007","longitude_centre":"2.5510001","distance_km":16.2},{"id":6186,"code_insee":"60701","nom_standard":"Wavignies","nom_a":null,"nom_de":null,"slug_ville":"wavignies","departement_id":661,"code_postal":"60130","population":1330,"superficie_km2":"10.00","latitude_centre":"49.5470009","longitude_centre":"2.3599999","distance_km":16.33},{"id":6139,"code_insee":"60531","nom_standard":"Remy","nom_a":null,"nom_de":null,"slug_ville":"remy","departement_id":661,"code_postal":"60190","population":1973,"superficie_km2":"20.00","latitude_centre":"49.4350014","longitude_centre":"2.7030001","distance_km":16.59},{"id":6031,"code_insee":"60034","nom_standard":"Avrechy","nom_a":null,"nom_de":null,"slug_ville":"avrechy","departement_id":661,"code_postal":"60130","population":1162,"superficie_km2":"13.00","latitude_centre":"49.4449997","longitude_centre":"2.4240000","distance_km":17.53},{"id":6183,"code_insee":"60689","nom_standard":"Villers-sur-Coudun","nom_a":null,"nom_de":null,"slug_ville":"villers-sur-coudun","departement_id":661,"code_postal":"60150","population":1409,"superficie_km2":"7.00","latitude_centre":"49.4860001","longitude_centre":"2.8050001","distance_km":18.04},{"id":6097,"code_insee":"60350","nom_standard":"Lassigny","nom_a":null,"nom_de":null,"slug_ville":"lassigny","departement_id":661,"code_postal":"60310","population":1403,"superficie_km2":"17.00","latitude_centre":"49.5999985","longitude_centre":"2.8440001","distance_km":19.12},{"id":6067,"code_insee":"60166","nom_standard":"Coudun","nom_a":null,"nom_de":null,"slug_ville":"coudun","departement_id":661,"code_postal":"60150","population":1059,"superficie_km2":"11.00","latitude_centre":"49.4580002","longitude_centre":"2.8000000","distance_km":19.42},{"id":8622,"code_insee":"80685","nom_standard":"Roye","nom_a":null,"nom_de":null,"slug_ville":"roye","departement_id":681,"code_postal":"80700","population":5662,"superficie_km2":"16.00","latitude_centre":"49.6940002","longitude_centre":"2.7890000","distance_km":20.69},{"id":8590,"code_insee":"80415","nom_standard":"Hangest-en-Santerre","nom_a":null,"nom_de":null,"slug_ville":"hangest-en-santerre","departement_id":681,"code_postal":"80134","population":1020,"superficie_km2":"15.00","latitude_centre":"49.7509995","longitude_centre":"2.6020000","distance_km":20.94},{"id":6051,"code_insee":"60130","nom_standard":"Catenoy","nom_a":null,"nom_de":null,"slug_ville":"catenoy","departement_id":661,"code_postal":"60840","population":1054,"superficie_km2":"13.00","latitude_centre":"49.3790016","longitude_centre":"2.5179999","distance_km":21.02},{"id":6124,"code_insee":"60464","nom_standard":"Nointel","nom_a":null,"nom_de":null,"slug_ville":"nointel","departement_id":661,"code_postal":"60840","population":1138,"superficie_km2":"9.00","latitude_centre":"49.3829994","longitude_centre":"2.4879999","distance_km":21.21},{"id":6175,"code_insee":"60665","nom_standard":"Venette","nom_a":null,"nom_de":null,"slug_ville":"venette","departement_id":661,"code_postal":"60280","population":2808,"superficie_km2":"9.00","latitude_centre":"49.4199982","longitude_centre":"2.7839999","distance_km":21.43},{"id":6079,"code_insee":"60234","nom_standard":"Fitz-James","nom_a":null,"nom_de":null,"slug_ville":"fitz-james","departement_id":661,"code_postal":"60600","population":2578,"superficie_km2":"10.00","latitude_centre":"49.3989983","longitude_centre":"2.4289999","distance_km":21.44}]}