{"ville":{"id":18060,"code_insee":"28396","nom_standard":"Trizay-lès-Bonneval","nom_a":null,"nom_de":null,"slug_ville":"trizay-les-bonneval","departement_id":0,"code_postal":"28800","population":323,"superficie_km2":"990.45","latitude_centre":"48.1993","longitude_centre":"1.3336","dep_code":"28","dep_nom":"Eure-et-Loir","dep_slug":"eure-et-loir","reg_code":"24","reg_nom":"Centre-Val de Loire","reg_slug":"centre-val-de-loire"},"departement":{"code":"28","nom":"Eure-et-Loir","slug":"eure-et-loir"},"region":{"code":"24","nom":"Centre-Val de Loire","slug":"centre-val-de-loire"},"villes_proches":[{"id":17970,"code_insee":"28260","nom_standard":"Montharville","nom_a":null,"nom_de":null,"slug_ville":"montharville","departement_id":0,"code_postal":"28800","population":105,"superficie_km2":"646.93","latitude_centre":"48.1771","longitude_centre":"1.326","distance_km":2.53},{"id":17807,"code_insee":"28005","nom_standard":"Alluyes","nom_a":null,"nom_de":null,"slug_ville":"alluyes","departement_id":0,"code_postal":"28800","population":756,"superficie_km2":"1981.39","latitude_centre":"48.2251","longitude_centre":"1.3666","distance_km":3.77},{"id":0,"code_insee":"28051","nom_standard":"Bonneval","nom_a":null,"nom_de":null,"slug_ville":"bonneval","departement_id":0,"code_postal":"28800","population":4868,"superficie_km2":"2884.67","latitude_centre":"48.1787","longitude_centre":"1.3844","distance_km":4.41},{"id":0,"code_insee":"28127","nom_standard":"Dangeau","nom_a":null,"nom_de":null,"slug_ville":"dangeau","departement_id":0,"code_postal":"28160","population":1259,"superficie_km2":"5497.78","latitude_centre":"48.2065","longitude_centre":"1.2712","distance_km":4.69},{"id":17897,"code_insee":"28153","nom_standard":"Flacey","nom_a":null,"nom_de":null,"slug_ville":"flacey","departement_id":0,"code_postal":"28800","population":208,"superficie_km2":"1416.02","latitude_centre":"48.1505","longitude_centre":"1.3319","distance_km":5.43},{"id":18046,"code_insee":"28370","nom_standard":"Saumeray","nom_a":null,"nom_de":null,"slug_ville":"saumeray","departement_id":0,"code_postal":"28800","population":465,"superficie_km2":"1951.15","latitude_centre":"48.2552","longitude_centre":"1.3169","distance_km":6.34},{"id":17969,"code_insee":"28259","nom_standard":"Montboissier","nom_a":null,"nom_de":null,"slug_ville":"montboissier","departement_id":0,"code_postal":"28800","population":341,"superficie_km2":"1417.20","latitude_centre":"48.2292","longitude_centre":"1.412","distance_km":6.69},{"id":18019,"code_insee":"28329","nom_standard":"Saint-Christophe","nom_a":null,"nom_de":null,"slug_ville":"saint-christophe","departement_id":0,"code_postal":"28200","population":143,"superficie_km2":"615.47","latitude_centre":"48.133","longitude_centre":"1.3709","distance_km":7.87},{"id":17838,"code_insee":"28057","nom_standard":"Bouville","nom_a":null,"nom_de":null,"slug_ville":"bouville","departement_id":0,"code_postal":"28800","population":530,"superficie_km2":"1568.60","latitude_centre":"48.2631","longitude_centre":"1.3804","distance_km":7.9},{"id":18035,"code_insee":"28353","nom_standard":"Saint-Maur-sur-le-Loir","nom_a":null,"nom_de":null,"slug_ville":"saint-maur-sur-le-loir","departement_id":0,"code_postal":"28800","population":411,"superficie_km2":"1669.05","latitude_centre":"48.152","longitude_centre":"1.4184","distance_km":8.2},{"id":17977,"code_insee":"28270","nom_standard":"Moriers","nom_a":null,"nom_de":null,"slug_ville":"moriers","departement_id":0,"code_postal":"28800","population":223,"superficie_km2":"908.00","latitude_centre":"48.2191","longitude_centre":"1.4408","distance_km":8.24},{"id":0,"code_insee":"28233","nom_standard":"Marboué","nom_a":null,"nom_de":null,"slug_ville":"marboue","departement_id":0,"code_postal":"28200","population":1108,"superficie_km2":"2666.29","latitude_centre":"48.1245","longitude_centre":"1.3056","distance_km":8.57},{"id":17854,"code_insee":"28081","nom_standard":"Charonville","nom_a":null,"nom_de":null,"slug_ville":"charonville","departement_id":0,"code_postal":"28120","population":293,"superficie_km2":"971.88","latitude_centre":"48.2796","longitude_centre":"1.3145","distance_km":9.04},{"id":17938,"code_insee":"28211","nom_standard":"Logron","nom_a":null,"nom_de":null,"slug_ville":"logron","departement_id":0,"code_postal":"28200","population":577,"superficie_km2":"2277.18","latitude_centre":"48.1382","longitude_centre":"1.2528","distance_km":9.06},{"id":18017,"code_insee":"28326","nom_standard":"Saint-Avit-les-Guespières","nom_a":null,"nom_de":null,"slug_ville":"saint-avit-les-guespieres","departement_id":0,"code_postal":"28120","population":342,"superficie_km2":"1273.19","latitude_centre":"48.2673","longitude_centre":"1.2602","distance_km":9.31},{"id":17889,"code_insee":"28142","nom_standard":"Ermenonville-la-Petite","nom_a":null,"nom_de":null,"slug_ville":"ermenonville-la-petite","departement_id":0,"code_postal":"28120","population":192,"superficie_km2":"512.93","latitude_centre":"48.29","longitude_centre":"1.3448","distance_km":10.12},{"id":0,"code_insee":"28419","nom_standard":"Vitray-en-Beauce","nom_a":null,"nom_de":null,"slug_ville":"vitray-en-beauce","departement_id":0,"code_postal":"28360","population":346,"superficie_km2":"1093.13","latitude_centre":"48.2759","longitude_centre":"1.4181","distance_km":10.57},{"id":17967,"code_insee":"28256","nom_standard":"Moléans","nom_a":null,"nom_de":null,"slug_ville":"moleans","departement_id":0,"code_postal":"28200","population":433,"superficie_km2":"1104.05","latitude_centre":"48.1143","longitude_centre":"1.4016","distance_km":10.71},{"id":17884,"code_insee":"28132","nom_standard":"Donnemain-Saint-Mamès","nom_a":null,"nom_de":null,"slug_ville":"donnemain-saint-mames","departement_id":0,"code_postal":"28200","population":654,"superficie_km2":"1281.39","latitude_centre":"48.1012","longitude_centre":"1.3669","distance_km":11.18},{"id":17946,"code_insee":"28222","nom_standard":"Luplanté","nom_a":null,"nom_de":null,"slug_ville":"luplante","departement_id":0,"code_postal":"28360","population":384,"superficie_km2":"1669.84","latitude_centre":"48.2987","longitude_centre":"1.385","distance_km":11.69}]}