{"ville":{"id":15735,"code_insee":"21646","nom_standard":"Trouhaut","nom_a":null,"nom_de":null,"slug_ville":"trouhaut","departement_id":0,"code_postal":"21440","population":131,"superficie_km2":"953.24","latitude_centre":"47.3896","longitude_centre":"4.7625","dep_code":"21","dep_nom":"Côte-d'Or","dep_slug":"cote-d-or","reg_code":"27","reg_nom":"Bourgogne-Franche-Comté","reg_slug":"bourgogne-franche-comte"},"departement":{"code":"21","nom":"Côte-d'Or","slug":"cote-d-or"},"region":{"code":"27","nom":"Bourgogne-Franche-Comté","slug":"bourgogne-franche-comte"},"villes_proches":[{"id":15241,"code_insee":"21080","nom_standard":"Blaisy-Bas","nom_a":null,"nom_de":null,"slug_ville":"blaisy-bas","departement_id":0,"code_postal":"21540","population":677,"superficie_km2":"1330.82","latitude_centre":"47.3673","longitude_centre":"4.741","distance_km":2.96},{"id":15242,"code_insee":"21081","nom_standard":"Blaisy-Haut","nom_a":null,"nom_de":null,"slug_ville":"blaisy-haut","departement_id":0,"code_postal":"21540","population":123,"superficie_km2":"831.50","latitude_centre":"47.3606","longitude_centre":"4.7706","distance_km":3.28},{"id":15595,"code_insee":"21477","nom_standard":"Panges","nom_a":null,"nom_de":null,"slug_ville":"panges","departement_id":0,"code_postal":"21540","population":85,"superficie_km2":"612.45","latitude_centre":"47.3729","longitude_centre":"4.8055","distance_km":3.73},{"id":0,"code_insee":"21648","nom_standard":"Turcey","nom_a":null,"nom_de":null,"slug_ville":"turcey","departement_id":0,"code_postal":"21540","population":187,"superficie_km2":"1247.91","latitude_centre":"47.4076","longitude_centre":"4.7206","distance_km":3.74},{"id":15664,"code_insee":"21561","nom_standard":"Saint-Martin-du-Mont","nom_a":null,"nom_de":null,"slug_ville":"saint-martin-du-mont","departement_id":0,"code_postal":"21440","population":463,"superficie_km2":"3823.62","latitude_centre":"47.4135","longitude_centre":"4.8078","distance_km":4.32},{"id":15279,"code_insee":"21121","nom_standard":"Bussy-la-Pesle","nom_a":null,"nom_de":null,"slug_ville":"bussy-la-pesle","departement_id":0,"code_postal":"21540","population":73,"superficie_km2":"1148.40","latitude_centre":"47.3587","longitude_centre":"4.7166","distance_km":4.87},{"id":15215,"code_insee":"21051","nom_standard":"Baulme-la-Roche","nom_a":null,"nom_de":null,"slug_ville":"baulme-la-roche","departement_id":0,"code_postal":"21410","population":93,"superficie_km2":"671.02","latitude_centre":"47.3464","longitude_centre":"4.7895","distance_km":5.22},{"id":15657,"code_insee":"21552","nom_standard":"Saint-Hélier","nom_a":null,"nom_de":null,"slug_ville":"saint-helier","departement_id":0,"code_postal":"21690","population":36,"superficie_km2":"391.60","latitude_centre":"47.3888","longitude_centre":"4.6916","distance_km":5.34},{"id":15676,"code_insee":"21573","nom_standard":"Saint-Seine-l'Abbaye","nom_a":null,"nom_de":null,"slug_ville":"saint-seine-l-abbaye","departement_id":0,"code_postal":"21440","population":364,"superficie_km2":"387.24","latitude_centre":"47.4399","longitude_centre":"4.7854","distance_km":5.85},{"id":0,"code_insee":"21705","nom_standard":"Villotte-Saint-Seine","nom_a":null,"nom_de":null,"slug_ville":"villotte-saint-seine","departement_id":0,"code_postal":"21690","population":65,"superficie_km2":"761.14","latitude_centre":"47.4319","longitude_centre":"4.7119","distance_km":6.05},{"id":0,"code_insee":"21669","nom_standard":"Verrey-sous-Drée","nom_a":null,"nom_de":null,"slug_ville":"verrey-sous-dree","departement_id":0,"code_postal":"21540","population":99,"superficie_km2":"343.42","latitude_centre":"47.3677","longitude_centre":"4.6888","distance_km":6.06},{"id":15299,"code_insee":"21141","nom_standard":"Champrenault","nom_a":null,"nom_de":null,"slug_ville":"champrenault","departement_id":0,"code_postal":"21690","population":38,"superficie_km2":"421.89","latitude_centre":"47.3997","longitude_centre":"4.6804","distance_km":6.28},{"id":15691,"code_insee":"21592","nom_standard":"Savigny-sous-Mâlain","nom_a":null,"nom_de":null,"slug_ville":"savigny-sous-malain","departement_id":0,"code_postal":"21540","population":234,"superficie_km2":"633.15","latitude_centre":"47.3326","longitude_centre":"4.7526","distance_km":6.38},{"id":15246,"code_insee":"21085","nom_standard":"Bligny-le-Sec","nom_a":null,"nom_de":null,"slug_ville":"bligny-le-sec","departement_id":0,"code_postal":"21440","population":145,"superficie_km2":"1676.46","latitude_centre":"47.4479","longitude_centre":"4.741","distance_km":6.68},{"id":15380,"code_insee":"21234","nom_standard":"Drée","nom_a":null,"nom_de":null,"slug_ville":"dree","departement_id":0,"code_postal":"21540","population":66,"superficie_km2":"515.19","latitude_centre":"47.3437","longitude_centre":"4.6985","distance_km":7.02},{"id":15182,"code_insee":"21013","nom_standard":"Ancey","nom_a":null,"nom_de":null,"slug_ville":"ancey","departement_id":0,"code_postal":"21410","population":451,"superficie_km2":"845.32","latitude_centre":"47.3352","longitude_centre":"4.8226","distance_km":7.56},{"id":15294,"code_insee":"21136","nom_standard":"Champagny","nom_a":null,"nom_de":null,"slug_ville":"champagny","departement_id":0,"code_postal":"21440","population":27,"superficie_km2":"715.03","latitude_centre":"47.4612","longitude_centre":"4.7658","distance_km":7.97},{"id":15504,"code_insee":"21373","nom_standard":"Mâlain","nom_a":null,"nom_de":null,"slug_ville":"malain","departement_id":0,"code_postal":"21410","population":798,"superficie_km2":"1123.07","latitude_centre":"47.3204","longitude_centre":"4.7931","distance_km":8.03},{"id":15617,"code_insee":"21504","nom_standard":"Prâlon","nom_a":null,"nom_de":null,"slug_ville":"pralon","departement_id":0,"code_postal":"21410","population":109,"superficie_km2":"310.36","latitude_centre":"47.312","longitude_centre":"4.7772","distance_km":8.7},{"id":15535,"code_insee":"21406","nom_standard":"Mesmont","nom_a":null,"nom_de":null,"slug_ville":"mesmont","departement_id":0,"code_postal":"21540","population":253,"superficie_km2":"636.57","latitude_centre":"47.3118","longitude_centre":"4.7429","distance_km":8.78}]}