{"ville":{"id":10831,"code_insee":"02753","nom_standard":"Tupigny","nom_a":null,"nom_de":null,"slug_ville":"tupigny","departement_id":0,"code_postal":"02120","population":341,"superficie_km2":"1297.66","latitude_centre":"49.9775","longitude_centre":"3.5983","dep_code":"02","dep_nom":"Aisne","dep_slug":"aisne","reg_code":"32","reg_nom":"Hauts-de-France","reg_slug":"hauts-de-france"},"departement":{"code":"02","nom":"Aisne","slug":"aisne"},"region":{"code":"32","nom":"Hauts-de-France","slug":"hauts-de-france"},"villes_proches":[{"id":10494,"code_insee":"02366","nom_standard":"Hannapes","nom_a":null,"nom_de":null,"slug_ville":"hannapes","departement_id":0,"code_postal":"02510","population":320,"superficie_km2":"926.85","latitude_centre":"49.9762","longitude_centre":"3.6163","distance_km":1.3},{"id":0,"code_insee":"02779","nom_standard":"Vénérolles","nom_a":null,"nom_de":null,"slug_ville":"venerolles","departement_id":0,"code_postal":"02510","population":229,"superficie_km2":"898.76","latitude_centre":"49.9898","longitude_centre":"3.6287","distance_km":2.57},{"id":0,"code_insee":"02784","nom_standard":"Petit-Verly","nom_a":null,"nom_de":null,"slug_ville":"petit-verly","departement_id":0,"code_postal":"02630","population":155,"superficie_km2":"519.66","latitude_centre":"49.9609","longitude_centre":"3.5646","distance_km":3.04},{"id":10590,"code_insee":"02476","nom_standard":"Mennevret","nom_a":null,"nom_de":null,"slug_ville":"mennevret","departement_id":0,"code_postal":"02630","population":637,"superficie_km2":"1190.23","latitude_centre":"49.9925","longitude_centre":"3.5568","distance_km":3.4},{"id":0,"code_insee":"02783","nom_standard":"Grand-Verly","nom_a":null,"nom_de":null,"slug_ville":"grand-verly","departement_id":0,"code_postal":"02120","population":124,"superficie_km2":"379.52","latitude_centre":"49.9446","longitude_centre":"3.5814","distance_km":3.85},{"id":0,"code_insee":"02830","nom_standard":"Wassigny","nom_a":null,"nom_de":null,"slug_ville":"wassigny","departement_id":0,"code_postal":"02630","population":927,"superficie_km2":"676.38","latitude_centre":"50.0177","longitude_centre":"3.6018","distance_km":4.48},{"id":0,"code_insee":"02298","nom_standard":"Étreux","nom_a":null,"nom_de":null,"slug_ville":"etreux","departement_id":0,"code_postal":"02510","population":1436,"superficie_km2":"1033.28","latitude_centre":"49.9985","longitude_centre":"3.6554","distance_km":4.7},{"id":10543,"code_insee":"02422","nom_standard":"Lesquielles-Saint-Germain","nom_a":null,"nom_de":null,"slug_ville":"lesquielles-saint-germain","departement_id":0,"code_postal":"02120","population":754,"superficie_km2":"1648.33","latitude_centre":"49.9312","longitude_centre":"3.6277","distance_km":5.56},{"id":10510,"code_insee":"02386","nom_standard":"Iron","nom_a":null,"nom_de":null,"slug_ville":"iron","departement_id":0,"code_postal":"02510","population":224,"superficie_km2":"978.34","latitude_centre":"49.9517","longitude_centre":"3.6656","distance_km":5.6},{"id":10489,"code_insee":"02358","nom_standard":"Grougis","nom_a":null,"nom_de":null,"slug_ville":"grougis","departement_id":0,"code_postal":"02110","population":304,"superficie_km2":"1139.18","latitude_centre":"49.9501","longitude_centre":"3.5281","distance_km":5.87},{"id":0,"code_insee":"02760","nom_standard":"La Vallée-Mulâtre","nom_a":null,"nom_de":null,"slug_ville":"la-vallee-mulatre","departement_id":0,"code_postal":"02110","population":152,"superficie_km2":"535.90","latitude_centre":"50.0259","longitude_centre":"3.561","distance_km":6.01},{"id":0,"code_insee":"02757","nom_standard":"Vadencourt","nom_a":null,"nom_de":null,"slug_ville":"vadencourt","departement_id":0,"code_postal":"02120","population":505,"superficie_km2":"1240.24","latitude_centre":"49.9248","longitude_centre":"3.5774","distance_km":6.05},{"id":10671,"code_insee":"02569","nom_standard":"Oisy","nom_a":null,"nom_de":null,"slug_ville":"oisy","departement_id":0,"code_postal":"02450","population":438,"superficie_km2":"1084.74","latitude_centre":"50.0226","longitude_centre":"3.6502","distance_km":6.24},{"id":0,"code_insee":"02769","nom_standard":"Vaux-Andigny","nom_a":null,"nom_de":null,"slug_ville":"vaux-andigny","departement_id":0,"code_postal":"02110","population":924,"superficie_km2":"1588.48","latitude_centre":"50.009","longitude_centre":"3.5248","distance_km":6.31},{"id":10740,"code_insee":"02647","nom_standard":"Ribeauville","nom_a":null,"nom_de":null,"slug_ville":"ribeauville","departement_id":0,"code_postal":"02110","population":86,"superficie_km2":"361.90","latitude_centre":"50.037","longitude_centre":"3.5903","distance_km":6.64},{"id":0,"code_insee":"59496","nom_standard":"Rejet-de-Beaulieu","nom_a":null,"nom_de":null,"slug_ville":"rejet-de-beaulieu","departement_id":0,"code_postal":"59360","population":241,"superficie_km2":"634.87","latitude_centre":"50.0439","longitude_centre":"3.6351","distance_km":7.84},{"id":0,"code_insee":"59395","nom_standard":"Mazinghien","nom_a":null,"nom_de":null,"slug_ville":"mazinghien","departement_id":0,"code_postal":"59360","population":279,"superficie_km2":"899.07","latitude_centre":"50.0495","longitude_centre":"3.5986","distance_km":8.01},{"id":10772,"code_insee":"02683","nom_standard":"Saint-Martin-Rivière","nom_a":null,"nom_de":null,"slug_ville":"saint-martin-riviere","departement_id":0,"code_postal":"02110","population":118,"superficie_km2":"551.76","latitude_centre":"50.0438","longitude_centre":"3.5541","distance_km":8.02},{"id":10720,"code_insee":"02625","nom_standard":"Proix","nom_a":null,"nom_de":null,"slug_ville":"proix","departement_id":0,"code_postal":"02120","population":146,"superficie_km2":"349.43","latitude_centre":"49.902","longitude_centre":"3.5769","distance_km":8.53},{"id":0,"code_insee":"02361","nom_standard":"Guise","nom_a":null,"nom_de":null,"slug_ville":"guise","departement_id":0,"code_postal":"02120","population":4490,"superficie_km2":"1622.13","latitude_centre":"49.8973","longitude_centre":"3.6229","distance_km":9.09}]}