{"ville":{"id":29958,"code_insee":"68340","nom_standard":"Ueberstrass","nom_a":null,"nom_de":null,"slug_ville":"ueberstrass","departement_id":0,"code_postal":"68580","population":333,"superficie_km2":"511.19","latitude_centre":"47.545","longitude_centre":"7.1544","dep_code":"68","dep_nom":"Haut-Rhin","dep_slug":"haut-rhin","reg_code":"44","reg_nom":"Grand Est","reg_slug":"grand-est"},"departement":{"code":"68","nom":"Haut-Rhin","slug":"haut-rhin"},"region":{"code":"44","nom":"Grand Est","slug":"grand-est"},"villes_proches":[{"id":0,"code_insee":"68305","nom_standard":"Seppois-le-Bas","nom_a":null,"nom_de":null,"slug_ville":"seppois-le-bas","departement_id":0,"code_postal":"68580","population":1443,"superficie_km2":"673.22","latitude_centre":"47.5378","longitude_centre":"7.1676","distance_km":1.27},{"id":29820,"code_insee":"68098","nom_standard":"Friesen","nom_a":null,"nom_de":null,"slug_ville":"friesen","departement_id":0,"code_postal":"68580","population":651,"superficie_km2":"842.02","latitude_centre":"47.5597","longitude_centre":"7.1497","distance_km":1.67},{"id":29939,"code_insee":"68306","nom_standard":"Seppois-le-Haut","nom_a":null,"nom_de":null,"slug_ville":"seppois-le-haut","departement_id":0,"code_postal":"68580","population":505,"superficie_km2":"625.13","latitude_centre":"47.5327","longitude_centre":"7.1851","distance_km":2.68},{"id":29847,"code_insee":"68137","nom_standard":"Hindlingen","nom_a":null,"nom_de":null,"slug_ville":"hindlingen","departement_id":0,"code_postal":"68580","population":646,"superficie_km2":"807.12","latitude_centre":"47.5687","longitude_centre":"7.1449","distance_km":2.73},{"id":29863,"code_insee":"68176","nom_standard":"Largitzen","nom_a":null,"nom_de":null,"slug_ville":"largitzen","departement_id":0,"code_postal":"68580","population":352,"superficie_km2":"564.75","latitude_centre":"47.5623","longitude_centre":"7.1933","distance_km":3.5},{"id":0,"code_insee":"90064","nom_standard":"Lepuix-Neuf","nom_a":null,"nom_de":null,"slug_ville":"lepuix-neuf","departement_id":0,"code_postal":"90100","population":307,"superficie_km2":"548.08","latitude_centre":"47.542","longitude_centre":"7.1071","distance_km":3.57},{"id":29913,"code_insee":"68257","nom_standard":"Pfetterhouse","nom_a":null,"nom_de":null,"slug_ville":"pfetterhouse","departement_id":0,"code_postal":"68480","population":987,"superficie_km2":"1426.79","latitude_centre":"47.5089","longitude_centre":"7.1669","distance_km":4.12},{"id":0,"code_insee":"90081","nom_standard":"Réchésy","nom_a":null,"nom_de":null,"slug_ville":"rechesy","departement_id":0,"code_postal":"90370","population":764,"superficie_km2":"1264.88","latitude_centre":"47.5169","longitude_centre":"7.1175","distance_km":4.18},{"id":29952,"code_insee":"68330","nom_standard":"Strueth","nom_a":null,"nom_de":null,"slug_ville":"strueth","departement_id":0,"code_postal":"68580","population":360,"superficie_km2":"434.81","latitude_centre":"47.5732","longitude_centre":"7.1147","distance_km":4.33},{"id":29884,"code_insee":"68202","nom_standard":"Mertzen","nom_a":null,"nom_de":null,"slug_ville":"mertzen","departement_id":0,"code_postal":"68210","population":200,"superficie_km2":"201.96","latitude_centre":"47.5872","longitude_centre":"7.1268","distance_km":5.13},{"id":29790,"code_insee":"68039","nom_standard":"Bisel","nom_a":null,"nom_de":null,"slug_ville":"bisel","departement_id":0,"code_postal":"68580","population":537,"superficie_km2":"811.29","latitude_centre":"47.5381","longitude_centre":"7.2224","distance_km":5.16},{"id":29822,"code_insee":"68100","nom_standard":"Fulleren","nom_a":null,"nom_de":null,"slug_ville":"fulleren","departement_id":0,"code_postal":"68210","population":331,"superficie_km2":"531.29","latitude_centre":"47.5917","longitude_centre":"7.1621","distance_km":5.22},{"id":0,"code_insee":"90028","nom_standard":"Courtelevant","nom_a":null,"nom_de":null,"slug_ville":"courtelevant","departement_id":0,"code_postal":"90100","population":379,"superficie_km2":"585.63","latitude_centre":"47.5262","longitude_centre":"7.0846","distance_km":5.64},{"id":29936,"code_insee":"68299","nom_standard":"Saint-Ulrich","nom_a":null,"nom_de":null,"slug_ville":"saint-ulrich","departement_id":0,"code_postal":"68210","population":299,"superficie_km2":"388.34","latitude_centre":"47.589","longitude_centre":"7.1137","distance_km":5.77},{"id":29894,"code_insee":"68216","nom_standard":"Mooslargue","nom_a":null,"nom_de":null,"slug_ville":"mooslargue","departement_id":0,"code_postal":"68580","population":401,"superficie_km2":"560.54","latitude_centre":"47.511","longitude_centre":"7.2151","distance_km":5.92},{"id":0,"code_insee":"90095","nom_standard":"Suarce","nom_a":null,"nom_de":null,"slug_ville":"suarce","departement_id":0,"code_postal":"90100","population":442,"superficie_km2":"1183.28","latitude_centre":"47.5638","longitude_centre":"7.0789","distance_km":6.04},{"id":29843,"code_insee":"68128","nom_standard":"Heimersdorf","nom_a":null,"nom_de":null,"slug_ville":"heimersdorf","departement_id":0,"code_postal":"68560","population":645,"superficie_km2":"760.72","latitude_centre":"47.5625","longitude_centre":"7.2354","distance_km":6.38},{"id":0,"code_insee":"68139","nom_standard":"Hirtzbach","nom_a":null,"nom_de":null,"slug_ville":"hirtzbach","departement_id":0,"code_postal":"68118","population":1418,"superficie_km2":"1391.54","latitude_centre":"47.5891","longitude_centre":"7.2104","distance_km":6.46},{"id":29772,"code_insee":"68002","nom_standard":"Altenach","nom_a":null,"nom_de":null,"slug_ville":"altenach","departement_id":0,"code_postal":"68210","population":372,"superficie_km2":"620.48","latitude_centre":"47.6005","longitude_centre":"7.1077","distance_km":7.1},{"id":29778,"code_insee":"68017","nom_standard":"Ballersdorf","nom_a":null,"nom_de":null,"slug_ville":"ballersdorf","departement_id":0,"code_postal":"68210","population":818,"superficie_km2":"1071.16","latitude_centre":"47.6195","longitude_centre":"7.1576","distance_km":8.29}]}