{"ville":{"id":29717,"code_insee":"67497","nom_standard":"Uhlwiller","nom_a":null,"nom_de":null,"slug_ville":"uhlwiller","departement_id":0,"code_postal":"67350","population":665,"superficie_km2":"741.68","latitude_centre":"48.8191","longitude_centre":"7.6805","dep_code":"67","dep_nom":"Bas-Rhin","dep_slug":"bas-rhin","reg_code":"44","reg_nom":"Grand Est","reg_slug":"grand-est"},"departement":{"code":"67","nom":"Bas-Rhin","slug":"bas-rhin"},"region":{"code":"44","nom":"Grand Est","slug":"grand-est"},"villes_proches":[{"id":0,"code_insee":"67359","nom_standard":"Ohlungen","nom_a":null,"nom_de":null,"slug_ville":"ohlungen","departement_id":0,"code_postal":"67170","population":1418,"superficie_km2":"839.47","latitude_centre":"48.8141","longitude_centre":"7.6879","distance_km":0.78},{"id":0,"code_insee":"67087","nom_standard":"Dauendorf","nom_a":null,"nom_de":null,"slug_ville":"dauendorf","departement_id":0,"code_postal":"67350","population":1418,"superficie_km2":"764.95","latitude_centre":"48.8303","longitude_centre":"7.6738","distance_km":1.34},{"id":29458,"code_insee":"67035","nom_standard":"Berstheim","nom_a":null,"nom_de":null,"slug_ville":"berstheim","departement_id":0,"code_postal":"67170","population":513,"superficie_km2":"310.58","latitude_centre":"48.7923","longitude_centre":"7.6792","distance_km":2.98},{"id":0,"code_insee":"67540","nom_standard":"Wintershouse","nom_a":null,"nom_de":null,"slug_ville":"wintershouse","departement_id":0,"code_postal":"67590","population":869,"superficie_km2":"367.07","latitude_centre":"48.7957","longitude_centre":"7.7065","distance_km":3.22},{"id":29612,"code_insee":"67304","nom_standard":"Morschwiller","nom_a":null,"nom_de":null,"slug_ville":"morschwiller","departement_id":0,"code_postal":"67350","population":611,"superficie_km2":"460.16","latitude_centre":"48.8197","longitude_centre":"7.6309","distance_km":3.63},{"id":29624,"code_insee":"67328","nom_standard":"Niedermodern","nom_a":null,"nom_de":null,"slug_ville":"niedermodern","departement_id":0,"code_postal":"67350","population":913,"superficie_km2":"438.60","latitude_centre":"48.8388","longitude_centre":"7.637","distance_km":3.86},{"id":29561,"code_insee":"67215","nom_standard":"Huttendorf","nom_a":null,"nom_de":null,"slug_ville":"huttendorf","departement_id":0,"code_postal":"67270","population":502,"superficie_km2":"438.20","latitude_centre":"48.8007","longitude_centre":"7.6355","distance_km":3.88},{"id":0,"code_insee":"67458","nom_standard":"Schweighouse-sur-Moder","nom_a":null,"nom_de":null,"slug_ville":"schweighouse-sur-moder","departement_id":0,"code_postal":"67590","population":5182,"superficie_km2":"992.47","latitude_centre":"48.8195","longitude_centre":"7.7388","distance_km":4.27},{"id":29451,"code_insee":"67023","nom_standard":"Batzendorf","nom_a":null,"nom_de":null,"slug_ville":"batzendorf","departement_id":0,"code_postal":"67500","population":975,"superficie_km2":"672.79","latitude_centre":"48.7854","longitude_centre":"7.7118","distance_km":4.39},{"id":0,"code_insee":"67546","nom_standard":"Wittersheim","nom_a":null,"nom_de":null,"slug_ville":"wittersheim","departement_id":0,"code_postal":"67670","population":747,"superficie_km2":"705.23","latitude_centre":"48.7808","longitude_centre":"7.6538","distance_km":4.69},{"id":29556,"code_insee":"67203","nom_standard":"Hochstett","nom_a":null,"nom_de":null,"slug_ville":"hochstett","departement_id":0,"code_postal":"67170","population":422,"superficie_km2":"213.00","latitude_centre":"48.7751","longitude_centre":"7.6772","distance_km":4.9},{"id":29539,"code_insee":"67166","nom_standard":"Grassendorf","nom_a":null,"nom_de":null,"slug_ville":"grassendorf","departement_id":0,"code_postal":"67350","population":264,"superficie_km2":"225.48","latitude_centre":"48.8144","longitude_centre":"7.6097","distance_km":5.21},{"id":0,"code_insee":"67372","nom_standard":"Val-de-Moder","nom_a":null,"nom_de":null,"slug_ville":"val-de-moder","departement_id":0,"code_postal":"67350","population":5102,"superficie_km2":"905.69","latitude_centre":"48.8407","longitude_centre":"7.614","distance_km":5.43},{"id":29607,"code_insee":"67293","nom_standard":"Minversheim","nom_a":null,"nom_de":null,"slug_ville":"minversheim","departement_id":0,"code_postal":"67270","population":721,"superficie_km2":"552.81","latitude_centre":"48.7854","longitude_centre":"7.6239","distance_km":5.59},{"id":0,"code_insee":"67291","nom_standard":"Mertzwiller","nom_a":null,"nom_de":null,"slug_ville":"mertzwiller","departement_id":0,"code_postal":"67580","population":3343,"superficie_km2":"691.00","latitude_centre":"48.8705","longitude_centre":"7.687","distance_km":5.74},{"id":0,"code_insee":"67510","nom_standard":"Wahlenheim","nom_a":null,"nom_de":null,"slug_ville":"wahlenheim","departement_id":0,"code_postal":"67170","population":649,"superficie_km2":"251.64","latitude_centre":"48.766","longitude_centre":"7.6875","distance_km":5.93},{"id":29465,"code_insee":"67048","nom_standard":"Bitschhoffen","nom_a":null,"nom_de":null,"slug_ville":"bitschhoffen","departement_id":0,"code_postal":"67350","population":462,"superficie_km2":"254.51","latitude_centre":"48.8637","longitude_centre":"7.6255","distance_km":6.39},{"id":29606,"code_insee":"67292","nom_standard":"Mietesheim","nom_a":null,"nom_de":null,"slug_ville":"mietesheim","departement_id":0,"code_postal":"67580","population":661,"superficie_km2":"849.15","latitude_centre":"48.878","longitude_centre":"7.6487","distance_km":6.95},{"id":29671,"code_insee":"67417","nom_standard":"Rottelsheim","nom_a":null,"nom_de":null,"slug_ville":"rottelsheim","departement_id":0,"code_postal":"67170","population":301,"superficie_km2":"240.53","latitude_centre":"48.7588","longitude_centre":"7.7103","distance_km":7.05},{"id":29457,"code_insee":"67033","nom_standard":"Bernolsheim","nom_a":null,"nom_de":null,"slug_ville":"bernolsheim","departement_id":0,"code_postal":"67170","population":656,"superficie_km2":"356.13","latitude_centre":"48.7521","longitude_centre":"7.686","distance_km":7.46}]}