{"ville":{"id":28845,"code_insee":"64544","nom_standard":"Urost","nom_a":null,"nom_de":null,"slug_ville":"urost","departement_id":0,"code_postal":"64160","population":77,"superficie_km2":"233.30","latitude_centre":"43.3395","longitude_centre":"-0.1498","dep_code":"64","dep_nom":"Pyrénées-Atlantiques","dep_slug":"pyrenees-atlantiques","reg_code":"75","reg_nom":"Nouvelle-Aquitaine","reg_slug":"nouvelle-aquitaine"},"departement":{"code":"64","nom":"Pyrénées-Atlantiques","slug":"pyrenees-atlantiques"},"region":{"code":"75","nom":"Nouvelle-Aquitaine","slug":"nouvelle-aquitaine"},"villes_proches":[{"id":28691,"code_insee":"64346","nom_standard":"Lombia","nom_a":null,"nom_de":null,"slug_ville":"lombia","departement_id":0,"code_postal":"64160","population":206,"superficie_km2":"769.20","latitude_centre":"43.33","longitude_centre":"-0.1317","distance_km":1.81},{"id":28683,"code_insee":"64338","nom_standard":"Lespourcy","nom_a":null,"nom_de":null,"slug_ville":"lespourcy","departement_id":0,"code_postal":"64160","population":178,"superficie_km2":"711.14","latitude_centre":"43.3586","longitude_centre":"-0.1564","distance_km":2.19},{"id":28823,"code_insee":"64516","nom_standard":"Sedzère","nom_a":null,"nom_de":null,"slug_ville":"sedzere","departement_id":0,"code_postal":"64160","population":406,"superficie_km2":"1269.53","latitude_centre":"43.3429","longitude_centre":"-0.1832","distance_km":2.73},{"id":28822,"code_insee":"64515","nom_standard":"Sedze-Maubecq","nom_a":null,"nom_de":null,"slug_ville":"sedze-maubecq","departement_id":0,"code_postal":"64160","population":225,"superficie_km2":"769.06","latitude_centre":"43.3561","longitude_centre":"-0.121","distance_km":2.97},{"id":28461,"code_insee":"64053","nom_standard":"Arrien","nom_a":null,"nom_de":null,"slug_ville":"arrien","departement_id":0,"code_postal":"64420","population":197,"superficie_km2":"448.78","latitude_centre":"43.3122","longitude_centre":"-0.1641","distance_km":3.25},{"id":28496,"code_insee":"64103","nom_standard":"Bédeille","nom_a":null,"nom_de":null,"slug_ville":"bedeille","departement_id":0,"code_postal":"64460","population":202,"superficie_km2":"392.52","latitude_centre":"43.3461","longitude_centre":"-0.0979","distance_km":4.26},{"id":28582,"code_insee":"64211","nom_standard":"Eslourenties-Daban","nom_a":null,"nom_de":null,"slug_ville":"eslourenties-daban","departement_id":0,"code_postal":"64420","population":380,"superficie_km2":"511.63","latitude_centre":"43.301","longitude_centre":"-0.1425","distance_km":4.32},{"id":28485,"code_insee":"64089","nom_standard":"Baleix","nom_a":null,"nom_de":null,"slug_ville":"baleix","departement_id":0,"code_postal":"64460","population":126,"superficie_km2":"653.62","latitude_centre":"43.3784","longitude_centre":"-0.1388","distance_km":4.42},{"id":28583,"code_insee":"64212","nom_standard":"Espéchède","nom_a":null,"nom_de":null,"slug_ville":"espechede","departement_id":0,"code_postal":"64160","population":165,"superficie_km2":"938.73","latitude_centre":"43.3181","longitude_centre":"-0.1972","distance_km":4.51},{"id":28816,"code_insee":"64507","nom_standard":"Saubole","nom_a":null,"nom_de":null,"slug_ville":"saubole","departement_id":0,"code_postal":"64420","population":156,"superficie_km2":"514.59","latitude_centre":"43.3114","longitude_centre":"-0.1071","distance_km":4.66},{"id":0,"code_insee":"65422","nom_standard":"Séron","nom_a":null,"nom_de":null,"slug_ville":"seron","departement_id":0,"code_postal":"65320","population":328,"superficie_km2":"931.04","latitude_centre":"43.3226","longitude_centre":"-0.0921","distance_km":5.03},{"id":0,"code_insee":"65476","nom_standard":"Villenave-près-Béarn","nom_a":null,"nom_de":null,"slug_ville":"villenave-pres-bearn","departement_id":0,"code_postal":"65500","population":70,"superficie_km2":"316.25","latitude_centre":"43.366","longitude_centre":"-0.0927","distance_km":5.48},{"id":28596,"code_insee":"64227","nom_standard":"Gabaston","nom_a":null,"nom_de":null,"slug_ville":"gabaston","departement_id":0,"code_postal":"64160","population":673,"superficie_km2":"1275.97","latitude_centre":"43.3593","longitude_centre":"-0.2142","distance_km":5.65},{"id":28419,"code_insee":"64002","nom_standard":"Abère","nom_a":null,"nom_de":null,"slug_ville":"abere","departement_id":0,"code_postal":"64160","population":156,"superficie_km2":"587.19","latitude_centre":"43.3886","longitude_centre":"-0.174","distance_km":5.8},{"id":28696,"code_insee":"64352","nom_standard":"Lourenties","nom_a":null,"nom_de":null,"slug_ville":"lourenties","departement_id":0,"code_postal":"64420","population":427,"superficie_km2":"903.51","latitude_centre":"43.2874","longitude_centre":"-0.1593","distance_km":5.84},{"id":28803,"code_insee":"64488","nom_standard":"Saint-Laurent-Bretagne","nom_a":null,"nom_de":null,"slug_ville":"saint-laurent-bretagne","departement_id":0,"code_postal":"64160","population":449,"superficie_km2":"1066.11","latitude_centre":"43.3805","longitude_centre":"-0.2072","distance_km":6.51},{"id":28441,"code_insee":"64028","nom_standard":"Anoye","nom_a":null,"nom_de":null,"slug_ville":"anoye","departement_id":0,"code_postal":"64350","population":140,"superficie_km2":"979.14","latitude_centre":"43.3977","longitude_centre":"-0.1375","distance_km":6.55},{"id":28726,"code_insee":"64388","nom_standard":"Momy","nom_a":null,"nom_de":null,"slug_ville":"momy","departement_id":0,"code_postal":"64350","population":114,"superficie_km2":"604.39","latitude_centre":"43.3885","longitude_centre":"-0.1041","distance_km":6.58},{"id":28688,"code_insee":"64343","nom_standard":"Limendous","nom_a":null,"nom_de":null,"slug_ville":"limendous","departement_id":0,"code_postal":"64420","population":690,"superficie_km2":"753.74","latitude_centre":"43.2786","longitude_centre":"-0.1829","distance_km":7.28},{"id":0,"code_insee":"65185","nom_standard":"Gardères","nom_a":null,"nom_de":null,"slug_ville":"garderes","departement_id":0,"code_postal":"65320","population":445,"superficie_km2":"1540.11","latitude_centre":"43.2813","longitude_centre":"-0.1084","distance_km":7.29}]}