{"ville":{"id":1427,"code_insee":"19275","nom_standard":"Ussel","nom_a":null,"nom_de":null,"slug_ville":"ussel","departement_id":619,"code_postal":"19200","population":9159,"superficie_km2":"51.00","latitude_centre":"45.5499992","longitude_centre":"2.3039999","dep_code":"19","dep_nom":"Corrèze","dep_slug":"correze","reg_code":"15","reg_nom":"Nouvelle-Aquitaine","reg_slug":"nouvelle-aquitaine"},"departement":{"code":"19","nom":"Corrèze","slug":"correze"},"region":{"code":"15","nom":"Nouvelle-Aquitaine","slug":"nouvelle-aquitaine"},"villes_proches":[{"id":1407,"code_insee":"19136","nom_standard":"Meymac","nom_a":null,"nom_de":null,"slug_ville":"meymac","departement_id":619,"code_postal":"19250","population":2279,"superficie_km2":"87.00","latitude_centre":"45.5540009","longitude_centre":"2.1400001","distance_km":12.78},{"id":6567,"code_insee":"63225","nom_standard":"Messeix","nom_a":null,"nom_de":null,"slug_ville":"messeix","departement_id":664,"code_postal":"63750","population":1020,"superficie_km2":"40.00","latitude_centre":"45.6119995","longitude_centre":"2.5339999","distance_km":19.18},{"id":1410,"code_insee":"19148","nom_standard":"Neuvic","nom_a":null,"nom_de":null,"slug_ville":"neuvic","departement_id":619,"code_postal":"19160","population":1627,"superficie_km2":"75.00","latitude_centre":"45.3709984","longitude_centre":"2.2590001","distance_km":20.21},{"id":1080,"code_insee":"15037","nom_standard":"Champagnac","nom_a":null,"nom_de":null,"slug_ville":"champagnac","departement_id":615,"code_postal":"15350","population":1026,"superficie_km2":"28.00","latitude_centre":"45.3629990","longitude_centre":"2.4030001","distance_km":22.18},{"id":1388,"code_insee":"19028","nom_standard":"Bort-les-Orgues","nom_a":null,"nom_de":null,"slug_ville":"bort-les-orgues","departement_id":619,"code_postal":"19110","population":2541,"superficie_km2":"15.00","latitude_centre":"45.3930016","longitude_centre":"2.4920001","distance_km":22.8},{"id":1083,"code_insee":"15092","nom_standard":"Lanobre","nom_a":null,"nom_de":null,"slug_ville":"lanobre","departement_id":615,"code_postal":"15270","population":1368,"superficie_km2":"44.00","latitude_centre":"45.4339981","longitude_centre":"2.5500000","distance_km":23.11},{"id":1398,"code_insee":"19073","nom_standard":"Égletons","nom_a":null,"nom_de":null,"slug_ville":"egletons","departement_id":619,"code_postal":"19300","population":4293,"superficie_km2":"17.00","latitude_centre":"45.4220009","longitude_centre":"2.0360000","distance_km":25.28},{"id":1105,"code_insee":"15265","nom_standard":"Ydes","nom_a":null,"nom_de":null,"slug_ville":"ydes","departement_id":615,"code_postal":"15210","population":1624,"superficie_km2":"18.00","latitude_centre":"45.3429985","longitude_centre":"2.4500000","distance_km":25.68},{"id":1081,"code_insee":"15038","nom_standard":"Champs-sur-Tarentaine-Marchal","nom_a":null,"nom_de":null,"slug_ville":"champs-sur-tarentaine-marchal","departement_id":615,"code_postal":"15270","population":1022,"superficie_km2":"61.00","latitude_centre":"45.4039993","longitude_centre":"2.6040001","distance_km":28.47},{"id":1413,"code_insee":"19176","nom_standard":"Rosiers-d'Égletons","nom_a":null,"nom_de":null,"slug_ville":"rosiers-d-egletons","departement_id":619,"code_postal":"19300","population":1091,"superficie_km2":"38.00","latitude_centre":"45.3880005","longitude_centre":"2.0109999","distance_km":29.1},{"id":6605,"code_insee":"63397","nom_standard":"Saint-Sauves-d'Auvergne","nom_a":null,"nom_de":null,"slug_ville":"saint-sauves-d-auvergne","departement_id":664,"code_postal":"63950","population":1128,"superficie_km2":"50.00","latitude_centre":"45.6119995","longitude_centre":"2.6930001","distance_km":31.05},{"id":6519,"code_insee":"63047","nom_standard":"La Bourboule","nom_a":null,"nom_de":null,"slug_ville":"la-bourboule","departement_id":664,"code_postal":"63150","population":1752,"superficie_km2":"13.00","latitude_centre":"45.5800018","longitude_centre":"2.7500000","distance_km":34.88},{"id":1085,"code_insee":"15120","nom_standard":"Mauriac","nom_a":null,"nom_de":null,"slug_ville":"mauriac","departement_id":615,"code_postal":"15200","population":3519,"superficie_km2":"28.00","latitude_centre":"45.2179985","longitude_centre":"2.3169999","distance_km":36.93},{"id":1679,"code_insee":"23079","nom_standard":"Felletin","nom_a":null,"nom_de":null,"slug_ville":"felletin","departement_id":624,"code_postal":"23500","population":1536,"superficie_km2":"14.00","latitude_centre":"45.8899994","longitude_centre":"2.1830001","distance_km":38.96},{"id":1424,"code_insee":"19269","nom_standard":"Treignac","nom_a":null,"nom_de":null,"slug_ville":"treignac","departement_id":619,"code_postal":"19260","population":1263,"superficie_km2":"38.00","latitude_centre":"45.5519981","longitude_centre":"1.8010000","distance_km":39.17},{"id":1394,"code_insee":"19062","nom_standard":"Corrèze","nom_a":null,"nom_de":null,"slug_ville":"correze","departement_id":619,"code_postal":"19800","population":1162,"superficie_km2":"35.00","latitude_centre":"45.3660011","longitude_centre":"1.8710001","distance_km":39.49},{"id":6572,"code_insee":"63236","nom_standard":"Mont-Dore","nom_a":null,"nom_de":null,"slug_ville":"mont-dore","departement_id":664,"code_postal":"63240","population":1237,"superficie_km2":"36.00","latitude_centre":"45.5760002","longitude_centre":"2.8099999","distance_km":39.5},{"id":1094,"code_insee":"15162","nom_standard":"Riom-ès-Montagnes","nom_a":null,"nom_de":null,"slug_ville":"riom-es-montagnes","departement_id":615,"code_postal":"15400","population":2428,"superficie_km2":"47.00","latitude_centre":"45.2900009","longitude_centre":"2.6570001","distance_km":39.94},{"id":1390,"code_insee":"19036","nom_standard":"Chamberet","nom_a":null,"nom_de":null,"slug_ville":"chamberet","departement_id":619,"code_postal":"19370","population":1410,"superficie_km2":"71.00","latitude_centre":"45.6020012","longitude_centre":"1.7200000","distance_km":45.82},{"id":1671,"code_insee":"23008","nom_standard":"Aubusson","nom_a":null,"nom_de":null,"slug_ville":"aubusson","departement_id":624,"code_postal":"23200","population":3108,"superficie_km2":"19.00","latitude_centre":"45.9510002","longitude_centre":"2.1659999","distance_km":45.86}]}