{"ville":{"id":11545,"code_insee":"06154","nom_standard":"Valderoure","nom_a":null,"nom_de":null,"slug_ville":"valderoure","departement_id":0,"code_postal":"06750","population":539,"superficie_km2":"2526.78","latitude_centre":"43.7943","longitude_centre":"6.7038","dep_code":"06","dep_nom":"Alpes-Maritimes","dep_slug":"alpes-maritimes","reg_code":"93","reg_nom":"Provence-Alpes-Côte d'Azur","reg_slug":"provence-alpes-cote-d-azur"},"departement":{"code":"06","nom":"Alpes-Maritimes","slug":"alpes-maritimes"},"region":{"code":"93","nom":"Provence-Alpes-Côte d'Azur","slug":"provence-alpes-cote-d-azur"},"villes_proches":[{"id":11534,"code_insee":"06134","nom_standard":"Séranon","nom_a":null,"nom_de":null,"slug_ville":"seranon","departement_id":0,"code_postal":"06750","population":540,"superficie_km2":"2324.95","latitude_centre":"43.7655","longitude_centre":"6.6892","distance_km":3.41},{"id":11526,"code_insee":"06116","nom_standard":"Saint-Auban","nom_a":null,"nom_de":null,"slug_ville":"saint-auban","departement_id":0,"code_postal":"06850","population":194,"superficie_km2":"4276.28","latitude_centre":"43.8319","longitude_centre":"6.7367","distance_km":4.94},{"id":11479,"code_insee":"06028","nom_standard":"Caille","nom_a":null,"nom_de":null,"slug_ville":"caille","departement_id":0,"code_postal":"06750","population":441,"superficie_km2":"1700.58","latitude_centre":"43.7686","longitude_centre":"6.7544","distance_km":4.97},{"id":11255,"code_insee":"04148","nom_standard":"Peyroules","nom_a":null,"nom_de":null,"slug_ville":"peyroules","departement_id":0,"code_postal":"04120","population":255,"superficie_km2":"3343.94","latitude_centre":"43.8168","longitude_centre":"6.6495","distance_km":5.02},{"id":0,"code_insee":"83013","nom_standard":"La Bastide","nom_a":null,"nom_de":null,"slug_ville":"la-bastide","departement_id":0,"code_postal":"83840","population":227,"superficie_km2":"1182.03","latitude_centre":"43.7464","longitude_centre":"6.6327","distance_km":7.81},{"id":11478,"code_insee":"06024","nom_standard":"Briançonnet","nom_a":null,"nom_de":null,"slug_ville":"brianconnet","departement_id":0,"code_postal":"06850","population":165,"superficie_km2":"2458.46","latitude_centre":"43.8654","longitude_centre":"6.7325","distance_km":8.23},{"id":11301,"code_insee":"04210","nom_standard":"Soleilhas","nom_a":null,"nom_de":null,"slug_ville":"soleilhas","departement_id":0,"code_postal":"04120","population":95,"superficie_km2":"3467.86","latitude_centre":"43.8611","longitude_centre":"6.6521","distance_km":8.51},{"id":0,"code_insee":"83040","nom_standard":"Châteauvieux","nom_a":null,"nom_de":null,"slug_ville":"chateauvieux","departement_id":0,"code_postal":"83840","population":78,"superficie_km2":"1484.62","latitude_centre":"43.7874","longitude_centre":"6.5959","distance_km":8.69},{"id":0,"code_insee":"83109","nom_standard":"La Roque-Esclapon","nom_a":null,"nom_de":null,"slug_ville":"la-roque-esclapon","departement_id":0,"code_postal":"83840","population":261,"superficie_km2":"2700.92","latitude_centre":"43.721","longitude_centre":"6.6479","distance_km":9.31},{"id":11467,"code_insee":"06003","nom_standard":"Andon","nom_a":null,"nom_de":null,"slug_ville":"andon","departement_id":0,"code_postal":"06750","population":665,"superficie_km2":"5437.28","latitude_centre":"43.7755","longitude_centre":"6.8211","distance_km":9.65},{"id":0,"code_insee":"83074","nom_standard":"La Martre","nom_a":null,"nom_de":null,"slug_ville":"la-martre","departement_id":0,"code_postal":"83840","population":226,"superficie_km2":"2071.35","latitude_centre":"43.7631","longitude_centre":"6.5914","distance_km":9.67},{"id":11496,"code_insee":"06058","nom_standard":"Escragnolles","nom_a":null,"nom_de":null,"slug_ville":"escragnolles","departement_id":0,"code_postal":"06460","population":622,"superficie_km2":"2630.19","latitude_centre":"43.7236","longitude_centre":"6.7758","distance_km":9.76},{"id":0,"code_insee":"83080","nom_standard":"Mons","nom_a":null,"nom_de":null,"slug_ville":"mons","departement_id":0,"code_postal":"83440","population":909,"superficie_km2":"7691.42","latitude_centre":"43.7041","longitude_centre":"6.7054","distance_km":10.03},{"id":11219,"code_insee":"04092","nom_standard":"La Garde","nom_a":null,"nom_de":null,"slug_ville":"la-garde","departement_id":0,"code_postal":"04120","population":121,"superficie_km2":"1679.11","latitude_centre":"43.8256","longitude_centre":"6.5662","distance_km":11.58},{"id":11499,"code_insee":"06063","nom_standard":"Gars","nom_a":null,"nom_de":null,"slug_ville":"gars","departement_id":0,"code_postal":"06850","population":65,"superficie_km2":"1542.36","latitude_centre":"43.8612","longitude_centre":"6.8202","distance_km":11.94},{"id":11310,"code_insee":"04224","nom_standard":"Ubraye","nom_a":null,"nom_de":null,"slug_ville":"ubraye","departement_id":0,"code_postal":"04240","population":103,"superficie_km2":"3577.70","latitude_centre":"43.9092","longitude_centre":"6.6862","distance_km":12.85},{"id":0,"code_insee":"83010","nom_standard":"Bargème","nom_a":null,"nom_de":null,"slug_ville":"bargeme","departement_id":0,"code_postal":"83840","population":207,"superficie_km2":"2798.83","latitude_centre":"43.7279","longitude_centre":"6.5697","distance_km":13.06},{"id":11205,"code_insee":"04069","nom_standard":"Demandolx","nom_a":null,"nom_de":null,"slug_ville":"demandolx","departement_id":0,"code_postal":"04120","population":112,"superficie_km2":"2054.52","latitude_centre":"43.8685","longitude_centre":"6.5768","distance_km":13.11},{"id":11188,"code_insee":"04043","nom_standard":"Val-de-Chalvagne","nom_a":null,"nom_de":null,"slug_ville":"val-de-chalvagne","departement_id":0,"code_postal":"04320","population":81,"superficie_km2":"3266.63","latitude_centre":"43.9036","longitude_centre":"6.7745","distance_km":13.41},{"id":11466,"code_insee":"06002","nom_standard":"Amirat","nom_a":null,"nom_de":null,"slug_ville":"amirat","departement_id":0,"code_postal":"06910","population":45,"superficie_km2":"1297.04","latitude_centre":"43.8973","longitude_centre":"6.8108","distance_km":14.31}]}