{"ville":{"id":2793,"code_insee":"32459","nom_standard":"Valence-sur-Baïse","nom_a":null,"nom_de":null,"slug_ville":"valence-sur-baise","departement_id":633,"code_postal":"32310","population":1127,"superficie_km2":"27.00","latitude_centre":"43.8680000","longitude_centre":"0.3640000","dep_code":"32","dep_nom":"Gers","dep_slug":"gers","reg_code":"16","reg_nom":"Occitanie","reg_slug":"occitanie"},"departement":{"code":"32","nom":"Gers","slug":"gers"},"region":{"code":"16","nom":"Occitanie","slug":"occitanie"},"villes_proches":[{"id":2771,"code_insee":"32149","nom_standard":"Gondrin","nom_a":null,"nom_de":null,"slug_ville":"gondrin","departement_id":633,"code_postal":"32330","population":1184,"superficie_km2":"35.00","latitude_centre":"43.8790016","longitude_centre":"0.2600000","distance_km":8.43},{"id":2765,"code_insee":"32083","nom_standard":"Castéra-Verduzan","nom_a":null,"nom_de":null,"slug_ville":"castera-verduzan","departement_id":633,"code_postal":"32410","population":1039,"superficie_km2":"20.00","latitude_centre":"43.8019981","longitude_centre":"0.4330000","distance_km":9.19},{"id":2767,"code_insee":"32107","nom_standard":"Condom","nom_a":null,"nom_de":null,"slug_ville":"condom","departement_id":633,"code_postal":"32100","population":6466,"superficie_km2":"98.00","latitude_centre":"43.9720001","longitude_centre":"0.3740000","distance_km":11.59},{"id":2794,"code_insee":"32462","nom_standard":"Vic-Fezensac","nom_a":null,"nom_de":null,"slug_ville":"vic-fezensac","departement_id":633,"code_postal":"32190","population":3581,"superficie_km2":"55.00","latitude_centre":"43.7620010","longitude_centre":"0.2980000","distance_km":12.92},{"id":2774,"code_insee":"32162","nom_standard":"Jegun","nom_a":null,"nom_de":null,"slug_ville":"jegun","departement_id":633,"code_postal":"32360","population":1173,"superficie_km2":"39.00","latitude_centre":"43.7570000","longitude_centre":"0.4450000","distance_km":13.95},{"id":2782,"code_insee":"32290","nom_standard":"Montréal","nom_a":null,"nom_de":null,"slug_ville":"montreal","departement_id":633,"code_postal":"32250","population":1180,"superficie_km2":"63.00","latitude_centre":"43.9510002","longitude_centre":"0.2000000","distance_km":16.06},{"id":2768,"code_insee":"32119","nom_standard":"Eauze","nom_a":null,"nom_de":null,"slug_ville":"eauze","departement_id":633,"code_postal":"32800","population":4014,"superficie_km2":"70.00","latitude_centre":"43.8610001","longitude_centre":"0.1060000","distance_km":20.7},{"id":2769,"code_insee":"32132","nom_standard":"Fleurance","nom_a":null,"nom_de":null,"slug_ville":"fleurance","departement_id":633,"code_postal":"32500","population":6012,"superficie_km2":"44.00","latitude_centre":"43.8400002","longitude_centre":"0.6420000","distance_km":22.51},{"id":2764,"code_insee":"32079","nom_standard":"Castelnau d'Auzan Labarrère","nom_a":null,"nom_de":null,"slug_ville":"castelnau-d-auzan-labarrere","departement_id":633,"code_postal":"32440","population":1186,"superficie_km2":"44.00","latitude_centre":"43.9440002","longitude_centre":"0.1020000","distance_km":22.63},{"id":4659,"code_insee":"47167","nom_standard":"Mézin","nom_a":null,"nom_de":null,"slug_ville":"mezin","departement_id":648,"code_postal":"47170","population":1460,"superficie_km2":"32.00","latitude_centre":"44.0600014","longitude_centre":"0.2670000","distance_km":22.72},{"id":2775,"code_insee":"32208","nom_standard":"Lectoure","nom_a":null,"nom_de":null,"slug_ville":"lectoure","departement_id":633,"code_postal":"32700","population":3690,"superficie_km2":"86.00","latitude_centre":"43.9399986","longitude_centre":"0.6510000","distance_km":24.35},{"id":2786,"code_insee":"32331","nom_standard":"Preignan","nom_a":null,"nom_de":null,"slug_ville":"preignan","departement_id":633,"code_postal":"32810","population":1222,"superficie_km2":"11.00","latitude_centre":"43.7210007","longitude_centre":"0.6370000","distance_km":27.34},{"id":2762,"code_insee":"32013","nom_standard":"Auch","nom_a":null,"nom_de":null,"slug_ville":"auch","departement_id":633,"code_postal":"32000","population":23041,"superficie_km2":"73.00","latitude_centre":"43.6529999","longitude_centre":"0.5750000","distance_km":29.3},{"id":4665,"code_insee":"47195","nom_standard":"Nérac","nom_a":null,"nom_de":null,"slug_ville":"nerac","departement_id":648,"code_postal":"47600","population":6881,"superficie_km2":"63.00","latitude_centre":"44.1320000","longitude_centre":"0.3430000","distance_km":29.4},{"id":4651,"code_insee":"47137","nom_standard":"Laplume","nom_a":null,"nom_de":null,"slug_ville":"laplume","departement_id":648,"code_postal":"47310","population":1337,"superficie_km2":"33.00","latitude_centre":"44.1170006","longitude_centre":"0.5390000","distance_km":31.03},{"id":2789,"code_insee":"32370","nom_standard":"Saint-Clar","nom_a":null,"nom_de":null,"slug_ville":"saint-clar","departement_id":633,"code_postal":"32380","population":1048,"superficie_km2":"18.00","latitude_centre":"43.8930016","longitude_centre":"0.7610000","distance_km":31.94},{"id":2766,"code_insee":"32096","nom_standard":"Cazaubon","nom_a":null,"nom_de":null,"slug_ville":"cazaubon","departement_id":633,"code_postal":"32150","population":1662,"superficie_km2":"56.00","latitude_centre":"43.9249992","longitude_centre":"-0.0290000","distance_km":32.12},{"id":4621,"code_insee":"47015","nom_standard":"Astaffort","nom_a":null,"nom_de":null,"slug_ville":"astaffort","departement_id":648,"code_postal":"47220","population":2031,"superficie_km2":"35.00","latitude_centre":"44.0649986","longitude_centre":"0.6580000","distance_km":32.15},{"id":3905,"code_insee":"40102","nom_standard":"Gabarret","nom_a":null,"nom_de":null,"slug_ville":"gabarret","departement_id":641,"code_postal":"40310","population":1279,"superficie_km2":"17.00","latitude_centre":"43.9869995","longitude_centre":"-0.0040000","distance_km":32.31},{"id":4623,"code_insee":"47021","nom_standard":"Barbaste","nom_a":null,"nom_de":null,"slug_ville":"barbaste","departement_id":648,"code_postal":"47230","population":1493,"superficie_km2":"39.00","latitude_centre":"44.1590004","longitude_centre":"0.2440000","distance_km":33.75}]}