{"ville":{"id":25933,"code_insee":"57687","nom_standard":"Vallerange","nom_a":null,"nom_de":null,"slug_ville":"vallerange","departement_id":0,"code_postal":"57340","population":211,"superficie_km2":"664.67","latitude_centre":"48.9499","longitude_centre":"6.6881","dep_code":"57","dep_nom":"Moselle","dep_slug":"moselle","reg_code":"44","reg_nom":"Grand Est","reg_slug":"grand-est"},"departement":{"code":"57","nom":"Moselle","slug":"moselle"},"region":{"code":"44","nom":"Grand Est","slug":"grand-est"},"villes_proches":[{"id":25502,"code_insee":"57065","nom_standard":"Bermering","nom_a":null,"nom_de":null,"slug_ville":"bermering","departement_id":0,"code_postal":"57340","population":199,"superficie_km2":"574.67","latitude_centre":"48.9337","longitude_centre":"6.7127","distance_km":2.54},{"id":25500,"code_insee":"57063","nom_standard":"Bérig-Vintrange","nom_a":null,"nom_de":null,"slug_ville":"berig-vintrange","departement_id":0,"code_postal":"57660","population":210,"superficie_km2":"853.05","latitude_centre":"48.9729","longitude_centre":"6.6942","distance_km":2.6},{"id":25856,"code_insee":"57560","nom_standard":"Racrange","nom_a":null,"nom_de":null,"slug_ville":"racrange","departement_id":0,"code_postal":"57340","population":621,"superficie_km2":"725.92","latitude_centre":"48.924","longitude_centre":"6.6814","distance_km":2.92},{"id":25666,"code_insee":"57297","nom_standard":"Harprich","nom_a":null,"nom_de":null,"slug_ville":"harprich","departement_id":0,"code_postal":"57340","population":183,"superficie_km2":"872.25","latitude_centre":"48.9697","longitude_centre":"6.6525","distance_km":3.41},{"id":0,"code_insee":"57483","nom_standard":"Morhange","nom_a":null,"nom_de":null,"slug_ville":"morhange","departement_id":0,"code_postal":"57340","population":3308,"superficie_km2":"1550.23","latitude_centre":"48.928","longitude_centre":"6.6388","distance_km":4.35},{"id":0,"code_insee":"57723","nom_standard":"Virming","nom_a":null,"nom_de":null,"slug_ville":"virming","departement_id":0,"code_postal":"57340","population":297,"superficie_km2":"1079.65","latitude_centre":"48.9423","longitude_centre":"6.7512","distance_km":4.69},{"id":25875,"code_insee":"57587","nom_standard":"Rodalbe","nom_a":null,"nom_de":null,"slug_ville":"rodalbe","departement_id":0,"code_postal":"57340","population":246,"superficie_km2":"1056.44","latitude_centre":"48.9094","longitude_centre":"6.7136","distance_km":4.87},{"id":0,"code_insee":"57717","nom_standard":"Viller","nom_a":null,"nom_de":null,"slug_ville":"viller","departement_id":0,"code_postal":"57340","population":176,"superficie_km2":"725.55","latitude_centre":"48.9878","longitude_centre":"6.6465","distance_km":5.19},{"id":25490,"code_insee":"57051","nom_standard":"Baronville","nom_a":null,"nom_de":null,"slug_ville":"baronville","departement_id":0,"code_postal":"57340","population":369,"superficie_km2":"617.93","latitude_centre":"48.9375","longitude_centre":"6.6172","distance_km":5.36},{"id":25729,"code_insee":"57379","nom_standard":"Landroff","nom_a":null,"nom_de":null,"slug_ville":"landroff","departement_id":0,"code_postal":"57340","population":259,"superficie_km2":"772.33","latitude_centre":"48.9656","longitude_centre":"6.6164","distance_km":5.52},{"id":25639,"code_insee":"57262","nom_standard":"Grostenquin","nom_a":null,"nom_de":null,"slug_ville":"grostenquin","departement_id":0,"code_postal":"57660","population":604,"superficie_km2":"2182.59","latitude_centre":"48.9843","longitude_centre":"6.7439","distance_km":5.59},{"id":25521,"code_insee":"57088","nom_standard":"Bistroff","nom_a":null,"nom_de":null,"slug_ville":"bistroff","departement_id":0,"code_postal":"57660","population":319,"superficie_km2":"1930.55","latitude_centre":"49.0075","longitude_centre":"6.6993","distance_km":6.46},{"id":25841,"code_insee":"57539","nom_standard":"Pévange","nom_a":null,"nom_de":null,"slug_ville":"pevange","departement_id":0,"code_postal":"57340","population":40,"superficie_km2":"194.32","latitude_centre":"48.9078","longitude_centre":"6.624","distance_km":6.62},{"id":25568,"code_insee":"57151","nom_standard":"Conthil","nom_a":null,"nom_de":null,"slug_ville":"conthil","departement_id":0,"code_postal":"57340","population":148,"superficie_km2":"926.83","latitude_centre":"48.8914","longitude_centre":"6.667","distance_km":6.69},{"id":25498,"code_insee":"57060","nom_standard":"Bénestroff","nom_a":null,"nom_de":null,"slug_ville":"benestroff","departement_id":0,"code_postal":"57670","population":516,"superficie_km2":"952.50","latitude_centre":"48.9084","longitude_centre":"6.7561","distance_km":6.78},{"id":0,"code_insee":"57759","nom_standard":"Zarbeling","nom_a":null,"nom_de":null,"slug_ville":"zarbeling","departement_id":0,"code_postal":"57340","population":68,"superficie_km2":"394.89","latitude_centre":"48.8885","longitude_centre":"6.6906","distance_km":6.83},{"id":25531,"code_insee":"57105","nom_standard":"Boustroff","nom_a":null,"nom_de":null,"slug_ville":"boustroff","departement_id":0,"code_postal":"57380","population":152,"superficie_km2":"348.39","latitude_centre":"49.0035","longitude_centre":"6.6299","distance_km":7.32},{"id":25870,"code_insee":"57580","nom_standard":"Riche","nom_a":null,"nom_de":null,"slug_ville":"riche","departement_id":0,"code_postal":"57340","population":180,"superficie_km2":"632.55","latitude_centre":"48.8898","longitude_centre":"6.6338","distance_km":7.77},{"id":25748,"code_insee":"57401","nom_standard":"Lidrezing","nom_a":null,"nom_de":null,"slug_ville":"lidrezing","departement_id":0,"code_postal":"57340","population":80,"superficie_km2":"1000.39","latitude_centre":"48.8804","longitude_centre":"6.7129","distance_km":7.94},{"id":25651,"code_insee":"57275","nom_standard":"Guessling-Hémering","nom_a":null,"nom_de":null,"slug_ville":"guessling-hemering","departement_id":0,"code_postal":"57380","population":925,"superficie_km2":"1008.72","latitude_centre":"49.0211","longitude_centre":"6.6696","distance_km":8.03}]}