{"ville":{"id":24864,"code_insee":"54548","nom_standard":"Vannes-le-Châtel","nom_a":null,"nom_de":null,"slug_ville":"vannes-le-chatel","departement_id":0,"code_postal":"54112","population":506,"superficie_km2":"1739.59","latitude_centre":"48.5738","longitude_centre":"5.7849","dep_code":"54","dep_nom":"Meurthe-et-Moselle","dep_slug":"meurthe-et-moselle","reg_code":"44","reg_nom":"Grand Est","reg_slug":"grand-est"},"departement":{"code":"54","nom":"Meurthe-et-Moselle","slug":"meurthe-et-moselle"},"region":{"code":"44","nom":"Grand Est","slug":"grand-est"},"villes_proches":[{"id":24856,"code_insee":"54538","nom_standard":"Uruffe","nom_a":null,"nom_de":null,"slug_ville":"uruffe","departement_id":0,"code_postal":"54112","population":365,"superficie_km2":"1312.39","latitude_centre":"48.5688","longitude_centre":"5.743","distance_km":3.13},{"id":24451,"code_insee":"54010","nom_standard":"Allamps","nom_a":null,"nom_de":null,"slug_ville":"allamps","departement_id":0,"code_postal":"54112","population":505,"superficie_km2":"728.28","latitude_centre":"48.5501","longitude_centre":"5.8111","distance_km":3.27},{"id":24621,"code_insee":"54226","nom_standard":"Gibeaumeix","nom_a":null,"nom_de":null,"slug_ville":"gibeaumeix","departement_id":0,"code_postal":"54112","population":177,"superficie_km2":"794.24","latitude_centre":"48.5915","longitude_centre":"5.7444","distance_km":3.57},{"id":0,"code_insee":"54080","nom_standard":"Blénod-lès-Toul","nom_a":null,"nom_de":null,"slug_ville":"blenod-les-toul","departement_id":0,"code_postal":"54113","population":1013,"superficie_km2":"1766.14","latitude_centre":"48.5918","longitude_centre":"5.83","distance_km":3.87},{"id":24528,"code_insee":"54105","nom_standard":"Bulligny","nom_a":null,"nom_de":null,"slug_ville":"bulligny","departement_id":0,"code_postal":"54113","population":538,"superficie_km2":"1053.24","latitude_centre":"48.5719","longitude_centre":"5.8399","distance_km":4.05},{"id":0,"code_insee":"55434","nom_standard":"Rigny-Saint-Martin","nom_a":null,"nom_de":null,"slug_ville":"rigny-saint-martin","departement_id":0,"code_postal":"55140","population":50,"superficie_km2":"1604.92","latitude_centre":"48.6101","longitude_centre":"5.752","distance_km":4.71},{"id":0,"code_insee":"55397","nom_standard":"Pagny-la-Blanche-Côte","nom_a":null,"nom_de":null,"slug_ville":"pagny-la-blanche-cote","departement_id":0,"code_postal":"55140","population":226,"superficie_km2":"1239.96","latitude_centre":"48.5376","longitude_centre":"5.74","distance_km":5.21},{"id":24481,"code_insee":"54047","nom_standard":"Barisey-la-Côte","nom_a":null,"nom_de":null,"slug_ville":"barisey-la-cote","departement_id":0,"code_postal":"54170","population":275,"superficie_km2":"395.75","latitude_centre":"48.5458","longitude_centre":"5.8467","distance_km":5.51},{"id":24823,"code_insee":"54496","nom_standard":"Saulxures-lès-Vannes","nom_a":null,"nom_de":null,"slug_ville":"saulxures-les-vannes","departement_id":0,"code_postal":"54170","population":376,"superficie_km2":"1831.92","latitude_centre":"48.5191","longitude_centre":"5.7992","distance_km":6.17},{"id":24539,"code_insee":"54120","nom_standard":"Charmes-la-Côte","nom_a":null,"nom_de":null,"slug_ville":"charmes-la-cote","departement_id":0,"code_postal":"54113","population":315,"superficie_km2":"628.14","latitude_centre":"48.6246","longitude_centre":"5.8273","distance_km":6.45},{"id":0,"code_insee":"55097","nom_standard":"Chalaines","nom_a":null,"nom_de":null,"slug_ville":"chalaines","departement_id":0,"code_postal":"55140","population":299,"superficie_km2":"841.80","latitude_centre":"48.5963","longitude_centre":"5.6974","distance_km":6.91},{"id":0,"code_insee":"55100","nom_standard":"Champougny","nom_a":null,"nom_de":null,"slug_ville":"champougny","departement_id":0,"code_postal":"55140","population":92,"superficie_km2":"590.57","latitude_centre":"48.5437","longitude_centre":"5.7014","distance_km":7.0},{"id":24734,"code_insee":"54380","nom_standard":"Mont-le-Vignoble","nom_a":null,"nom_de":null,"slug_ville":"mont-le-vignoble","departement_id":0,"code_postal":"54113","population":421,"superficie_km2":"418.07","latitude_centre":"48.6224","longitude_centre":"5.8487","distance_km":7.16},{"id":24480,"code_insee":"54046","nom_standard":"Barisey-au-Plain","nom_a":null,"nom_de":null,"slug_ville":"barisey-au-plain","departement_id":0,"code_postal":"54170","population":393,"superficie_km2":"1088.49","latitude_centre":"48.5238","longitude_centre":"5.8502","distance_km":7.35},{"id":0,"code_insee":"55433","nom_standard":"Rigny-la-Salle","nom_a":null,"nom_de":null,"slug_ville":"rigny-la-salle","departement_id":0,"code_postal":"55140","population":371,"superficie_km2":"1032.07","latitude_centre":"48.6254","longitude_centre":"5.721","distance_km":7.42},{"id":0,"code_insee":"54162","nom_standard":"Domgermain","nom_a":null,"nom_de":null,"slug_ville":"domgermain","departement_id":0,"code_postal":"54119","population":1120,"superficie_km2":"1317.56","latitude_centre":"48.6424","longitude_centre":"5.8134","distance_km":7.91},{"id":24733,"code_insee":"54379","nom_standard":"Mont-l'Étroit","nom_a":null,"nom_de":null,"slug_ville":"mont-l-etroit","departement_id":0,"code_postal":"54170","population":93,"superficie_km2":"646.93","latitude_centre":"48.4995","longitude_centre":"5.7862","distance_km":8.26},{"id":24546,"code_insee":"54128","nom_standard":"Choloy-Ménillot","nom_a":null,"nom_de":null,"slug_ville":"choloy-menillot","departement_id":0,"code_postal":"54200","population":700,"superficie_km2":"1204.67","latitude_centre":"48.648","longitude_centre":"5.8053","distance_km":8.39},{"id":0,"code_insee":"55474","nom_standard":"Sauvigny","nom_a":null,"nom_de":null,"slug_ville":"sauvigny","departement_id":0,"code_postal":"55140","population":229,"superficie_km2":"1748.66","latitude_centre":"48.5006","longitude_centre":"5.7322","distance_km":9.02},{"id":0,"code_insee":"88107","nom_standard":"Clérey-la-Côte","nom_a":null,"nom_de":null,"slug_ville":"clerey-la-cote","departement_id":0,"code_postal":"88630","population":25,"superficie_km2":"322.22","latitude_centre":"48.4852","longitude_centre":"5.7624","distance_km":9.99}]}