{"ville":{"id":16610,"code_insee":"24564","nom_standard":"Vanxains","nom_a":null,"nom_de":null,"slug_ville":"vanxains","departement_id":0,"code_postal":"24600","population":689,"superficie_km2":"3575.85","latitude_centre":"45.2208","longitude_centre":"0.2889","dep_code":"24","dep_nom":"Dordogne","dep_slug":"dordogne","reg_code":"75","reg_nom":"Nouvelle-Aquitaine","reg_slug":"nouvelle-aquitaine"},"departement":{"code":"24","nom":"Dordogne","slug":"dordogne"},"region":{"code":"75","nom":"Nouvelle-Aquitaine","slug":"nouvelle-aquitaine"},"villes_proches":[{"id":0,"code_insee":"24352","nom_standard":"Ribérac","nom_a":null,"nom_de":null,"slug_ville":"riberac","departement_id":0,"code_postal":"24600","population":3734,"superficie_km2":"2270.59","latitude_centre":"45.2428","longitude_centre":"0.3402","distance_km":4.7},{"id":16293,"code_insee":"24114","nom_standard":"Chassaignes","nom_a":null,"nom_de":null,"slug_ville":"chassaignes","departement_id":0,"code_postal":"24600","population":78,"superficie_km2":"588.20","latitude_centre":"45.2569","longitude_centre":"0.253","distance_km":4.9},{"id":16527,"code_insee":"24455","nom_standard":"Saint-Martin-de-Ribérac","nom_a":null,"nom_de":null,"slug_ville":"saint-martin-de-riberac","departement_id":0,"code_postal":"24600","population":723,"superficie_km2":"1639.44","latitude_centre":"45.2195","longitude_centre":"0.3578","distance_km":5.4},{"id":16255,"code_insee":"24058","nom_standard":"Bourg-du-Bost","nom_a":null,"nom_de":null,"slug_ville":"bourg-du-bost","departement_id":0,"code_postal":"24600","population":247,"superficie_km2":"729.60","latitude_centre":"45.2667","longitude_centre":"0.2615","distance_km":5.54},{"id":16594,"code_insee":"24537","nom_standard":"Siorac-de-Ribérac","nom_a":null,"nom_de":null,"slug_ville":"siorac-de-riberac","departement_id":0,"code_postal":"24600","population":258,"superficie_km2":"2103.49","latitude_centre":"45.1831","longitude_centre":"0.348","distance_km":6.25},{"id":16303,"code_insee":"24128","nom_standard":"Comberanche-et-Épeluche","nom_a":null,"nom_de":null,"slug_ville":"comberanche-et-epeluche","departement_id":0,"code_postal":"24600","population":165,"superficie_km2":"393.14","latitude_centre":"45.278","longitude_centre":"0.281","distance_km":6.39},{"id":16365,"code_insee":"24216","nom_standard":"La Jemaye-Ponteyraud","nom_a":null,"nom_de":null,"slug_ville":"la-jemaye-ponteyraud","departement_id":0,"code_postal":"24410","population":146,"superficie_km2":"3349.93","latitude_centre":"45.1666","longitude_centre":"0.2602","distance_km":6.43},{"id":0,"code_insee":"24490","nom_standard":"Saint Privat en Périgord","nom_a":null,"nom_de":null,"slug_ville":"saint-privat-en-perigord","departement_id":0,"code_postal":"24410","population":1139,"superficie_km2":"4439.05","latitude_centre":"45.2266","longitude_centre":"0.2058","distance_km":6.54},{"id":16435,"code_insee":"24323","nom_standard":"Petit-Bersac","nom_a":null,"nom_de":null,"slug_ville":"petit-bersac","departement_id":0,"code_postal":"24600","population":184,"superficie_km2":"1080.34","latitude_centre":"45.2664","longitude_centre":"0.2263","distance_km":7.05},{"id":16218,"code_insee":"24007","nom_standard":"Allemans","nom_a":null,"nom_de":null,"slug_ville":"allemans","departement_id":0,"code_postal":"24600","population":544,"superficie_km2":"1884.80","latitude_centre":"45.2886","longitude_centre":"0.2951","distance_km":7.55},{"id":0,"code_insee":"24586","nom_standard":"Villetoureix","nom_a":null,"nom_de":null,"slug_ville":"villetoureix","departement_id":0,"code_postal":"24600","population":891,"superficie_km2":"1620.42","latitude_centre":"45.2736","longitude_centre":"0.3592","distance_km":8.05},{"id":16573,"code_insee":"24511","nom_standard":"Saint-Vincent-Jalmoutiers","nom_a":null,"nom_de":null,"slug_ville":"saint-vincent-jalmoutiers","departement_id":0,"code_postal":"24410","population":202,"superficie_km2":"1646.02","latitude_centre":"45.1862","longitude_centre":"0.1972","distance_km":8.15},{"id":16567,"code_insee":"24504","nom_standard":"Saint-Sulpice-de-Roumagnac","nom_a":null,"nom_de":null,"slug_ville":"saint-sulpice-de-roumagnac","departement_id":0,"code_postal":"24600","population":279,"superficie_km2":"1084.10","latitude_centre":"45.2002","longitude_centre":"0.3979","distance_km":8.84},{"id":16462,"code_insee":"24367","nom_standard":"Saint-André-de-Double","nom_a":null,"nom_de":null,"slug_ville":"saint-andre-de-double","departement_id":0,"code_postal":"24190","population":162,"superficie_km2":"2782.04","latitude_centre":"45.1425","longitude_centre":"0.3228","distance_km":9.1},{"id":14268,"code_insee":"16240","nom_standard":"Nabinaud","nom_a":null,"nom_de":null,"slug_ville":"nabinaud","departement_id":0,"code_postal":"16390","population":99,"superficie_km2":"592.76","latitude_centre":"45.2919","longitude_centre":"0.2092","distance_km":10.07},{"id":16549,"code_insee":"24482","nom_standard":"Saint-Paul-Lizonne","nom_a":null,"nom_de":null,"slug_ville":"saint-paul-lizonne","departement_id":0,"code_postal":"24320","population":274,"superficie_km2":"935.94","latitude_centre":"45.3169","longitude_centre":"0.2846","distance_km":10.69},{"id":14337,"code_insee":"16350","nom_standard":"Saint-Séverin","nom_a":null,"nom_de":null,"slug_ville":"saint-severin","departement_id":0,"code_postal":"16390","population":784,"superficie_km2":"1503.12","latitude_centre":"45.3118","longitude_centre":"0.2427","distance_km":10.75},{"id":16325,"code_insee":"24159","nom_standard":"Échourgnac","nom_a":null,"nom_de":null,"slug_ville":"echourgnac","departement_id":0,"code_postal":"24410","population":395,"superficie_km2":"3479.67","latitude_centre":"45.1336","longitude_centre":"0.2271","distance_km":10.84},{"id":16240,"code_insee":"24038","nom_standard":"Bertric-Burée","nom_a":null,"nom_de":null,"slug_ville":"bertric-buree","departement_id":0,"code_postal":"24320","population":445,"superficie_km2":"1671.04","latitude_centre":"45.3086","longitude_centre":"0.354","distance_km":11.01},{"id":16385,"code_insee":"24247","nom_standard":"Lusignac","nom_a":null,"nom_de":null,"slug_ville":"lusignac","departement_id":0,"code_postal":"24320","population":162,"superficie_km2":"787.71","latitude_centre":"45.3245","longitude_centre":"0.3147","distance_km":11.71}]}