{"ville":{"id":15745,"code_insee":"21659","nom_standard":"Vaux-Saules","nom_a":null,"nom_de":null,"slug_ville":"vaux-saules","departement_id":0,"code_postal":"21440","population":170,"superficie_km2":"2836.65","latitude_centre":"47.4723","longitude_centre":"4.8298","dep_code":"21","dep_nom":"Côte-d'Or","dep_slug":"cote-d-or","reg_code":"27","reg_nom":"Bourgogne-Franche-Comté","reg_slug":"bourgogne-franche-comte"},"departement":{"code":"21","nom":"Côte-d'Or","slug":"cote-d-or"},"region":{"code":"27","nom":"Bourgogne-Franche-Comté","slug":"bourgogne-franche-comte"},"villes_proches":[{"id":15427,"code_insee":"21284","nom_standard":"Francheville","nom_a":null,"nom_de":null,"slug_ville":"francheville","departement_id":0,"code_postal":"21440","population":256,"superficie_km2":"3215.37","latitude_centre":"47.4556","longitude_centre":"4.8852","distance_km":4.56},{"id":15474,"code_insee":"21338","nom_standard":"Lamargelle","nom_a":null,"nom_de":null,"slug_ville":"lamargelle","departement_id":0,"code_postal":"21440","population":142,"superficie_km2":"2582.48","latitude_centre":"47.5156","longitude_centre":"4.8376","distance_km":4.85},{"id":15676,"code_insee":"21573","nom_standard":"Saint-Seine-l'Abbaye","nom_a":null,"nom_de":null,"slug_ville":"saint-seine-l-abbaye","departement_id":0,"code_postal":"21440","population":364,"superficie_km2":"387.24","latitude_centre":"47.4399","longitude_centre":"4.7854","distance_km":4.91},{"id":15294,"code_insee":"21136","nom_standard":"Champagny","nom_a":null,"nom_de":null,"slug_ville":"champagny","departement_id":0,"code_postal":"21440","population":27,"superficie_km2":"715.03","latitude_centre":"47.4612","longitude_centre":"4.7658","distance_km":4.97},{"id":15597,"code_insee":"21479","nom_standard":"Pellerey","nom_a":null,"nom_de":null,"slug_ville":"pellerey","departement_id":0,"code_postal":"21440","population":79,"superficie_km2":"1259.39","latitude_centre":"47.5129","longitude_centre":"4.7871","distance_km":5.54},{"id":15609,"code_insee":"21494","nom_standard":"Poncey-sur-l'Ignon","nom_a":null,"nom_de":null,"slug_ville":"poncey-sur-l-ignon","departement_id":0,"code_postal":"21440","population":80,"superficie_km2":"1652.34","latitude_centre":"47.4929","longitude_centre":"4.7548","distance_km":6.08},{"id":15664,"code_insee":"21561","nom_standard":"Saint-Martin-du-Mont","nom_a":null,"nom_de":null,"slug_ville":"saint-martin-du-mont","departement_id":0,"code_postal":"21440","population":463,"superficie_km2":"3823.62","latitude_centre":"47.4135","longitude_centre":"4.8078","distance_km":6.74},{"id":15246,"code_insee":"21085","nom_standard":"Bligny-le-Sec","nom_a":null,"nom_de":null,"slug_ville":"bligny-le-sec","departement_id":0,"code_postal":"21440","population":145,"superficie_km2":"1676.46","latitude_centre":"47.4479","longitude_centre":"4.741","distance_km":7.21},{"id":15366,"code_insee":"21218","nom_standard":"Curtil-Saint-Seine","nom_a":null,"nom_de":null,"slug_ville":"curtil-saint-seine","departement_id":0,"code_postal":"21380","population":112,"superficie_km2":"1218.22","latitude_centre":"47.4637","longitude_centre":"4.9259","distance_km":7.29},{"id":15429,"code_insee":"21286","nom_standard":"Frénois","nom_a":null,"nom_de":null,"slug_ville":"frenois","departement_id":0,"code_postal":"21120","population":96,"superficie_km2":"2220.51","latitude_centre":"47.5251","longitude_centre":"4.8909","distance_km":7.45},{"id":15740,"code_insee":"21651","nom_standard":"Val-Suzon","nom_a":null,"nom_de":null,"slug_ville":"val-suzon","departement_id":0,"code_postal":"21121","population":213,"superficie_km2":"1903.07","latitude_centre":"47.43","longitude_centre":"4.91","distance_km":7.65},{"id":15300,"code_insee":"21142","nom_standard":"Chanceaux","nom_a":null,"nom_de":null,"slug_ville":"chanceaux","departement_id":0,"code_postal":"21440","population":202,"superficie_km2":"2128.13","latitude_centre":"47.5253","longitude_centre":"4.7447","distance_km":8.69},{"id":15481,"code_insee":"21345","nom_standard":"Léry","nom_a":null,"nom_de":null,"slug_ville":"lery","departement_id":0,"code_postal":"21440","population":204,"superficie_km2":"1476.16","latitude_centre":"47.5559","longitude_centre":"4.8496","distance_km":9.41},{"id":15547,"code_insee":"21421","nom_standard":"Moloy","nom_a":null,"nom_de":null,"slug_ville":"moloy","departement_id":0,"code_postal":"21120","population":236,"superficie_km2":"1920.84","latitude_centre":"47.5391","longitude_centre":"4.9222","distance_km":10.17},{"id":15596,"code_insee":"21478","nom_standard":"Pasques","nom_a":null,"nom_de":null,"slug_ville":"pasques","departement_id":0,"code_postal":"21370","population":290,"superficie_km2":"2046.34","latitude_centre":"47.3801","longitude_centre":"4.849","distance_km":10.35},{"id":15735,"code_insee":"21646","nom_standard":"Trouhaut","nom_a":null,"nom_de":null,"slug_ville":"trouhaut","departement_id":0,"code_postal":"21440","population":131,"superficie_km2":"953.24","latitude_centre":"47.3896","longitude_centre":"4.7625","distance_km":10.5},{"id":15595,"code_insee":"21477","nom_standard":"Panges","nom_a":null,"nom_de":null,"slug_ville":"panges","departement_id":0,"code_postal":"21540","population":85,"superficie_km2":"612.45","latitude_centre":"47.3729","longitude_centre":"4.8055","distance_km":11.2},{"id":15236,"code_insee":"21075","nom_standard":"Billy-lès-Chanceaux","nom_a":null,"nom_de":null,"slug_ville":"billy-les-chanceaux","departement_id":0,"code_postal":"21450","population":72,"superficie_km2":"2224.63","latitude_centre":"47.5539","longitude_centre":"4.7387","distance_km":11.36},{"id":15604,"code_insee":"21489","nom_standard":"Poiseul-la-Grange","nom_a":null,"nom_de":null,"slug_ville":"poiseul-la-grange","departement_id":0,"code_postal":"21440","population":75,"superficie_km2":"2309.22","latitude_centre":"47.5727","longitude_centre":"4.7962","distance_km":11.45},{"id":15620,"code_insee":"21508","nom_standard":"Prenois","nom_a":null,"nom_de":null,"slug_ville":"prenois","departement_id":0,"code_postal":"21370","population":460,"superficie_km2":"1920.30","latitude_centre":"47.3778","longitude_centre":"4.9081","distance_km":12.05}]}