{"ville":{"id":3017,"code_insee":"33539","nom_standard":"Vayres","nom_a":null,"nom_de":null,"slug_ville":"vayres","departement_id":634,"code_postal":"33870","population":4204,"superficie_km2":"14.00","latitude_centre":"44.8909988","longitude_centre":"-0.3260000","dep_code":"33","dep_nom":"Gironde","dep_slug":"gironde","reg_code":"15","reg_nom":"Nouvelle-Aquitaine","reg_slug":"nouvelle-aquitaine"},"departement":{"code":"33","nom":"Gironde","slug":"gironde"},"region":{"code":"15","nom":"Nouvelle-Aquitaine","slug":"nouvelle-aquitaine"},"villes_proches":[{"id":2805,"code_insee":"33015","nom_standard":"Arveyres","nom_a":null,"nom_de":null,"slug_ville":"arveyres","departement_id":634,"code_postal":"33500","population":2029,"superficie_km2":"17.00","latitude_centre":"44.8919983","longitude_centre":"-0.2770000","distance_km":3.86},{"id":2822,"code_insee":"33049","nom_standard":"Beychac-et-Caillau","nom_a":null,"nom_de":null,"slug_ville":"beychac-et-caillau","departement_id":634,"code_postal":"33750","population":2590,"superficie_km2":"16.00","latitude_centre":"44.8720017","longitude_centre":"-0.3710000","distance_km":4.13},{"id":2888,"code_insee":"33207","nom_standard":"Izon","nom_a":null,"nom_de":null,"slug_ville":"izon","departement_id":634,"code_postal":"33450","population":6320,"superficie_km2":"16.00","latitude_centre":"44.9220009","longitude_centre":"-0.3560000","distance_km":4.18},{"id":2968,"code_insee":"33413","nom_standard":"Saint-Germain-du-Puch","nom_a":null,"nom_de":null,"slug_ville":"saint-germain-du-puch","departement_id":634,"code_postal":"33750","population":2276,"superficie_km2":"12.00","latitude_centre":"44.8520012","longitude_centre":"-0.3340000","distance_km":4.38},{"id":2995,"code_insee":"33483","nom_standard":"Saint-Sulpice-et-Cameyrac","nom_a":null,"nom_de":null,"slug_ville":"saint-sulpice-et-cameyrac","departement_id":634,"code_postal":"33450","population":4879,"superficie_km2":"15.00","latitude_centre":"44.9010010","longitude_centre":"-0.3860000","distance_km":4.86},{"id":2873,"code_insee":"33174","nom_standard":"Fronsac","nom_a":null,"nom_de":null,"slug_ville":"fronsac","departement_id":634,"code_postal":"33126","population":1120,"superficie_km2":"15.00","latitude_centre":"44.9220009","longitude_centre":"-0.2800000","distance_km":5},{"id":2877,"code_insee":"33185","nom_standard":"Génissac","nom_a":null,"nom_de":null,"slug_ville":"genissac","departement_id":634,"code_postal":"33420","population":2007,"superficie_km2":"14.00","latitude_centre":"44.8600006","longitude_centre":"-0.2490000","distance_km":6.98},{"id":2909,"code_insee":"33259","nom_standard":"Lugon-et-l'Île-du-Carnay","nom_a":null,"nom_de":null,"slug_ville":"lugon-et-l-ile-du-carnay","departement_id":634,"code_postal":"33240","population":1386,"superficie_km2":"11.00","latitude_centre":"44.9519997","longitude_centre":"-0.3550000","distance_km":7.16},{"id":3001,"code_insee":"33496","nom_standard":"Sallebœuf","nom_a":null,"nom_de":null,"slug_ville":"salleboeuf","departement_id":634,"code_postal":"33370","population":2728,"superficie_km2":"15.00","latitude_centre":"44.8440018","longitude_centre":"-0.3930000","distance_km":7.43},{"id":2811,"code_insee":"33028","nom_standard":"Baron","nom_a":null,"nom_de":null,"slug_ville":"baron","departement_id":634,"code_postal":"33750","population":1193,"superficie_km2":"10.00","latitude_centre":"44.8240013","longitude_centre":"-0.3180000","distance_km":7.48},{"id":2904,"code_insee":"33243","nom_standard":"Libourne","nom_a":null,"nom_de":null,"slug_ville":"libourne","departement_id":634,"code_postal":"33500","population":24557,"superficie_km2":"21.00","latitude_centre":"44.9129982","longitude_centre":"-0.2350000","distance_km":7.57},{"id":2839,"code_insee":"33083","nom_standard":"Camarsac","nom_a":null,"nom_de":null,"slug_ville":"camarsac","departement_id":634,"code_postal":"33750","population":1022,"superficie_km2":"5.00","latitude_centre":"44.8260002","longitude_centre":"-0.3690000","distance_km":7.98},{"id":2922,"code_insee":"33293","nom_standard":"Montussan","nom_a":null,"nom_de":null,"slug_ville":"montussan","departement_id":634,"code_postal":"33450","population":3451,"superficie_km2":"8.00","latitude_centre":"44.8829994","longitude_centre":"-0.4290000","distance_km":8.16},{"id":2838,"code_insee":"33082","nom_standard":"Cadillac-en-Fronsadais","nom_a":null,"nom_de":null,"slug_ville":"cadillac-en-fronsadais","departement_id":634,"code_postal":"33240","population":1345,"superficie_km2":"4.00","latitude_centre":"44.9620018","longitude_centre":"-0.3730000","distance_km":8.72},{"id":2989,"code_insee":"33466","nom_standard":"Saint-Quentin-de-Baron","nom_a":null,"nom_de":null,"slug_ville":"saint-quentin-de-baron","departement_id":634,"code_postal":"33750","population":2675,"superficie_km2":"9.00","latitude_centre":"44.8180008","longitude_centre":"-0.2810000","distance_km":8.86},{"id":2974,"code_insee":"33433","nom_standard":"Saint-Loubès","nom_a":null,"nom_de":null,"slug_ville":"saint-loubes","departement_id":634,"code_postal":"33450","population":10005,"superficie_km2":"26.00","latitude_centre":"44.9220009","longitude_centre":"-0.4310000","distance_km":8.96},{"id":2925,"code_insee":"33298","nom_standard":"Moulon","nom_a":null,"nom_de":null,"slug_ville":"moulon","departement_id":634,"code_postal":"33420","population":1022,"superficie_km2":"13.00","latitude_centre":"44.8580017","longitude_centre":"-0.2210000","distance_km":9.05},{"id":3024,"code_insee":"33548","nom_standard":"Villegouge","nom_a":null,"nom_de":null,"slug_ville":"villegouge","departement_id":634,"code_postal":"33141","population":1281,"superficie_km2":"14.00","latitude_centre":"44.9729996","longitude_centre":"-0.3130000","distance_km":9.18},{"id":2938,"code_insee":"33330","nom_standard":"Pompignac","nom_a":null,"nom_de":null,"slug_ville":"pompignac","departement_id":634,"code_postal":"33370","population":3393,"superficie_km2":"12.00","latitude_centre":"44.8540001","longitude_centre":"-0.4320000","distance_km":9.31},{"id":2824,"code_insee":"33052","nom_standard":"Les Billaux","nom_a":null,"nom_de":null,"slug_ville":"les-billaux","departement_id":634,"code_postal":"33500","population":1165,"superficie_km2":"6.00","latitude_centre":"44.9620018","longitude_centre":"-0.2430000","distance_km":10.25}]}