{"ville":{"id":30553,"code_insee":"70539","nom_standard":"Vellexon-Queutrey-et-Vaudey","nom_a":null,"nom_de":null,"slug_ville":"vellexon-queutrey-et-vaudey","departement_id":0,"code_postal":"70130","population":487,"superficie_km2":"2500.94","latitude_centre":"47.549","longitude_centre":"5.8065","dep_code":"70","dep_nom":"Haute-Saône","dep_slug":"haute-saone","reg_code":"27","reg_nom":"Bourgogne-Franche-Comté","reg_slug":"bourgogne-franche-comte"},"departement":{"code":"70","nom":"Haute-Saône","slug":"haute-saone"},"region":{"code":"27","nom":"Bourgogne-Franche-Comté","slug":"bourgogne-franche-comte"},"villes_proches":[{"id":30510,"code_insee":"70491","nom_standard":"Seveux-Motey","nom_a":null,"nom_de":null,"slug_ville":"seveux-motey","departement_id":0,"code_postal":"70130","population":471,"superficie_km2":"2003.94","latitude_centre":"47.5339","longitude_centre":"5.7668","distance_km":3.42},{"id":30302,"code_insee":"70231","nom_standard":"Ferrières-lès-Ray","nom_a":null,"nom_de":null,"slug_ville":"ferrieres-les-ray","departement_id":0,"code_postal":"70130","population":41,"superficie_km2":"398.22","latitude_centre":"47.5794","longitude_centre":"5.7937","distance_km":3.51},{"id":30321,"code_insee":"70255","nom_standard":"Fresne-Saint-Mamès","nom_a":null,"nom_de":null,"slug_ville":"fresne-saint-mames","departement_id":0,"code_postal":"70130","population":491,"superficie_km2":"999.24","latitude_centre":"47.5498","longitude_centre":"5.8622","distance_km":4.18},{"id":30470,"code_insee":"70440","nom_standard":"Recologne","nom_a":null,"nom_de":null,"slug_ville":"recologne","departement_id":0,"code_postal":"70130","population":30,"superficie_km2":"112.87","latitude_centre":"47.5831","longitude_centre":"5.7771","distance_km":4.39},{"id":30468,"code_insee":"70438","nom_standard":"Ray-sur-Saône","nom_a":null,"nom_de":null,"slug_ville":"ray-sur-saone","departement_id":0,"code_postal":"70130","population":209,"superficie_km2":"801.12","latitude_centre":"47.5935","longitude_centre":"5.8117","distance_km":4.96},{"id":30488,"code_insee":"70463","nom_standard":"Saint-Gand","nom_a":null,"nom_de":null,"slug_ville":"saint-gand","departement_id":0,"code_postal":"70130","population":138,"superficie_km2":"1606.75","latitude_centre":"47.5042","longitude_centre":"5.8315","distance_km":5.32},{"id":30501,"code_insee":"70481","nom_standard":"Savoyeux","nom_a":null,"nom_de":null,"slug_ville":"savoyeux","departement_id":0,"code_postal":"70130","population":200,"superficie_km2":"618.52","latitude_centre":"47.5483","longitude_centre":"5.7344","distance_km":5.41},{"id":30389,"code_insee":"70340","nom_standard":"Membrey","nom_a":null,"nom_de":null,"slug_ville":"membrey","departement_id":0,"code_postal":"70180","population":208,"superficie_km2":"1108.68","latitude_centre":"47.5849","longitude_centre":"5.7507","distance_km":5.78},{"id":30519,"code_insee":"70502","nom_standard":"Tincey-et-Pontrebeau","nom_a":null,"nom_de":null,"slug_ville":"tincey-et-pontrebeau","departement_id":0,"code_postal":"70120","population":81,"superficie_km2":"686.40","latitude_centre":"47.6016","longitude_centre":"5.7893","distance_km":5.99},{"id":30493,"code_insee":"70471","nom_standard":"Sainte-Reine","nom_a":null,"nom_de":null,"slug_ville":"sainte-reine","departement_id":0,"code_postal":"70700","population":23,"superficie_km2":"624.63","latitude_centre":"47.4999","longitude_centre":"5.7728","distance_km":6.02},{"id":0,"code_insee":"70549","nom_standard":"La Vernotte","nom_a":null,"nom_de":null,"slug_ville":"la-vernotte","departement_id":0,"code_postal":"70130","population":78,"superficie_km2":"561.33","latitude_centre":"47.5099","longitude_centre":"5.8692","distance_km":6.41},{"id":30535,"code_insee":"70520","nom_standard":"Vanne","nom_a":null,"nom_de":null,"slug_ville":"vanne","departement_id":0,"code_postal":"70130","population":123,"superficie_km2":"970.37","latitude_centre":"47.6008","longitude_centre":"5.8456","distance_km":6.46},{"id":30391,"code_insee":"70342","nom_standard":"Mercey-sur-Saône","nom_a":null,"nom_de":null,"slug_ville":"mercey-sur-saone","departement_id":0,"code_postal":"70130","population":127,"superficie_km2":"774.10","latitude_centre":"47.5213","longitude_centre":"5.7308","distance_km":6.46},{"id":30453,"code_insee":"70418","nom_standard":"La Romaine","nom_a":null,"nom_de":null,"slug_ville":"la-romaine","departement_id":0,"code_postal":"70130","population":520,"superficie_km2":"2120.80","latitude_centre":"47.5381","longitude_centre":"5.8911","distance_km":6.46},{"id":30211,"code_insee":"70129","nom_standard":"La Chapelle-Saint-Quillain","nom_a":null,"nom_de":null,"slug_ville":"la-chapelle-saint-quillain","departement_id":0,"code_postal":"70700","population":142,"superficie_km2":"1038.17","latitude_centre":"47.4889","longitude_centre":"5.8186","distance_km":6.74},{"id":30552,"code_insee":"70538","nom_standard":"Vellemoz","nom_a":null,"nom_de":null,"slug_ville":"vellemoz","departement_id":0,"code_postal":"70700","population":87,"superficie_km2":"426.60","latitude_centre":"47.4781","longitude_centre":"5.7927","distance_km":7.95},{"id":30516,"code_insee":"70499","nom_standard":"Theuley","nom_a":null,"nom_de":null,"slug_ville":"theuley","departement_id":0,"code_postal":"70120","population":105,"superficie_km2":"748.37","latitude_centre":"47.6201","longitude_centre":"5.8233","distance_km":8.01},{"id":30346,"code_insee":"70289","nom_standard":"Igny","nom_a":null,"nom_de":null,"slug_ville":"igny","departement_id":0,"code_postal":"70700","population":202,"superficie_km2":"1014.96","latitude_centre":"47.4813","longitude_centre":"5.7552","distance_km":8.46},{"id":30355,"code_insee":"70299","nom_standard":"Lavoncourt","nom_a":null,"nom_de":null,"slug_ville":"lavoncourt","departement_id":0,"code_postal":"70120","population":331,"superficie_km2":"561.39","latitude_centre":"47.6232","longitude_centre":"5.7779","distance_km":8.52},{"id":30294,"code_insee":"70222","nom_standard":"Étrelles-et-la-Montbleuse","nom_a":null,"nom_de":null,"slug_ville":"etrelles-et-la-montbleuse","departement_id":0,"code_postal":"70700","population":105,"superficie_km2":"629.06","latitude_centre":"47.478","longitude_centre":"5.8543","distance_km":8.67}]}