{"ville":{"id":33787,"code_insee":"83147","nom_standard":"Vérignon","nom_a":null,"nom_de":null,"slug_ville":"verignon","departement_id":0,"code_postal":"83630","population":8,"superficie_km2":"3665.85","latitude_centre":"43.658","longitude_centre":"6.2653","dep_code":"83","dep_nom":"Var","dep_slug":"var","reg_code":"93","reg_nom":"Provence-Alpes-Côte d'Azur","reg_slug":"provence-alpes-cote-d-azur"},"departement":{"code":"83","nom":"Var","slug":"var"},"region":{"code":"93","nom":"Provence-Alpes-Côte d'Azur","slug":"provence-alpes-cote-d-azur"},"villes_proches":[{"id":0,"code_insee":"83007","nom_standard":"Aups","nom_a":null,"nom_de":null,"slug_ville":"aups","departement_id":0,"code_postal":"83630","population":2192,"superficie_km2":"6487.78","latitude_centre":"43.6283","longitude_centre":"6.2139","distance_km":5.29},{"id":33785,"code_insee":"83139","nom_standard":"Tourtour","nom_a":null,"nom_de":null,"slug_ville":"tourtour","departement_id":0,"code_postal":"83690","population":581,"superficie_km2":"2879.69","latitude_centre":"43.594","longitude_centre":"6.3098","distance_km":7.97},{"id":33775,"code_insee":"83078","nom_standard":"Moissac-Bellevue","nom_a":null,"nom_de":null,"slug_ville":"moissac-bellevue","departement_id":0,"code_postal":"83630","population":306,"superficie_km2":"2069.43","latitude_centre":"43.6487","longitude_centre":"6.1666","distance_km":8.01},{"id":33761,"code_insee":"83015","nom_standard":"Bauduen","nom_a":null,"nom_de":null,"slug_ville":"bauduen","departement_id":0,"code_postal":"83630","population":308,"superficie_km2":"5206.81","latitude_centre":"43.7203","longitude_centre":"6.2048","distance_km":8.46},{"id":33755,"code_insee":"83003","nom_standard":"Ampus","nom_a":null,"nom_de":null,"slug_ville":"ampus","departement_id":0,"code_postal":"83111","population":919,"superficie_km2":"8367.80","latitude_centre":"43.6218","longitude_centre":"6.3683","distance_km":9.21},{"id":33754,"code_insee":"83002","nom_standard":"Aiguines","nom_a":null,"nom_de":null,"slug_ville":"aiguines","departement_id":0,"code_postal":"83630","population":274,"superficie_km2":"11649.98","latitude_centre":"43.7365","longitude_centre":"6.3197","distance_km":9.76},{"id":0,"code_insee":"83149","nom_standard":"Villecroze","nom_a":null,"nom_de":null,"slug_ville":"villecroze","departement_id":0,"code_postal":"83690","population":1514,"superficie_km2":"2089.67","latitude_centre":"43.5649","longitude_centre":"6.2855","distance_km":10.48},{"id":0,"code_insee":"83121","nom_standard":"Salernes","nom_a":null,"nom_de":null,"slug_ville":"salernes","departement_id":0,"code_postal":"83690","population":4019,"superficie_km2":"3950.80","latitude_centre":"43.5646","longitude_centre":"6.2379","distance_km":10.62},{"id":0,"code_insee":"83102","nom_standard":"Régusse","nom_a":null,"nom_de":null,"slug_ville":"regusse","departement_id":0,"code_postal":"83630","population":2380,"superficie_km2":"3562.97","latitude_centre":"43.663","longitude_centre":"6.122","distance_km":11.54},{"id":33760,"code_insee":"83014","nom_standard":"Baudinard-sur-Verdon","nom_a":null,"nom_de":null,"slug_ville":"baudinard-sur-verdon","departement_id":0,"code_postal":"83630","population":235,"superficie_km2":"2226.48","latitude_centre":"43.714","longitude_centre":"6.1351","distance_km":12.18},{"id":33783,"code_insee":"83122","nom_standard":"Les Salles-sur-Verdon","nom_a":null,"nom_de":null,"slug_ville":"les-salles-sur-verdon","departement_id":0,"code_postal":"83630","population":236,"superficie_km2":"1283.42","latitude_centre":"43.767","longitude_centre":"6.2042","distance_km":13.08},{"id":33756,"code_insee":"83005","nom_standard":"Artignosc-sur-Verdon","nom_a":null,"nom_de":null,"slug_ville":"artignosc-sur-verdon","departement_id":0,"code_postal":"83630","population":311,"superficie_km2":"1892.19","latitude_centre":"43.6991","longitude_centre":"6.1087","distance_km":13.4},{"id":33784,"code_insee":"83128","nom_standard":"Sillans-la-Cascade","nom_a":null,"nom_de":null,"slug_ville":"sillans-la-cascade","departement_id":0,"code_postal":"83690","population":787,"superficie_km2":"2028.42","latitude_centre":"43.565","longitude_centre":"6.1549","distance_km":13.64},{"id":33771,"code_insee":"83060","nom_standard":"Fox-Amphoux","nom_a":null,"nom_de":null,"slug_ville":"fox-amphoux","departement_id":0,"code_postal":"83670","population":504,"superficie_km2":"4114.26","latitude_centre":"43.5944","longitude_centre":"6.1165","distance_km":13.91},{"id":33764,"code_insee":"83038","nom_standard":"Châteaudouble","nom_a":null,"nom_de":null,"slug_ville":"chateaudouble","departement_id":0,"code_postal":"83300","population":476,"superficie_km2":"4092.04","latitude_centre":"43.6259","longitude_centre":"6.442","distance_km":14.66},{"id":0,"code_insee":"83058","nom_standard":"Flayosc","nom_a":null,"nom_de":null,"slug_ville":"flayosc","departement_id":0,"code_postal":"83780","population":4673,"superficie_km2":"4625.56","latitude_centre":"43.5441","longitude_centre":"6.3577","distance_km":14.69},{"id":11275,"code_insee":"04176","nom_standard":"Sainte-Croix-du-Verdon","nom_a":null,"nom_de":null,"slug_ville":"sainte-croix-du-verdon","departement_id":0,"code_postal":"04500","population":113,"superficie_km2":"1988.73","latitude_centre":"43.762","longitude_centre":"6.1502","distance_km":14.81},{"id":11254,"code_insee":"04144","nom_standard":"La Palud-sur-Verdon","nom_a":null,"nom_de":null,"slug_ville":"la-palud-sur-verdon","departement_id":0,"code_postal":"04120","population":347,"superficie_km2":"8172.77","latitude_centre":"43.801","longitude_centre":"6.323","distance_km":16.56},{"id":0,"code_insee":"83051","nom_standard":"Entrecasteaux","nom_a":null,"nom_de":null,"slug_ville":"entrecasteaux","departement_id":0,"code_postal":"83570","population":1118,"superficie_km2":"3220.61","latitude_centre":"43.5085","longitude_centre":"6.2324","distance_km":16.83},{"id":0,"code_insee":"83154","nom_standard":"Saint-Antonin-du-Var","nom_a":null,"nom_de":null,"slug_ville":"saint-antonin-du-var","departement_id":0,"code_postal":"83510","population":870,"superficie_km2":"1767.62","latitude_centre":"43.5071","longitude_centre":"6.2935","distance_km":16.93}]}