{"ville":{"id":33336,"code_insee":"80790","nom_standard":"Verpillières","nom_a":null,"nom_de":null,"slug_ville":"verpillieres","departement_id":0,"code_postal":"80700","population":168,"superficie_km2":"487.18","latitude_centre":"49.6682","longitude_centre":"2.8225","dep_code":"80","dep_nom":"Somme","dep_slug":"somme","reg_code":"32","reg_nom":"Hauts-de-France","reg_slug":"hauts-de-france"},"departement":{"code":"80","nom":"Somme","slug":"somme"},"region":{"code":"32","nom":"Hauts-de-France","slug":"hauts-de-france"},"villes_proches":[{"id":33250,"code_insee":"80676","nom_standard":"Roiglise","nom_a":null,"nom_de":null,"slug_ville":"roiglise","departement_id":0,"code_postal":"80700","population":152,"superficie_km2":"573.93","latitude_centre":"49.683","longitude_centre":"2.8361","distance_km":1.91},{"id":26582,"code_insee":"60011","nom_standard":"Amy","nom_a":null,"nom_de":null,"slug_ville":"amy","departement_id":0,"code_postal":"60310","population":419,"superficie_km2":"1263.81","latitude_centre":"49.6401","longitude_centre":"2.831","distance_km":3.18},{"id":26697,"code_insee":"60174","nom_standard":"Crapeaumesnil","nom_a":null,"nom_de":null,"slug_ville":"crapeaumesnil","departement_id":0,"code_postal":"60310","population":225,"superficie_km2":"485.38","latitude_centre":"49.6397","longitude_centre":"2.8167","distance_km":3.2},{"id":26862,"code_insee":"60381","nom_standard":"Margny-aux-Cerises","nom_a":null,"nom_de":null,"slug_ville":"margny-aux-cerises","departement_id":0,"code_postal":"60310","population":258,"superficie_km2":"457.21","latitude_centre":"49.6723","longitude_centre":"2.8685","distance_km":3.34},{"id":0,"code_insee":"80685","nom_standard":"Roye","nom_a":null,"nom_de":null,"slug_ville":"roye","departement_id":0,"code_postal":"80700","population":5833,"superficie_km2":"1552.66","latitude_centre":"49.6907","longitude_centre":"2.7869","distance_km":3.58},{"id":26598,"code_insee":"60035","nom_standard":"Avricourt","nom_a":null,"nom_de":null,"slug_ville":"avricourt","departement_id":0,"code_postal":"60310","population":232,"superficie_km2":"705.85","latitude_centre":"49.6497","longitude_centre":"2.8654","distance_km":3.71},{"id":32848,"code_insee":"80176","nom_standard":"Carrépuis","nom_a":null,"nom_de":null,"slug_ville":"carrepuis","departement_id":0,"code_postal":"80700","population":250,"superficie_km2":"554.54","latitude_centre":"49.7046","longitude_centre":"2.8199","distance_km":4.05},{"id":32855,"code_insee":"80185","nom_standard":"Champien","nom_a":null,"nom_de":null,"slug_ville":"champien","departement_id":0,"code_postal":"80700","population":272,"superficie_km2":"884.91","latitude_centre":"49.6962","longitude_centre":"2.8608","distance_km":4.16},{"id":33087,"code_insee":"80467","nom_standard":"Laucourt","nom_a":null,"nom_de":null,"slug_ville":"laucourt","departement_id":0,"code_postal":"80700","population":183,"superficie_km2":"635.86","latitude_centre":"49.6723","longitude_centre":"2.7632","distance_km":4.29},{"id":32780,"code_insee":"80101","nom_standard":"Beuvraignes","nom_a":null,"nom_de":null,"slug_ville":"beuvraignes","departement_id":0,"code_postal":"80700","population":900,"superficie_km2":"1468.32","latitude_centre":"49.6394","longitude_centre":"2.7747","distance_km":4.7},{"id":26765,"code_insee":"60258","nom_standard":"Fresnières","nom_a":null,"nom_de":null,"slug_ville":"fresnieres","departement_id":0,"code_postal":"60310","population":154,"superficie_km2":"300.45","latitude_centre":"49.6243","longitude_centre":"2.8104","distance_km":4.96},{"id":33273,"code_insee":"80708","nom_standard":"Saint-Mard","nom_a":null,"nom_de":null,"slug_ville":"saint-mard","departement_id":0,"code_postal":"80700","population":155,"superficie_km2":"418.05","latitude_centre":"49.6891","longitude_centre":"2.7578","distance_km":5.2},{"id":27034,"code_insee":"60621","nom_standard":"Solente","nom_a":null,"nom_de":null,"slug_ville":"solente","departement_id":0,"code_postal":"60310","population":130,"superficie_km2":"307.48","latitude_centre":"49.6981","longitude_centre":"2.8824","distance_km":5.44},{"id":32740,"code_insee":"80053","nom_standard":"Balâtre","nom_a":null,"nom_de":null,"slug_ville":"balatre","departement_id":0,"code_postal":"80700","population":78,"superficie_km2":"330.60","latitude_centre":"49.711","longitude_centre":"2.8665","distance_km":5.72},{"id":26666,"code_insee":"60124","nom_standard":"Candor","nom_a":null,"nom_de":null,"slug_ville":"candor","departement_id":0,"code_postal":"60310","population":321,"superficie_km2":"904.48","latitude_centre":"49.6321","longitude_centre":"2.8862","distance_km":6.09},{"id":33027,"code_insee":"80393","nom_standard":"Gruny","nom_a":null,"nom_de":null,"slug_ville":"gruny","departement_id":0,"code_postal":"80700","population":303,"superficie_km2":"705.64","latitude_centre":"49.7265","longitude_centre":"2.8169","distance_km":6.5},{"id":33120,"code_insee":"80508","nom_standard":"Marché-Allouarde","nom_a":null,"nom_de":null,"slug_ville":"marche-allouarde","departement_id":0,"code_postal":"80700","population":51,"superficie_km2":"206.63","latitude_centre":"49.7241","longitude_centre":"2.8651","distance_km":6.93},{"id":26669,"code_insee":"60127","nom_standard":"Canny-sur-Matz","nom_a":null,"nom_de":null,"slug_ville":"canny-sur-matz","departement_id":0,"code_postal":"60310","population":415,"superficie_km2":"692.11","latitude_centre":"49.6004","longitude_centre":"2.8009","distance_km":7.7},{"id":33244,"code_insee":"80669","nom_standard":"Rethonvillers","nom_a":null,"nom_de":null,"slug_ville":"rethonvillers","departement_id":0,"code_postal":"80700","population":346,"superficie_km2":"713.56","latitude_centre":"49.7335","longitude_centre":"2.8581","distance_km":7.7},{"id":0,"code_insee":"60350","nom_standard":"Lassigny","nom_a":null,"nom_de":null,"slug_ville":"lassigny","departement_id":0,"code_postal":"60310","population":1469,"superficie_km2":"1675.26","latitude_centre":"49.5997","longitude_centre":"2.8423","distance_km":7.75}]}