{"ville":{"id":15754,"code_insee":"21671","nom_standard":"Vertault","nom_a":null,"nom_de":null,"slug_ville":"vertault","departement_id":0,"code_postal":"21330","population":50,"superficie_km2":"1929.88","latitude_centre":"47.9271","longitude_centre":"4.3289","dep_code":"21","dep_nom":"Côte-d'Or","dep_slug":"cote-d-or","reg_code":"27","reg_nom":"Bourgogne-Franche-Comté","reg_slug":"bourgogne-franche-comte"},"departement":{"code":"21","nom":"Côte-d'Or","slug":"cote-d-or"},"region":{"code":"27","nom":"Bourgogne-Franche-Comté","slug":"bourgogne-franche-comte"},"villes_proches":[{"id":15545,"code_insee":"21419","nom_standard":"Molesme","nom_a":null,"nom_de":null,"slug_ville":"molesme","departement_id":0,"code_postal":"21330","population":278,"superficie_km2":"2853.00","latitude_centre":"47.9455","longitude_centre":"4.3767","distance_km":4.11},{"id":15301,"code_insee":"21143","nom_standard":"Channay","nom_a":null,"nom_de":null,"slug_ville":"channay","departement_id":0,"code_postal":"21330","population":58,"superficie_km2":"1347.17","latitude_centre":"47.8904","longitude_centre":"4.3161","distance_km":4.19},{"id":0,"code_insee":"21693","nom_standard":"Villedieu","nom_a":null,"nom_de":null,"slug_ville":"villedieu","departement_id":0,"code_postal":"21330","population":71,"superficie_km2":"1411.27","latitude_centre":"47.905","longitude_centre":"4.3818","distance_km":4.65},{"id":12563,"code_insee":"10079","nom_standard":"Channes","nom_a":null,"nom_de":null,"slug_ville":"channes","departement_id":0,"code_postal":"10340","population":108,"superficie_km2":"1430.69","latitude_centre":"47.94","longitude_centre":"4.2634","distance_km":5.09},{"id":15450,"code_insee":"21309","nom_standard":"Griselles","nom_a":null,"nom_de":null,"slug_ville":"griselles","departement_id":0,"code_postal":"21330","population":91,"superficie_km2":"1245.94","latitude_centre":"47.8759","longitude_centre":"4.3649","distance_km":6.29},{"id":12545,"code_insee":"10058","nom_standard":"Bragelogne-Beauvoir","nom_a":null,"nom_de":null,"slug_ville":"bragelogne-beauvoir","departement_id":0,"code_postal":"10340","population":217,"superficie_km2":"2355.14","latitude_centre":"47.9703","longitude_centre":"4.2673","distance_km":6.64},{"id":0,"code_insee":"89019","nom_standard":"Arthonnay","nom_a":null,"nom_de":null,"slug_ville":"arthonnay","departement_id":0,"code_postal":"89740","population":150,"superficie_km2":"2574.43","latitude_centre":"47.9357","longitude_centre":"4.2403","distance_km":6.67},{"id":15576,"code_insee":"21454","nom_standard":"Nicey","nom_a":null,"nom_de":null,"slug_ville":"nicey","departement_id":0,"code_postal":"21330","population":112,"superficie_km2":"2385.00","latitude_centre":"47.8676","longitude_centre":"4.2933","distance_km":7.13},{"id":15479,"code_insee":"21343","nom_standard":"Larrey","nom_a":null,"nom_de":null,"slug_ville":"larrey","departement_id":0,"code_postal":"21330","population":95,"superficie_km2":"1860.99","latitude_centre":"47.8986","longitude_centre":"4.4273","distance_km":7.99},{"id":0,"code_insee":"10317","nom_standard":"Les Riceys","nom_a":null,"nom_de":null,"slug_ville":"les-riceys","departement_id":0,"code_postal":"10340","population":1174,"superficie_km2":"4305.17","latitude_centre":"47.9907","longitude_centre":"4.3793","distance_km":8.01},{"id":12517,"code_insee":"10025","nom_standard":"Bagneux-la-Fosse","nom_a":null,"nom_de":null,"slug_ville":"bagneux-la-fosse","departement_id":0,"code_postal":"10340","population":178,"superficie_km2":"2304.35","latitude_centre":"47.9984","longitude_centre":"4.2954","distance_km":8.31},{"id":15509,"code_insee":"21378","nom_standard":"Marcenay","nom_a":null,"nom_de":null,"slug_ville":"marcenay","departement_id":0,"code_postal":"21330","population":108,"superficie_km2":"948.44","latitude_centre":"47.8596","longitude_centre":"4.4047","distance_km":9.4},{"id":0,"code_insee":"89131","nom_standard":"Cruzy-le-Châtel","nom_a":null,"nom_de":null,"slug_ville":"cruzy-le-chatel","departement_id":0,"code_postal":"89740","population":222,"superficie_km2":"5941.39","latitude_centre":"47.8725","longitude_centre":"4.2254","distance_km":9.82},{"id":0,"code_insee":"89187","nom_standard":"Gigny","nom_a":null,"nom_de":null,"slug_ville":"gigny","departement_id":0,"code_postal":"89160","population":83,"superficie_km2":"1085.10","latitude_centre":"47.8297","longitude_centre":"4.303","distance_km":11.0},{"id":15473,"code_insee":"21336","nom_standard":"Laignes","nom_a":null,"nom_de":null,"slug_ville":"laignes","departement_id":0,"code_postal":"21330","population":668,"superficie_km2":"4034.91","latitude_centre":"47.8278","longitude_centre":"4.3688","distance_km":11.44},{"id":15239,"code_insee":"21078","nom_standard":"Bissey-la-Pierre","nom_a":null,"nom_de":null,"slug_ville":"bissey-la-pierre","departement_id":0,"code_postal":"21330","population":67,"superficie_km2":"841.80","latitude_centre":"47.8444","longitude_centre":"4.4244","distance_km":11.63},{"id":12514,"code_insee":"10022","nom_standard":"Avirey-Lingey","nom_a":null,"nom_de":null,"slug_ville":"avirey-lingey","departement_id":0,"code_postal":"10340","population":196,"superficie_km2":"1779.81","latitude_centre":"48.0341","longitude_centre":"4.2912","distance_km":12.22},{"id":12521,"code_insee":"10029","nom_standard":"Balnot-sur-Laignes","nom_a":null,"nom_de":null,"slug_ville":"balnot-sur-laignes","departement_id":0,"code_postal":"10110","population":150,"superficie_km2":"1020.52","latitude_centre":"48.0367","longitude_centre":"4.3487","distance_km":12.28},{"id":12502,"code_insee":"10009","nom_standard":"Arrelles","nom_a":null,"nom_de":null,"slug_ville":"arrelles","departement_id":0,"code_postal":"10340","population":90,"superficie_km2":"1443.77","latitude_centre":"48.0458","longitude_centre":"4.2835","distance_km":13.62},{"id":0,"code_insee":"89385","nom_standard":"Sennevoy-le-Bas","nom_a":null,"nom_de":null,"slug_ville":"sennevoy-le-bas","departement_id":0,"code_postal":"89160","population":75,"superficie_km2":"873.92","latitude_centre":"47.8012","longitude_centre":"4.3095","distance_km":14.07}]}