{"ville":{"id":17789,"code_insee":"27682","nom_standard":"Vesly","nom_a":null,"nom_de":null,"slug_ville":"vesly","departement_id":0,"code_postal":"27870","population":613,"superficie_km2":"1198.08","latitude_centre":"49.2437","longitude_centre":"1.6415","dep_code":"27","dep_nom":"Eure","dep_slug":"eure","reg_code":"28","reg_nom":"Normandie","reg_slug":"normandie"},"departement":{"code":"27","nom":"Eure","slug":"eure"},"region":{"code":"28","nom":"Normandie","slug":"normandie"},"villes_proches":[{"id":17634,"code_insee":"27445","nom_standard":"Noyers","nom_a":null,"nom_de":null,"slug_ville":"noyers","departement_id":0,"code_postal":"27720","population":257,"superficie_km2":"536.79","latitude_centre":"49.2466","longitude_centre":"1.6747","distance_km":2.43},{"id":17365,"code_insee":"27026","nom_standard":"Authevernes","nom_a":null,"nom_de":null,"slug_ville":"authevernes","departement_id":0,"code_postal":"27420","population":470,"superficie_km2":"812.72","latitude_centre":"49.2192","longitude_centre":"1.629","distance_km":2.87},{"id":17759,"code_insee":"27633","nom_standard":"Les Thilliers-en-Vexin","nom_a":null,"nom_de":null,"slug_ville":"les-thilliers-en-vexin","departement_id":0,"code_postal":"27420","population":491,"superficie_km2":"159.01","latitude_centre":"49.2366","longitude_centre":"1.6033","distance_km":2.88},{"id":17518,"code_insee":"27276","nom_standard":"Gamaches-en-Vexin","nom_a":null,"nom_de":null,"slug_ville":"gamaches-en-vexin","departement_id":0,"code_postal":"27150","population":295,"superficie_km2":"867.18","latitude_centre":"49.2671","longitude_centre":"1.6166","distance_km":3.17},{"id":17533,"code_insee":"27304","nom_standard":"Guerny","nom_a":null,"nom_de":null,"slug_ville":"guerny","departement_id":0,"code_postal":"27720","population":150,"superficie_km2":"603.18","latitude_centre":"49.2234","longitude_centre":"1.6795","distance_km":3.56},{"id":17469,"code_insee":"27199","nom_standard":"Dangu","nom_a":null,"nom_de":null,"slug_ville":"dangu","departement_id":0,"code_postal":"27720","population":527,"superficie_km2":"795.22","latitude_centre":"49.2593","longitude_centre":"1.6848","distance_km":3.59},{"id":0,"code_insee":"27690","nom_standard":"Villers-en-Vexin","nom_a":null,"nom_de":null,"slug_ville":"villers-en-vexin","departement_id":0,"code_postal":"27420","population":311,"superficie_km2":"630.98","latitude_centre":"49.2504","longitude_centre":"1.5906","distance_km":3.77},{"id":17445,"code_insee":"27153","nom_standard":"Chauvincourt-Provemont","nom_a":null,"nom_de":null,"slug_ville":"chauvincourt-provemont","departement_id":0,"code_postal":"27150","population":397,"superficie_km2":"1082.09","latitude_centre":"49.2799","longitude_centre":"1.6457","distance_km":4.04},{"id":17444,"code_insee":"27152","nom_standard":"Château-sur-Epte","nom_a":null,"nom_de":null,"slug_ville":"chateau-sur-epte","departement_id":0,"code_postal":"27420","population":659,"superficie_km2":"458.71","latitude_centre":"49.2013","longitude_centre":"1.6555","distance_km":4.82},{"id":17714,"code_insee":"27567","nom_standard":"Sainte-Marie-de-Vatimesnil","nom_a":null,"nom_de":null,"slug_ville":"sainte-marie-de-vatimesnil","departement_id":0,"code_postal":"27150","population":262,"superficie_km2":"737.74","latitude_centre":"49.2717","longitude_centre":"1.5818","distance_km":5.34},{"id":17388,"code_insee":"27059","nom_standard":"Bernouville","nom_a":null,"nom_de":null,"slug_ville":"bernouville","departement_id":0,"code_postal":"27660","population":321,"superficie_km2":"608.40","latitude_centre":"49.289","longitude_centre":"1.6718","distance_km":5.5},{"id":0,"code_insee":"95541","nom_standard":"Saint-Clair-sur-Epte","nom_a":null,"nom_de":null,"slug_ville":"saint-clair-sur-epte","departement_id":0,"code_postal":"95770","population":964,"superficie_km2":"1232.55","latitude_centre":"49.211","longitude_centre":"1.7047","distance_km":5.86},{"id":17615,"code_insee":"27420","nom_standard":"Mouflaines","nom_a":null,"nom_de":null,"slug_ville":"mouflaines","departement_id":0,"code_postal":"27420","population":159,"superficie_km2":"376.24","latitude_centre":"49.2449","longitude_centre":"1.5551","distance_km":6.27},{"id":0,"code_insee":"95119","nom_standard":"Buhy","nom_a":null,"nom_de":null,"slug_ville":"buhy","departement_id":0,"code_postal":"95770","population":329,"superficie_km2":"694.25","latitude_centre":"49.1926","longitude_centre":"1.7031","distance_km":7.23},{"id":0,"code_insee":"27426","nom_standard":"Neaufles-Saint-Martin","nom_a":null,"nom_de":null,"slug_ville":"neaufles-saint-martin","departement_id":0,"code_postal":"27830","population":1289,"superficie_km2":"903.29","latitude_centre":"49.2789","longitude_centre":"1.7258","distance_km":7.26},{"id":0,"code_insee":"27067","nom_standard":"Bézu-Saint-Éloi","nom_a":null,"nom_de":null,"slug_ville":"bezu-saint-eloi","departement_id":0,"code_postal":"27660","population":1626,"superficie_km2":"1144.19","latitude_centre":"49.3028","longitude_centre":"1.6849","distance_km":7.29},{"id":17536,"code_insee":"27310","nom_standard":"Hacqueville","nom_a":null,"nom_de":null,"slug_ville":"hacqueville","departement_id":0,"code_postal":"27150","population":394,"superficie_km2":"985.35","latitude_centre":"49.2818","longitude_centre":"1.5585","distance_km":7.36},{"id":0,"code_insee":"27226","nom_standard":"Étrépagny","nom_a":null,"nom_de":null,"slug_ville":"etrepagny","departement_id":0,"code_postal":"27150","population":3670,"superficie_km2":"2039.94","latitude_centre":"49.3166","longitude_centre":"1.6123","distance_km":8.38},{"id":0,"code_insee":"95429","nom_standard":"Montreuil-sur-Epte","nom_a":null,"nom_de":null,"slug_ville":"montreuil-sur-epte","departement_id":0,"code_postal":"95770","population":377,"superficie_km2":"732.75","latitude_centre":"49.1689","longitude_centre":"1.6894","distance_km":9.02},{"id":17554,"code_insee":"27333","nom_standard":"Heudicourt","nom_a":null,"nom_de":null,"slug_ville":"heudicourt","departement_id":0,"code_postal":"27860","population":713,"superficie_km2":"1075.55","latitude_centre":"49.3329","longitude_centre":"1.6596","distance_km":10.01}]}