{"ville":{"id":397,"code_insee":"05179","nom_standard":"Veynes","nom_a":null,"nom_de":null,"slug_ville":"veynes","departement_id":605,"code_postal":"05400","population":3238,"superficie_km2":"44.00","latitude_centre":"44.5569992","longitude_centre":"5.8230000","dep_code":"05","dep_nom":"Hautes-Alpes","dep_slug":"hautes-alpes","reg_code":"18","reg_nom":"Provence-Alpes-Côte d'Azur","reg_slug":"provence-alpes-cote-d-azur"},"departement":{"code":"05","nom":"Hautes-Alpes","slug":"hautes-alpes"},"region":{"code":"18","nom":"Provence-Alpes-Côte d'Azur","slug":"provence-alpes-cote-d-azur"},"villes_proches":[{"id":388,"code_insee":"05123","nom_standard":"La Roche-des-Arnauds","nom_a":null,"nom_de":null,"slug_ville":"la-roche-des-arnauds","departement_id":605,"code_postal":"05400","population":1626,"superficie_km2":"53.00","latitude_centre":"44.5839996","longitude_centre":"5.9600000","distance_km":11.26},{"id":395,"code_insee":"05166","nom_standard":"Serres","nom_a":null,"nom_de":null,"slug_ville":"serres","departement_id":605,"code_postal":"05700","population":1297,"superficie_km2":"18.00","latitude_centre":"44.4210014","longitude_centre":"5.7160001","distance_km":17.34},{"id":382,"code_insee":"05061","nom_standard":"Gap","nom_a":null,"nom_de":null,"slug_ville":"gap","departement_id":605,"code_postal":"05000","population":40500,"superficie_km2":"109.00","latitude_centre":"44.5800018","longitude_centre":"6.0650001","distance_km":19.34},{"id":393,"code_insee":"05162","nom_standard":"La Saulce","nom_a":null,"nom_de":null,"slug_ville":"la-saulce","departement_id":605,"code_postal":"05110","population":1387,"superficie_km2":"7.00","latitude_centre":"44.4300003","longitude_centre":"6.0110002","distance_km":20.54},{"id":396,"code_insee":"05170","nom_standard":"Tallard","nom_a":null,"nom_de":null,"slug_ville":"tallard","departement_id":605,"code_postal":"05130","population":2312,"superficie_km2":"15.00","latitude_centre":"44.4589996","longitude_centre":"6.0450001","distance_km":20.7},{"id":384,"code_insee":"05070","nom_standard":"Laragne-Montéglin","nom_a":null,"nom_de":null,"slug_ville":"laragne-monteglin","departement_id":605,"code_postal":"05300","population":3585,"superficie_km2":"23.00","latitude_centre":"44.3339996","longitude_centre":"5.8160000","distance_km":24.8},{"id":389,"code_insee":"05132","nom_standard":"Saint-Bonnet-en-Champsaur","nom_a":null,"nom_de":null,"slug_ville":"saint-bonnet-en-champsaur","departement_id":605,"code_postal":"05500","population":2080,"superficie_km2":"15.00","latitude_centre":"44.6819992","longitude_centre":"6.1030002","distance_km":26.16},{"id":3687,"code_insee":"38226","nom_standard":"Mens","nom_a":null,"nom_de":null,"slug_ville":"mens","departement_id":639,"code_postal":"38710","population":1419,"superficie_km2":"28.00","latitude_centre":"44.8149986","longitude_centre":"5.7519999","distance_km":29.23},{"id":376,"code_insee":"05017","nom_standard":"La Bâtie-Neuve","nom_a":null,"nom_de":null,"slug_ville":"la-batie-neuve","departement_id":605,"code_postal":"05230","population":2595,"superficie_km2":"27.00","latitude_centre":"44.5800018","longitude_centre":"6.2129998","distance_km":31},{"id":358,"code_insee":"04123","nom_standard":"Mison","nom_a":null,"nom_de":null,"slug_ville":"mison","departement_id":604,"code_postal":"04200","population":1111,"superficie_km2":"32.00","latitude_centre":"44.2620010","longitude_centre":"5.8660002","distance_km":32.98},{"id":391,"code_insee":"05145","nom_standard":"Saint-Jean-Saint-Nicolas","nom_a":null,"nom_de":null,"slug_ville":"saint-jean-saint-nicolas","departement_id":605,"code_postal":"05260","population":1075,"superficie_km2":"38.00","latitude_centre":"44.6739998","longitude_centre":"6.2309999","distance_km":34.82},{"id":379,"code_insee":"05040","nom_standard":"Chorges","nom_a":null,"nom_de":null,"slug_ville":"chorges","departement_id":605,"code_postal":"05230","population":3065,"superficie_km2":"57.00","latitude_centre":"44.5460014","longitude_centre":"6.2880001","distance_km":36.87},{"id":387,"code_insee":"05118","nom_standard":"Val Buëch-Méouge","nom_a":null,"nom_de":null,"slug_ville":"val-buech-meouge","departement_id":605,"code_postal":"05300","population":1319,"superficie_km2":"37.00","latitude_centre":"44.2210007","longitude_centre":"5.8429999","distance_km":37.4},{"id":3702,"code_insee":"38269","nom_standard":"La Mure","nom_a":null,"nom_de":null,"slug_ville":"la-mure","departement_id":639,"code_postal":"38350","population":4917,"superficie_km2":"8.00","latitude_centre":"44.9099999","longitude_centre":"5.7880001","distance_km":39.35},{"id":370,"code_insee":"04209","nom_standard":"Sisteron","nom_a":null,"nom_de":null,"slug_ville":"sisteron","departement_id":604,"code_postal":"04200","population":7699,"superficie_km2":"51.00","latitude_centre":"44.2000008","longitude_centre":"5.9310002","distance_km":40.61},{"id":1914,"code_insee":"26113","nom_standard":"Die","nom_a":null,"nom_de":null,"slug_ville":"die","departement_id":627,"code_postal":"26150","population":4803,"superficie_km2":"57.00","latitude_centre":"44.7480011","longitude_centre":"5.3759999","distance_km":41.25},{"id":3807,"code_insee":"38499","nom_standard":"Susville","nom_a":null,"nom_de":null,"slug_ville":"susville","departement_id":639,"code_postal":"38350","population":1162,"superficie_km2":"10.00","latitude_centre":"44.9259987","longitude_centre":"5.7620001","distance_km":41.31},{"id":3694,"code_insee":"38242","nom_standard":"Monestier-de-Clermont","nom_a":null,"nom_de":null,"slug_ville":"monestier-de-clermont","departement_id":639,"code_postal":"38650","population":1447,"superficie_km2":"5.00","latitude_centre":"44.9210014","longitude_centre":"5.6360002","distance_km":43.09},{"id":3701,"code_insee":"38265","nom_standard":"La Motte-d'Aveillans","nom_a":null,"nom_de":null,"slug_ville":"la-motte-d-aveillans","departement_id":639,"code_postal":"38770","population":1717,"superficie_km2":"10.00","latitude_centre":"44.9539986","longitude_centre":"5.7410002","distance_km":44.62},{"id":3713,"code_insee":"38304","nom_standard":"Pierre-Châtel","nom_a":null,"nom_de":null,"slug_ville":"pierre-chatel","departement_id":639,"code_postal":"38119","population":1496,"superficie_km2":"12.00","latitude_centre":"44.9570007","longitude_centre":"5.7740002","distance_km":44.65}]}