{"ville":{"id":22016,"code_insee":"43261","nom_standard":"Vézézoux","nom_a":null,"nom_de":null,"slug_ville":"vezezoux","departement_id":0,"code_postal":"43390","population":635,"superficie_km2":"714.10","latitude_centre":"45.4057","longitude_centre":"3.3477","dep_code":"43","dep_nom":"Haute-Loire","dep_slug":"haute-loire","reg_code":"84","reg_nom":"Auvergne-Rhône-Alpes","reg_slug":"auvergne-rhone-alpes"},"departement":{"code":"43","nom":"Haute-Loire","slug":"haute-loire"},"region":{"code":"84","nom":"Auvergne-Rhône-Alpes","slug":"auvergne-rhone-alpes"},"villes_proches":[{"id":0,"code_insee":"63050","nom_standard":"Brassac-les-Mines","nom_a":null,"nom_de":null,"slug_ville":"brassac-les-mines","departement_id":0,"code_postal":"63570","population":3412,"superficie_km2":"712.35","latitude_centre":"45.4157","longitude_centre":"3.3188","distance_km":2.52},{"id":0,"code_insee":"43185","nom_standard":"Sainte-Florine","nom_a":null,"nom_de":null,"slug_ville":"sainte-florine","departement_id":0,"code_postal":"43250","population":3283,"superficie_km2":"766.03","latitude_centre":"45.4018","longitude_centre":"3.3096","distance_km":3.01},{"id":0,"code_insee":"63182","nom_standard":"Jumeaux","nom_a":null,"nom_de":null,"slug_ville":"jumeaux","departement_id":0,"code_postal":"63570","population":559,"superficie_km2":"721.57","latitude_centre":"45.4337","longitude_centre":"3.3493","distance_km":3.12},{"id":21835,"code_insee":"43016","nom_standard":"Auzon","nom_a":null,"nom_de":null,"slug_ville":"auzon","departement_id":0,"code_postal":"43390","population":858,"superficie_km2":"1703.92","latitude_centre":"45.3876","longitude_centre":"3.3795","distance_km":3.2},{"id":21901,"code_insee":"43099","nom_standard":"Frugerès-les-Mines","nom_a":null,"nom_de":null,"slug_ville":"frugeres-les-mines","departement_id":0,"code_postal":"43250","population":548,"superficie_km2":"106.68","latitude_centre":"45.3868","longitude_centre":"3.3082","distance_km":3.73},{"id":0,"code_insee":"63367","nom_standard":"Saint-Jean-Saint-Gervais","nom_a":null,"nom_de":null,"slug_ville":"saint-jean-saint-gervais","departement_id":0,"code_postal":"63570","population":126,"superficie_km2":"1446.98","latitude_centre":"45.4264","longitude_centre":"3.3897","distance_km":4.01},{"id":0,"code_insee":"43258","nom_standard":"Vergongheon","nom_a":null,"nom_de":null,"slug_ville":"vergongheon","departement_id":0,"code_postal":"43360","population":1797,"superficie_km2":"1207.19","latitude_centre":"45.3713","longitude_centre":"3.3301","distance_km":4.06},{"id":0,"code_insee":"63022","nom_standard":"Auzat-la-Combelle","nom_a":null,"nom_de":null,"slug_ville":"auzat-la-combelle","departement_id":0,"code_postal":"63570","population":1956,"superficie_km2":"1271.66","latitude_centre":"45.4495","longitude_centre":"3.3289","distance_km":5.09},{"id":0,"code_insee":"63091","nom_standard":"Charbonnier-les-Mines","nom_a":null,"nom_de":null,"slug_ville":"charbonnier-les-mines","departement_id":0,"code_postal":"63340","population":930,"superficie_km2":"337.16","latitude_centre":"45.4182","longitude_centre":"3.2811","distance_km":5.38},{"id":0,"code_insee":"63156","nom_standard":"Esteil","nom_a":null,"nom_de":null,"slug_ville":"esteil","departement_id":0,"code_postal":"63570","population":54,"superficie_km2":"456.46","latitude_centre":"45.4527","longitude_centre":"3.3651","distance_km":5.4},{"id":0,"code_insee":"43120","nom_standard":"Lempdes-sur-Allagnon","nom_a":null,"nom_de":null,"slug_ville":"lempdes-sur-allagnon","departement_id":0,"code_postal":"43410","population":1293,"superficie_km2":"1042.25","latitude_centre":"45.3792","longitude_centre":"3.279","distance_km":6.12},{"id":0,"code_insee":"63442","nom_standard":"Valz-sous-Châteauneuf","nom_a":null,"nom_de":null,"slug_ville":"valz-sous-chateauneuf","departement_id":0,"code_postal":"63580","population":52,"superficie_km2":"513.02","latitude_centre":"45.4307","longitude_centre":"3.4194","distance_km":6.25},{"id":0,"code_insee":"63031","nom_standard":"Beaulieu","nom_a":null,"nom_de":null,"slug_ville":"beaulieu","departement_id":0,"code_postal":"63570","population":473,"superficie_km2":"869.10","latitude_centre":"45.4437","longitude_centre":"3.2845","distance_km":6.49},{"id":21836,"code_insee":"43017","nom_standard":"Azérat","nom_a":null,"nom_de":null,"slug_ville":"azerat","departement_id":0,"code_postal":"43390","population":294,"superficie_km2":"1814.46","latitude_centre":"45.3532","longitude_centre":"3.3957","distance_km":6.94},{"id":0,"code_insee":"43038","nom_standard":"Bournoncle-Saint-Pierre","nom_a":null,"nom_de":null,"slug_ville":"bournoncle-saint-pierre","departement_id":0,"code_postal":"43360","population":1075,"superficie_km2":"1619.43","latitude_centre":"45.343","longitude_centre":"3.3277","distance_km":7.14},{"id":0,"code_insee":"63079","nom_standard":"Champagnat-le-Jeune","nom_a":null,"nom_de":null,"slug_ville":"champagnat-le-jeune","departement_id":0,"code_postal":"63580","population":149,"superficie_km2":"941.15","latitude_centre":"45.4426","longitude_centre":"3.4235","distance_km":7.2},{"id":0,"code_insee":"63088","nom_standard":"La Chapelle-sur-Usson","nom_a":null,"nom_de":null,"slug_ville":"la-chapelle-sur-usson","departement_id":0,"code_postal":"63580","population":85,"superficie_km2":"679.50","latitude_centre":"45.4633","longitude_centre":"3.39","distance_km":7.21},{"id":0,"code_insee":"63185","nom_standard":"Lamontgie","nom_a":null,"nom_de":null,"slug_ville":"lamontgie","departement_id":0,"code_postal":"63570","population":643,"superficie_km2":"710.80","latitude_centre":"45.4752","longitude_centre":"3.3311","distance_km":7.84},{"id":21882,"code_insee":"43074","nom_standard":"Cohade","nom_a":null,"nom_de":null,"slug_ville":"cohade","departement_id":0,"code_postal":"43100","population":893,"superficie_km2":"1010.04","latitude_centre":"45.3372","longitude_centre":"3.3728","distance_km":7.87},{"id":0,"code_insee":"63029","nom_standard":"Bansat","nom_a":null,"nom_de":null,"slug_ville":"bansat","departement_id":0,"code_postal":"63570","population":264,"superficie_km2":"1039.48","latitude_centre":"45.4848","longitude_centre":"3.3638","distance_km":8.88}]}