{"ville":{"id":22767,"code_insee":"47318","nom_standard":"Vianne","nom_a":null,"nom_de":null,"slug_ville":"vianne","departement_id":0,"code_postal":"47230","population":979,"superficie_km2":"989.32","latitude_centre":"44.2149","longitude_centre":"0.3202","dep_code":"47","dep_nom":"Lot-et-Garonne","dep_slug":"lot-et-garonne","reg_code":"75","reg_nom":"Nouvelle-Aquitaine","reg_slug":"nouvelle-aquitaine"},"departement":{"code":"47","nom":"Lot-et-Garonne","slug":"lot-et-garonne"},"region":{"code":"75","nom":"Nouvelle-Aquitaine","slug":"nouvelle-aquitaine"},"villes_proches":[{"id":22649,"code_insee":"47176","nom_standard":"Montgaillard-en-Albret","nom_a":null,"nom_de":null,"slug_ville":"montgaillard-en-albret","departement_id":0,"code_postal":"47230","population":167,"superficie_km2":"859.12","latitude_centre":"44.2097","longitude_centre":"0.2982","distance_km":1.85},{"id":0,"code_insee":"47097","nom_standard":"Feugarolles","nom_a":null,"nom_de":null,"slug_ville":"feugarolles","departement_id":0,"code_postal":"47230","population":1015,"superficie_km2":"2401.17","latitude_centre":"44.2134","longitude_centre":"0.3623","distance_km":3.36},{"id":0,"code_insee":"47143","nom_standard":"Lavardac","nom_a":null,"nom_de":null,"slug_ville":"lavardac","departement_id":0,"code_postal":"47230","population":2307,"superficie_km2":"1525.14","latitude_centre":"44.1821","longitude_centre":"0.3006","distance_km":3.97},{"id":0,"code_insee":"47043","nom_standard":"Buzet-sur-Baïse","nom_a":null,"nom_de":null,"slug_ville":"buzet-sur-baise","departement_id":0,"code_postal":"47160","population":1245,"superficie_km2":"2132.32","latitude_centre":"44.2515","longitude_centre":"0.304","distance_km":4.27},{"id":22758,"code_insee":"47308","nom_standard":"Thouars-sur-Garonne","nom_a":null,"nom_de":null,"slug_ville":"thouars-sur-garonne","departement_id":0,"code_postal":"47230","population":228,"superficie_km2":"401.56","latitude_centre":"44.2557","longitude_centre":"0.3304","distance_km":4.61},{"id":0,"code_insee":"47327","nom_standard":"Xaintrailles","nom_a":null,"nom_de":null,"slug_ville":"xaintrailles","departement_id":0,"code_postal":"47230","population":378,"superficie_km2":"1034.97","latitude_centre":"44.2077","longitude_centre":"0.2547","distance_km":5.28},{"id":22527,"code_insee":"47008","nom_standard":"Ambrus","nom_a":null,"nom_de":null,"slug_ville":"ambrus","departement_id":0,"code_postal":"47160","population":110,"superficie_km2":"1229.85","latitude_centre":"44.2319","longitude_centre":"0.2455","distance_km":6.25},{"id":22724,"code_insee":"47267","nom_standard":"Saint-Pierre-de-Buzet","nom_a":null,"nom_de":null,"slug_ville":"saint-pierre-de-buzet","departement_id":0,"code_postal":"47160","population":274,"superficie_km2":"854.50","latitude_centre":"44.2594","longitude_centre":"0.2673","distance_km":6.5},{"id":22552,"code_insee":"47041","nom_standard":"Bruch","nom_a":null,"nom_de":null,"slug_ville":"bruch","departement_id":0,"code_postal":"47130","population":688,"superficie_km2":"1603.13","latitude_centre":"44.2069","longitude_centre":"0.4053","distance_km":6.84},{"id":22587,"code_insee":"47090","nom_standard":"Espiens","nom_a":null,"nom_de":null,"slug_ville":"espiens","departement_id":0,"code_postal":"47600","population":358,"superficie_km2":"1767.29","latitude_centre":"44.1709","longitude_centre":"0.3822","distance_km":6.95},{"id":0,"code_insee":"47210","nom_standard":"Port-Sainte-Marie","nom_a":null,"nom_de":null,"slug_ville":"port-sainte-marie","departement_id":0,"code_postal":"47130","population":1887,"superficie_km2":"1903.91","latitude_centre":"44.2649","longitude_centre":"0.3735","distance_km":7.0},{"id":22709,"code_insee":"47249","nom_standard":"Saint-Laurent","nom_a":null,"nom_de":null,"slug_ville":"saint-laurent","departement_id":0,"code_postal":"47130","population":431,"superficie_km2":"424.29","latitude_centre":"44.2372","longitude_centre":"0.4043","distance_km":7.15},{"id":0,"code_insee":"47078","nom_standard":"Damazan","nom_a":null,"nom_de":null,"slug_ville":"damazan","departement_id":0,"code_postal":"47160","population":1358,"superficie_km2":"1645.26","latitude_centre":"44.2827","longitude_centre":"0.2765","distance_km":8.3},{"id":0,"code_insee":"47021","nom_standard":"Barbaste","nom_a":null,"nom_de":null,"slug_ville":"barbaste","departement_id":0,"code_postal":"47230","population":1488,"superficie_km2":"3886.36","latitude_centre":"44.1622","longitude_centre":"0.2382","distance_km":8.78},{"id":0,"code_insee":"47195","nom_standard":"Nérac","nom_a":null,"nom_de":null,"slug_ville":"nerac","departement_id":0,"code_postal":"47600","population":6992,"superficie_km2":"6276.40","latitude_centre":"44.1339","longitude_centre":"0.347","distance_km":9.26},{"id":22710,"code_insee":"47250","nom_standard":"Saint-Léger","nom_a":null,"nom_de":null,"slug_ville":"saint-leger","departement_id":0,"code_postal":"47160","population":177,"superficie_km2":"575.36","latitude_centre":"44.2988","longitude_centre":"0.3138","distance_km":9.34},{"id":22562,"code_insee":"47058","nom_standard":"Caubeyres","nom_a":null,"nom_de":null,"slug_ville":"caubeyres","departement_id":0,"code_postal":"47160","population":277,"superficie_km2":"1451.25","latitude_centre":"44.2571","longitude_centre":"0.214","distance_km":9.67},{"id":22617,"code_insee":"47129","nom_standard":"Lagarrigue","nom_a":null,"nom_de":null,"slug_ville":"lagarrigue","departement_id":0,"code_postal":"47190","population":272,"superficie_km2":"442.65","latitude_centre":"44.2904","longitude_centre":"0.3849","distance_km":9.85},{"id":0,"code_insee":"47004","nom_standard":"Aiguillon","nom_a":null,"nom_de":null,"slug_ville":"aiguillon","departement_id":0,"code_postal":"47190","population":3968,"superficie_km2":"2839.29","latitude_centre":"44.2989","longitude_centre":"0.362","distance_km":9.92},{"id":22711,"code_insee":"47251","nom_standard":"Saint-Léon","nom_a":null,"nom_de":null,"slug_ville":"saint-leon","departement_id":0,"code_postal":"47160","population":329,"superficie_km2":"958.62","latitude_centre":"44.2874","longitude_centre":"0.2386","distance_km":10.36}]}