{"ville":{"id":20134,"code_insee":"35356","nom_standard":"Vignoc","nom_a":null,"nom_de":null,"slug_ville":"vignoc","departement_id":0,"code_postal":"35630","population":2329,"superficie_km2":"1428.42","latitude_centre":"48.2589","longitude_centre":"-1.7644","dep_code":"35","dep_nom":"Ille-et-Vilaine","dep_slug":"ille-et-vilaine","reg_code":"53","reg_nom":"Bretagne","reg_slug":"bretagne"},"departement":{"code":"35","nom":"Ille-et-Vilaine","slug":"ille-et-vilaine"},"region":{"code":"53","nom":"Bretagne","slug":"bretagne"},"villes_proches":[{"id":20066,"code_insee":"35146","nom_standard":"Langouet","nom_a":null,"nom_de":null,"slug_ville":"langouet","departement_id":0,"code_postal":"35630","population":604,"superficie_km2":"711.76","latitude_centre":"48.2561","longitude_centre":"-1.8133","distance_km":3.63},{"id":20118,"code_insee":"35317","nom_standard":"Saint-Symphorien","nom_a":null,"nom_de":null,"slug_ville":"saint-symphorien","departement_id":0,"code_postal":"35630","population":625,"superficie_km2":"795.70","latitude_centre":"48.2814","longitude_centre":"-1.8022","distance_km":3.75},{"id":0,"code_insee":"35193","nom_standard":"Montreuil-le-Gast","nom_a":null,"nom_de":null,"slug_ville":"montreuil-le-gast","departement_id":0,"code_postal":"35520","population":2080,"superficie_km2":"921.86","latitude_centre":"48.2414","longitude_centre":"-1.7173","distance_km":3.99},{"id":20107,"code_insee":"35276","nom_standard":"Saint-Gondran","nom_a":null,"nom_de":null,"slug_ville":"saint-gondran","departement_id":0,"code_postal":"35630","population":651,"superficie_km2":"444.34","latitude_centre":"48.2693","longitude_centre":"-1.823","distance_km":4.49},{"id":0,"code_insee":"35130","nom_standard":"Hédé-Bazouges","nom_a":null,"nom_de":null,"slug_ville":"hede-bazouges","departement_id":0,"code_postal":"35630","population":2267,"superficie_km2":"1475.77","latitude_centre":"48.3009","longitude_centre":"-1.7777","distance_km":4.77},{"id":0,"code_insee":"35128","nom_standard":"Guipel","nom_a":null,"nom_de":null,"slug_ville":"guipel","departement_id":0,"code_postal":"35440","population":1738,"superficie_km2":"2549.04","latitude_centre":"48.2942","longitude_centre":"-1.7244","distance_km":4.92},{"id":0,"code_insee":"35177","nom_standard":"La Mézière","nom_a":null,"nom_de":null,"slug_ville":"la-meziere","departement_id":0,"code_postal":"35520","population":5033,"superficie_km2":"1642.41","latitude_centre":"48.2135","longitude_centre":"-1.7504","distance_km":5.15},{"id":0,"code_insee":"35120","nom_standard":"Gévezé","nom_a":null,"nom_de":null,"slug_ville":"geveze","departement_id":0,"code_postal":"35850","population":6061,"superficie_km2":"2780.21","latitude_centre":"48.2075","longitude_centre":"-1.7918","distance_km":6.07},{"id":0,"code_insee":"35296","nom_standard":"Saint-Médard-sur-Ille","nom_a":null,"nom_de":null,"slug_ville":"saint-medard-sur-ille","departement_id":0,"code_postal":"35250","population":1377,"superficie_km2":"1834.85","latitude_centre":"48.2764","longitude_centre":"-1.6803","distance_km":6.52},{"id":0,"code_insee":"35144","nom_standard":"Langan","nom_a":null,"nom_de":null,"slug_ville":"langan","departement_id":0,"code_postal":"35850","population":1106,"superficie_km2":"778.85","latitude_centre":"48.237","longitude_centre":"-1.8481","distance_km":6.66},{"id":0,"code_insee":"35173","nom_standard":"Melesse","nom_a":null,"nom_de":null,"slug_ville":"melesse","departement_id":0,"code_postal":"35520","population":7541,"superficie_km2":"3251.07","latitude_centre":"48.2192","longitude_centre":"-1.6887","distance_km":7.14},{"id":0,"code_insee":"35058","nom_standard":"La Chapelle-Chaussée","nom_a":null,"nom_de":null,"slug_ville":"la-chapelle-chaussee","departement_id":0,"code_postal":"35630","population":1298,"superficie_km2":"1478.86","latitude_centre":"48.2688","longitude_centre":"-1.8653","distance_km":7.55},{"id":20100,"code_insee":"35258","nom_standard":"Saint-Brieuc-des-Iffs","nom_a":null,"nom_de":null,"slug_ville":"saint-brieuc-des-iffs","departement_id":0,"code_postal":"35630","population":330,"superficie_km2":"822.78","latitude_centre":"48.3033","longitude_centre":"-1.8446","distance_km":7.72},{"id":0,"code_insee":"35337","nom_standard":"Tinténiac","nom_a":null,"nom_de":null,"slug_ville":"tinteniac","departement_id":0,"code_postal":"35190","population":3939,"superficie_km2":"2347.04","latitude_centre":"48.3182","longitude_centre":"-1.8298","distance_km":8.18},{"id":20062,"code_insee":"35134","nom_standard":"Les Iffs","nom_a":null,"nom_de":null,"slug_ville":"les-iffs","departement_id":0,"code_postal":"35630","population":274,"superficie_km2":"450.63","latitude_centre":"48.2953","longitude_centre":"-1.8652","distance_km":8.49},{"id":0,"code_insee":"35195","nom_standard":"Montreuil-sur-Ille","nom_a":null,"nom_de":null,"slug_ville":"montreuil-sur-ille","departement_id":0,"code_postal":"35440","population":2420,"superficie_km2":"1527.18","latitude_centre":"48.3053","longitude_centre":"-1.668","distance_km":8.8},{"id":0,"code_insee":"35216","nom_standard":"Parthenay-de-Bretagne","nom_a":null,"nom_de":null,"slug_ville":"parthenay-de-bretagne","departement_id":0,"code_postal":"35850","population":1793,"superficie_km2":"486.73","latitude_centre":"48.1882","longitude_centre":"-1.829","distance_km":9.2},{"id":0,"code_insee":"35059","nom_standard":"La Chapelle-des-Fougeretz","nom_a":null,"nom_de":null,"slug_ville":"la-chapelle-des-fougeretz","departement_id":0,"code_postal":"35520","population":4738,"superficie_km2":"873.29","latitude_centre":"48.1774","longitude_centre":"-1.7374","distance_km":9.28},{"id":0,"code_insee":"35094","nom_standard":"Dingé","nom_a":null,"nom_de":null,"slug_ville":"dinge","departement_id":0,"code_postal":"35440","population":1705,"superficie_km2":"5351.92","latitude_centre":"48.3414","longitude_centre":"-1.7011","distance_km":10.3},{"id":0,"code_insee":"35210","nom_standard":"Pacé","nom_a":null,"nom_de":null,"slug_ville":"pace","departement_id":0,"code_postal":"35740","population":11703,"superficie_km2":"3494.36","latitude_centre":"48.1535","longitude_centre":"-1.7744","distance_km":11.74}]}