{"ville":{"id":17082,"code_insee":"25624","nom_standard":"Villers-Grélot","nom_a":null,"nom_de":null,"slug_ville":"villers-grelot","departement_id":0,"code_postal":"25640","population":152,"superficie_km2":"713.88","latitude_centre":"47.362","longitude_centre":"6.2357","dep_code":"25","dep_nom":"Doubs","dep_slug":"doubs","reg_code":"27","reg_nom":"Bourgogne-Franche-Comté","reg_slug":"bourgogne-franche-comte"},"departement":{"code":"25","nom":"Doubs","slug":"doubs"},"region":{"code":"27","nom":"Bourgogne-Franche-Comté","slug":"bourgogne-franche-comte"},"villes_proches":[{"id":16970,"code_insee":"25474","nom_standard":"Le Puy","nom_a":null,"nom_de":null,"slug_ville":"le-puy","departement_id":0,"code_postal":"25640","population":104,"superficie_km2":"353.64","latitude_centre":"47.3455","longitude_centre":"6.2327","distance_km":1.85},{"id":16783,"code_insee":"25215","nom_standard":"L'Écouvotte","nom_a":null,"nom_de":null,"slug_ville":"l-ecouvotte","departement_id":0,"code_postal":"25640","population":101,"superficie_km2":"209.22","latitude_centre":"47.3443","longitude_centre":"6.2519","distance_km":2.32},{"id":17038,"code_insee":"25566","nom_standard":"La Tour-de-Sçay","nom_a":null,"nom_de":null,"slug_ville":"la-tour-de-scay","departement_id":0,"code_postal":"25640","population":315,"superficie_km2":"889.28","latitude_centre":"47.383","longitude_centre":"6.2239","distance_km":2.5},{"id":17047,"code_insee":"25579","nom_standard":"Val-de-Roulans","nom_a":null,"nom_de":null,"slug_ville":"val-de-roulans","departement_id":0,"code_postal":"25640","population":190,"superficie_km2":"296.10","latitude_centre":"47.3606","longitude_centre":"6.2692","distance_km":2.53},{"id":17006,"code_insee":"25518","nom_standard":"Saint-Hilaire","nom_a":null,"nom_de":null,"slug_ville":"saint-hilaire","departement_id":0,"code_postal":"25640","population":157,"superficie_km2":"260.30","latitude_centre":"47.3347","longitude_centre":"6.2448","distance_km":3.11},{"id":17062,"code_insee":"25599","nom_standard":"Vennans","nom_a":null,"nom_de":null,"slug_ville":"vennans","departement_id":0,"code_postal":"25640","population":248,"superficie_km2":"138.25","latitude_centre":"47.3311","longitude_centre":"6.2357","distance_km":3.44},{"id":16997,"code_insee":"25506","nom_standard":"Rougemontot","nom_a":null,"nom_de":null,"slug_ville":"rougemontot","departement_id":0,"code_postal":"25640","population":87,"superficie_km2":"419.99","latitude_centre":"47.3877","longitude_centre":"6.2631","distance_km":3.52},{"id":16689,"code_insee":"25088","nom_standard":"Breconchaux","nom_a":null,"nom_de":null,"slug_ville":"breconchaux","departement_id":0,"code_postal":"25640","population":85,"superficie_km2":"332.32","latitude_centre":"47.342","longitude_centre":"6.2726","distance_km":3.56},{"id":16693,"code_insee":"25092","nom_standard":"La Bretenière","nom_a":null,"nom_de":null,"slug_ville":"la-breteniere","departement_id":0,"code_postal":"25640","population":74,"superficie_km2":"418.74","latitude_centre":"47.3792","longitude_centre":"6.2756","distance_km":3.56},{"id":16708,"code_insee":"25107","nom_standard":"Cendrey","nom_a":null,"nom_de":null,"slug_ville":"cendrey","departement_id":0,"code_postal":"25640","population":200,"superficie_km2":"557.86","latitude_centre":"47.3935","longitude_centre":"6.2446","distance_km":3.57},{"id":16984,"code_insee":"25491","nom_standard":"Rignosot","nom_a":null,"nom_de":null,"slug_ville":"rignosot","departement_id":0,"code_postal":"25640","population":106,"superficie_km2":"388.16","latitude_centre":"47.3821","longitude_centre":"6.1988","distance_km":3.57},{"id":16964,"code_insee":"25468","nom_standard":"Pouligney-Lusans","nom_a":null,"nom_de":null,"slug_ville":"pouligney-lusans","departement_id":0,"code_postal":"25640","population":850,"superficie_km2":"1166.90","latitude_centre":"47.3389","longitude_centre":"6.1998","distance_km":3.73},{"id":16746,"code_insee":"25163","nom_standard":"Corcelle-Mieslot","nom_a":null,"nom_de":null,"slug_ville":"corcelle-mieslot","departement_id":0,"code_postal":"25640","population":88,"superficie_km2":"645.66","latitude_centre":"47.3604","longitude_centre":"6.182","distance_km":4.05},{"id":17019,"code_insee":"25538","nom_standard":"Séchin","nom_a":null,"nom_de":null,"slug_ville":"sechin","departement_id":0,"code_postal":"25110","population":114,"superficie_km2":"108.58","latitude_centre":"47.3413","longitude_centre":"6.2854","distance_km":4.4},{"id":16983,"code_insee":"25490","nom_standard":"Rigney","nom_a":null,"nom_de":null,"slug_ville":"rigney","departement_id":0,"code_postal":"25640","population":367,"superficie_km2":"948.32","latitude_centre":"47.3844","longitude_centre":"6.1848","distance_km":4.57},{"id":0,"code_insee":"25508","nom_standard":"Roulans","nom_a":null,"nom_de":null,"slug_ville":"roulans","departement_id":0,"code_postal":"25640","population":1125,"superficie_km2":"830.85","latitude_centre":"47.3187","longitude_centre":"6.2361","distance_km":4.81},{"id":16660,"code_insee":"25045","nom_standard":"Battenans-les-Mines","nom_a":null,"nom_de":null,"slug_ville":"battenans-les-mines","departement_id":0,"code_postal":"25640","population":38,"superficie_km2":"285.43","latitude_centre":"47.4034","longitude_centre":"6.2702","distance_km":5.29},{"id":16941,"code_insee":"25439","nom_standard":"Ougney-Douvot","nom_a":null,"nom_de":null,"slug_ville":"ougney-douvot","departement_id":0,"code_postal":"25640","population":252,"superficie_km2":"661.68","latitude_centre":"47.3184","longitude_centre":"6.2707","distance_km":5.52},{"id":16805,"code_insee":"25242","nom_standard":"Flagey-Rigney","nom_a":null,"nom_de":null,"slug_ville":"flagey-rigney","departement_id":0,"code_postal":"25640","population":137,"superficie_km2":"296.62","latitude_centre":"47.4147","longitude_centre":"6.2196","distance_km":5.98},{"id":16934,"code_insee":"25430","nom_standard":"Ollans","nom_a":null,"nom_de":null,"slug_ville":"ollans","departement_id":0,"code_postal":"25640","population":43,"superficie_km2":"222.98","latitude_centre":"47.4208","longitude_centre":"6.2455","distance_km":6.58}]}