{"ville":{"id":27083,"code_insee":"60687","nom_standard":"Villers-sur-Auchy","nom_a":null,"nom_de":null,"slug_ville":"villers-sur-auchy","departement_id":0,"code_postal":"60650","population":370,"superficie_km2":"877.25","latitude_centre":"49.4752","longitude_centre":"1.7901","dep_code":"60","dep_nom":"Oise","dep_slug":"oise","reg_code":"32","reg_nom":"Hauts-de-France","reg_slug":"hauts-de-france"},"departement":{"code":"60","nom":"Oise","slug":"oise"},"region":{"code":"32","nom":"Hauts-de-France","slug":"hauts-de-france"},"villes_proches":[{"id":0,"code_insee":"76260","nom_standard":"Ferrières-en-Bray","nom_a":null,"nom_de":null,"slug_ville":"ferrieres-en-bray","departement_id":0,"code_postal":"76220","population":1669,"superficie_km2":"1585.89","latitude_centre":"49.4863","longitude_centre":"1.758","distance_km":2.63},{"id":27027,"code_insee":"60611","nom_standard":"Senantes","nom_a":null,"nom_de":null,"slug_ville":"senantes","departement_id":0,"code_postal":"60650","population":577,"superficie_km2":"2003.74","latitude_centre":"49.4818","longitude_centre":"1.8336","distance_km":3.23},{"id":26797,"code_insee":"60296","nom_standard":"Hannaches","nom_a":null,"nom_de":null,"slug_ville":"hannaches","departement_id":0,"code_postal":"60650","population":132,"superficie_km2":"955.09","latitude_centre":"49.5085","longitude_centre":"1.8105","distance_km":3.99},{"id":0,"code_insee":"60577","nom_standard":"Saint-Germer-de-Fly","nom_a":null,"nom_de":null,"slug_ville":"saint-germer-de-fly","departement_id":0,"code_postal":"60850","population":1662,"superficie_km2":"2000.83","latitude_centre":"49.4383","longitude_centre":"1.7809","distance_km":4.16},{"id":0,"code_insee":"76312","nom_standard":"Gournay-en-Bray","nom_a":null,"nom_de":null,"slug_ville":"gournay-en-bray","departement_id":0,"code_postal":"76220","population":5723,"superficie_km2":"1041.48","latitude_centre":"49.4763","longitude_centre":"1.7168","distance_km":5.3},{"id":26806,"code_insee":"60306","nom_standard":"Hécourt","nom_a":null,"nom_de":null,"slug_ville":"hecourt","departement_id":0,"code_postal":"60380","population":149,"superficie_km2":"750.14","latitude_centre":"49.5225","longitude_centre":"1.7796","distance_km":5.31},{"id":26628,"code_insee":"60073","nom_standard":"Blacourt","nom_a":null,"nom_de":null,"slug_ville":"blacourt","departement_id":0,"code_postal":"60650","population":592,"superficie_km2":"1150.90","latitude_centre":"49.4579","longitude_centre":"1.8598","distance_km":5.39},{"id":27015,"code_insee":"60594","nom_standard":"Saint-Quentin-des-Prés","nom_a":null,"nom_de":null,"slug_ville":"saint-quentin-des-pres","departement_id":0,"code_postal":"60380","population":285,"superficie_km2":"1085.19","latitude_centre":"49.5192","longitude_centre":"1.7456","distance_km":5.85},{"id":26706,"code_insee":"60187","nom_standard":"Cuigy-en-Bray","nom_a":null,"nom_de":null,"slug_ville":"cuigy-en-bray","departement_id":0,"code_postal":"60850","population":987,"superficie_km2":"983.35","latitude_centre":"49.4319","longitude_centre":"1.837","distance_km":5.89},{"id":27073,"code_insee":"60677","nom_standard":"Villembray","nom_a":null,"nom_de":null,"slug_ville":"villembray","departement_id":0,"code_postal":"60650","population":247,"superficie_km2":"659.89","latitude_centre":"49.4828","longitude_centre":"1.8729","distance_km":6.04},{"id":0,"code_insee":"76242","nom_standard":"Ernemont-la-Villette","nom_a":null,"nom_de":null,"slug_ville":"ernemont-la-villette","departement_id":0,"code_postal":"76220","population":218,"superficie_km2":"751.48","latitude_centre":"49.4543","longitude_centre":"1.7111","distance_km":6.16},{"id":27013,"code_insee":"60592","nom_standard":"Saint-Pierre-es-Champs","nom_a":null,"nom_de":null,"slug_ville":"saint-pierre-es-champs","departement_id":0,"code_postal":"60850","population":672,"superficie_km2":"1088.56","latitude_centre":"49.4262","longitude_centre":"1.747","distance_km":6.28},{"id":0,"code_insee":"60699","nom_standard":"Wambez","nom_a":null,"nom_de":null,"slug_ville":"wambez","departement_id":0,"code_postal":"60380","population":158,"superficie_km2":"459.24","latitude_centre":"49.5217","longitude_centre":"1.8437","distance_km":6.46},{"id":26959,"code_insee":"60516","nom_standard":"Puiseux-en-Bray","nom_a":null,"nom_de":null,"slug_ville":"puiseux-en-bray","departement_id":0,"code_postal":"60850","population":398,"superficie_km2":"804.50","latitude_centre":"49.4126","longitude_centre":"1.7759","distance_km":7.04},{"id":26659,"code_insee":"60114","nom_standard":"Buicourt","nom_a":null,"nom_de":null,"slug_ville":"buicourt","departement_id":0,"code_postal":"60380","population":143,"superficie_km2":"351.20","latitude_centre":"49.5367","longitude_centre":"1.8157","distance_km":7.08},{"id":0,"code_insee":"76440","nom_standard":"Molagnies","nom_a":null,"nom_de":null,"slug_ville":"molagnies","departement_id":0,"code_postal":"76220","population":209,"superficie_km2":"462.57","latitude_centre":"49.524","longitude_centre":"1.7256","distance_km":7.15},{"id":26777,"code_insee":"60271","nom_standard":"Gerberoy","nom_a":null,"nom_de":null,"slug_ville":"gerberoy","departement_id":0,"code_postal":"60380","population":82,"superficie_km2":"453.02","latitude_centre":"49.539","longitude_centre":"1.8431","distance_km":8.06},{"id":27037,"code_insee":"60624","nom_standard":"Sully","nom_a":null,"nom_de":null,"slug_ville":"sully","departement_id":0,"code_postal":"60380","population":165,"superficie_km2":"485.52","latitude_centre":"49.5602","longitude_centre":"1.7773","distance_km":9.5},{"id":26835,"code_insee":"60343","nom_standard":"Lalande-en-Son","nom_a":null,"nom_de":null,"slug_ville":"lalande-en-son","departement_id":0,"code_postal":"60590","population":606,"superficie_km2":"603.97","latitude_centre":"49.3895","longitude_centre":"1.7845","distance_km":9.54},{"id":26732,"code_insee":"60217","nom_standard":"Escames","nom_a":null,"nom_de":null,"slug_ville":"escames","departement_id":0,"code_postal":"60380","population":226,"superficie_km2":"1176.37","latitude_centre":"49.5608","longitude_centre":"1.8006","distance_km":9.55}]}