{"ville":{"id":13225,"code_insee":"11417","nom_standard":"Villarzel-du-Razès","nom_a":null,"nom_de":null,"slug_ville":"villarzel-du-razes","departement_id":0,"code_postal":"11300","population":100,"superficie_km2":"1297.29","latitude_centre":"43.1447","longitude_centre":"2.2009","dep_code":"11","dep_nom":"Aude","dep_slug":"aude","reg_code":"76","reg_nom":"Occitanie","reg_slug":"occitanie"},"departement":{"code":"11","nom":"Aude","slug":"aude"},"region":{"code":"76","nom":"Occitanie","slug":"occitanie"},"villes_proches":[{"id":13058,"code_insee":"11216","nom_standard":"Malviès","nom_a":null,"nom_de":null,"slug_ville":"malvies","departement_id":0,"code_postal":"11300","population":361,"superficie_km2":"746.35","latitude_centre":"43.1178","longitude_centre":"2.188","distance_km":3.17},{"id":12924,"code_insee":"11053","nom_standard":"Brugairolles","nom_a":null,"nom_de":null,"slug_ville":"brugairolles","departement_id":0,"code_postal":"11300","population":308,"superficie_km2":"881.24","latitude_centre":"43.1331","longitude_centre":"2.165","distance_km":3.19},{"id":13082,"code_insee":"11242","nom_standard":"Montclar","nom_a":null,"nom_de":null,"slug_ville":"montclar","departement_id":0,"code_postal":"11250","population":178,"superficie_km2":"1161.68","latitude_centre":"43.1411","longitude_centre":"2.2456","distance_km":3.65},{"id":13170,"code_insee":"11355","nom_standard":"Saint-Martin-de-Villereglan","nom_a":null,"nom_de":null,"slug_ville":"saint-martin-de-villereglan","departement_id":0,"code_postal":"11300","population":403,"superficie_km2":"968.90","latitude_centre":"43.1034","longitude_centre":"2.2082","distance_km":4.63},{"id":12954,"code_insee":"11090","nom_standard":"Cépie","nom_a":null,"nom_de":null,"slug_ville":"cepie","departement_id":0,"code_postal":"11300","population":598,"superficie_km2":"683.62","latitude_centre":"43.1074","longitude_centre":"2.2397","distance_km":5.21},{"id":0,"code_insee":"11005","nom_standard":"Alairac","nom_a":null,"nom_de":null,"slug_ville":"alairac","departement_id":0,"code_postal":"11290","population":1395,"superficie_km2":"1663.79","latitude_centre":"43.1848","longitude_centre":"2.2387","distance_km":5.41},{"id":12929,"code_insee":"11058","nom_standard":"Cailhau","nom_a":null,"nom_de":null,"slug_ville":"cailhau","departement_id":0,"code_postal":"11240","population":247,"superficie_km2":"1009.59","latitude_centre":"43.1448","longitude_centre":"2.1325","distance_km":5.55},{"id":0,"code_insee":"11018","nom_standard":"Arzens","nom_a":null,"nom_de":null,"slug_ville":"arzens","departement_id":0,"code_postal":"11290","population":1174,"superficie_km2":"2180.83","latitude_centre":"43.1968","longitude_centre":"2.2082","distance_km":5.82},{"id":13146,"code_insee":"11327","nom_standard":"Roullens","nom_a":null,"nom_de":null,"slug_ville":"roullens","departement_id":0,"code_postal":"11290","population":588,"superficie_km2":"814.00","latitude_centre":"43.1666","longitude_centre":"2.2672","distance_km":5.9},{"id":13044,"code_insee":"11197","nom_standard":"Lauraguel","nom_a":null,"nom_de":null,"slug_ville":"lauraguel","departement_id":0,"code_postal":"11300","population":622,"superficie_km2":"724.38","latitude_centre":"43.0964","longitude_centre":"2.1698","distance_km":5.93},{"id":13122,"code_insee":"11299","nom_standard":"Preixan","nom_a":null,"nom_de":null,"slug_ville":"preixan","departement_id":0,"code_postal":"11250","population":637,"superficie_km2":"857.99","latitude_centre":"43.1437","longitude_centre":"2.2781","distance_km":6.26},{"id":12932,"code_insee":"11061","nom_standard":"Cambieure","nom_a":null,"nom_de":null,"slug_ville":"cambieure","departement_id":0,"code_postal":"11240","population":327,"superficie_km2":"336.11","latitude_centre":"43.1268","longitude_centre":"2.1267","distance_km":6.34},{"id":12930,"code_insee":"11059","nom_standard":"Cailhavel","nom_a":null,"nom_de":null,"slug_ville":"cailhavel","departement_id":0,"code_postal":"11240","population":154,"superficie_km2":"564.55","latitude_centre":"43.1669","longitude_centre":"2.1234","distance_km":6.75},{"id":13147,"code_insee":"11328","nom_standard":"Routier","nom_a":null,"nom_de":null,"slug_ville":"routier","departement_id":0,"code_postal":"11240","population":231,"superficie_km2":"1187.35","latitude_centre":"43.1042","longitude_centre":"2.136","distance_km":6.93},{"id":13144,"code_insee":"11325","nom_standard":"Rouffiac-d'Aude","nom_a":null,"nom_de":null,"slug_ville":"rouffiac-d-aude","departement_id":0,"code_postal":"11250","population":514,"superficie_km2":"551.16","latitude_centre":"43.1249","longitude_centre":"2.283","distance_km":7.02},{"id":0,"code_insee":"11254","nom_standard":"Montréal","nom_a":null,"nom_de":null,"slug_ville":"montreal","departement_id":0,"code_postal":"11290","population":2136,"superficie_km2":"5635.77","latitude_centre":"43.1967","longitude_centre":"2.1448","distance_km":7.36},{"id":13011,"code_insee":"11158","nom_standard":"Gaja-et-Villedieu","nom_a":null,"nom_de":null,"slug_ville":"gaja-et-villedieu","departement_id":0,"code_postal":"11300","population":306,"superficie_km2":"797.66","latitude_centre":"43.0794","longitude_centre":"2.1842","distance_km":7.39},{"id":0,"code_insee":"11199","nom_standard":"Lavalette","nom_a":null,"nom_de":null,"slug_ville":"lavalette","departement_id":0,"code_postal":"11290","population":1612,"superficie_km2":"677.15","latitude_centre":"43.1932","longitude_centre":"2.2717","distance_km":7.88},{"id":13114,"code_insee":"11289","nom_standard":"Pieusse","nom_a":null,"nom_de":null,"slug_ville":"pieusse","departement_id":0,"code_postal":"11300","population":970,"superficie_km2":"1335.98","latitude_centre":"43.0812","longitude_centre":"2.2525","distance_km":8.21},{"id":13105,"code_insee":"11274","nom_standard":"Pauligne","nom_a":null,"nom_de":null,"slug_ville":"pauligne","departement_id":0,"code_postal":"11300","population":357,"superficie_km2":"631.28","latitude_centre":"43.0767","longitude_centre":"2.1486","distance_km":8.67}]}