{"ville":{"id":30571,"code_insee":"70562","nom_standard":"Villers-la-Ville","nom_a":null,"nom_de":null,"slug_ville":"villers-la-ville","departement_id":0,"code_postal":"70110","population":151,"superficie_km2":"587.38","latitude_centre":"47.5496","longitude_centre":"6.4662","dep_code":"70","dep_nom":"Haute-Saône","dep_slug":"haute-saone","reg_code":"27","reg_nom":"Bourgogne-Franche-Comté","reg_slug":"bourgogne-franche-comte"},"departement":{"code":"70","nom":"Haute-Saône","slug":"haute-saone"},"region":{"code":"27","nom":"Bourgogne-Franche-Comté","slug":"bourgogne-franche-comte"},"villes_proches":[{"id":30564,"code_insee":"70553","nom_standard":"Villargent","nom_a":null,"nom_de":null,"slug_ville":"villargent","departement_id":0,"code_postal":"70110","population":117,"superficie_km2":"290.73","latitude_centre":"47.5419","longitude_centre":"6.4865","distance_km":1.75},{"id":30161,"code_insee":"70072","nom_standard":"Beveuge","nom_a":null,"nom_de":null,"slug_ville":"beveuge","departement_id":0,"code_postal":"70110","population":87,"superficie_km2":"524.24","latitude_centre":"47.5579","longitude_centre":"6.4902","distance_km":2.02},{"id":30495,"code_insee":"70474","nom_standard":"Saint-Sulpice","nom_a":null,"nom_de":null,"slug_ville":"saint-sulpice","departement_id":0,"code_postal":"70110","population":119,"superficie_km2":"355.03","latitude_centre":"47.5697","longitude_centre":"6.4511","distance_km":2.51},{"id":30487,"code_insee":"70462","nom_standard":"Saint-Ferjeux","nom_a":null,"nom_de":null,"slug_ville":"saint-ferjeux","departement_id":0,"code_postal":"70110","population":78,"superficie_km2":"175.97","latitude_centre":"47.5462","longitude_centre":"6.5059","distance_km":3.0},{"id":30570,"code_insee":"70561","nom_standard":"Villersexel","nom_a":null,"nom_de":null,"slug_ville":"villersexel","departement_id":0,"code_postal":"70110","population":1431,"superficie_km2":"1327.98","latitude_centre":"47.5603","longitude_centre":"6.4264","distance_km":3.21},{"id":30370,"code_insee":"70317","nom_standard":"Les Magny","nom_a":null,"nom_de":null,"slug_ville":"les-magny","departement_id":0,"code_postal":"70110","population":142,"superficie_km2":"1157.78","latitude_centre":"47.5263","longitude_centre":"6.4395","distance_km":3.28},{"id":30386,"code_insee":"70336","nom_standard":"Mélecey","nom_a":null,"nom_de":null,"slug_ville":"melecey","departement_id":0,"code_postal":"70110","population":137,"superficie_km2":"333.06","latitude_centre":"47.5241","longitude_centre":"6.4897","distance_km":3.34},{"id":30563,"code_insee":"70552","nom_standard":"Villafans","nom_a":null,"nom_de":null,"slug_ville":"villafans","departement_id":0,"code_postal":"70110","population":195,"superficie_km2":"637.66","latitude_centre":"47.5831","longitude_centre":"6.4764","distance_km":3.8},{"id":30362,"code_insee":"70307","nom_standard":"Longevelle","nom_a":null,"nom_de":null,"slug_ville":"longevelle","departement_id":0,"code_postal":"70110","population":116,"superficie_km2":"424.18","latitude_centre":"47.5926","longitude_centre":"6.4491","distance_km":4.95},{"id":30297,"code_insee":"70226","nom_standard":"Fallon","nom_a":null,"nom_de":null,"slug_ville":"fallon","departement_id":0,"code_postal":"70110","population":306,"superficie_km2":"566.34","latitude_centre":"47.5052","longitude_centre":"6.4812","distance_km":5.06},{"id":30506,"code_insee":"70487","nom_standard":"Senargent-Mignafans","nom_a":null,"nom_de":null,"slug_ville":"senargent-mignafans","departement_id":0,"code_postal":"70110","population":287,"superficie_km2":"1080.07","latitude_centre":"47.5654","longitude_centre":"6.5297","distance_km":5.08},{"id":30334,"code_insee":"70273","nom_standard":"Grammont","nom_a":null,"nom_de":null,"slug_ville":"grammont","departement_id":0,"code_postal":"70110","population":67,"superficie_km2":"590.04","latitude_centre":"47.5161","longitude_centre":"6.5141","distance_km":5.18},{"id":30396,"code_insee":"70349","nom_standard":"Moimay","nom_a":null,"nom_de":null,"slug_ville":"moimay","departement_id":0,"code_postal":"70110","population":240,"superficie_km2":"626.85","latitude_centre":"47.5595","longitude_centre":"6.3978","distance_km":5.25},{"id":30099,"code_insee":"70005","nom_standard":"Aillevans","nom_a":null,"nom_de":null,"slug_ville":"aillevans","departement_id":0,"code_postal":"70110","population":131,"superficie_km2":"582.06","latitude_centre":"47.5901","longitude_centre":"6.4178","distance_km":5.78},{"id":16631,"code_insee":"25003","nom_standard":"Abbenans","nom_a":null,"nom_de":null,"slug_ville":"abbenans","departement_id":0,"code_postal":"25340","population":321,"superficie_km2":"1129.28","latitude_centre":"47.4957","longitude_centre":"6.4494","distance_km":6.12},{"id":30123,"code_insee":"70031","nom_standard":"Athesans-Étroitefontaine","nom_a":null,"nom_de":null,"slug_ville":"athesans-etroitefontaine","departement_id":0,"code_postal":"70110","population":631,"superficie_km2":"1289.64","latitude_centre":"47.5924","longitude_centre":"6.5178","distance_km":6.13},{"id":16760,"code_insee":"25182","nom_standard":"Cubry","nom_a":null,"nom_de":null,"slug_ville":"cubry","departement_id":0,"code_postal":"25680","population":104,"superficie_km2":"543.36","latitude_centre":"47.5008","longitude_centre":"6.4271","distance_km":6.17},{"id":16685,"code_insee":"25083","nom_standard":"Bournois","nom_a":null,"nom_de":null,"slug_ville":"bournois","departement_id":0,"code_postal":"25250","population":188,"superficie_km2":"1045.21","latitude_centre":"47.4914","longitude_centre":"6.4975","distance_km":6.89},{"id":30332,"code_insee":"70271","nom_standard":"Gouhenans","nom_a":null,"nom_de":null,"slug_ville":"gouhenans","departement_id":0,"code_postal":"70110","population":357,"superficie_km2":"853.08","latitude_centre":"47.6132","longitude_centre":"6.4847","distance_km":7.21},{"id":30136,"code_insee":"70046","nom_standard":"Les Aynans","nom_a":null,"nom_de":null,"slug_ville":"les-aynans","departement_id":0,"code_postal":"70200","population":356,"superficie_km2":"788.77","latitude_centre":"47.617","longitude_centre":"6.4525","distance_km":7.56}]}