{"ville":{"id":33610,"code_insee":"81318","nom_standard":"Villeneuve-lès-Lavaur","nom_a":null,"nom_de":null,"slug_ville":"villeneuve-les-lavaur","departement_id":0,"code_postal":"81500","population":139,"superficie_km2":"619.41","latitude_centre":"43.6003","longitude_centre":"1.7824","dep_code":"81","dep_nom":"Tarn","dep_slug":"tarn","reg_code":"76","reg_nom":"Occitanie","reg_slug":"occitanie"},"departement":{"code":"81","nom":"Tarn","slug":"tarn"},"region":{"code":"76","nom":"Occitanie","slug":"occitanie"},"villes_proches":[{"id":19098,"code_insee":"31571","nom_standard":"Vendine","nom_a":null,"nom_de":null,"slug_ville":"vendine","departement_id":0,"code_postal":"31460","population":269,"superficie_km2":"287.47","latitude_centre":"43.5904","longitude_centre":"1.7651","distance_km":1.78},{"id":33491,"code_insee":"81162","nom_standard":"Maurens-Scopont","nom_a":null,"nom_de":null,"slug_ville":"maurens-scopont","departement_id":0,"code_postal":"81470","population":135,"superficie_km2":"859.04","latitude_centre":"43.5952","longitude_centre":"1.8147","distance_km":2.66},{"id":18899,"code_insee":"31304","nom_standard":"Loubens-Lauragais","nom_a":null,"nom_de":null,"slug_ville":"loubens-lauragais","departement_id":0,"code_postal":"31460","population":454,"superficie_km2":"648.82","latitude_centre":"43.5762","longitude_centre":"1.784","distance_km":2.68},{"id":33394,"code_insee":"81022","nom_standard":"Bannières","nom_a":null,"nom_de":null,"slug_ville":"bannieres","departement_id":0,"code_postal":"81500","population":210,"superficie_km2":"728.52","latitude_centre":"43.6195","longitude_centre":"1.7594","distance_km":2.83},{"id":18827,"code_insee":"31194","nom_standard":"Francarville","nom_a":null,"nom_de":null,"slug_ville":"francarville","departement_id":0,"code_postal":"31460","population":191,"superficie_km2":"709.19","latitude_centre":"43.5872","longitude_centre":"1.7479","distance_km":3.14},{"id":0,"code_insee":"81324","nom_standard":"Viviers-lès-Lavaur","nom_a":null,"nom_de":null,"slug_ville":"viviers-les-lavaur","departement_id":0,"code_postal":"81500","population":268,"superficie_km2":"1002.60","latitude_centre":"43.6287","longitude_centre":"1.794","distance_km":3.29},{"id":33603,"code_insee":"81310","nom_standard":"Veilhes","nom_a":null,"nom_de":null,"slug_ville":"veilhes","departement_id":0,"code_postal":"81500","population":143,"superficie_km2":"564.20","latitude_centre":"43.6183","longitude_centre":"1.8162","distance_km":3.38},{"id":33498,"code_insee":"81173","nom_standard":"Montcabrier","nom_a":null,"nom_de":null,"slug_ville":"montcabrier","departement_id":0,"code_postal":"81500","population":304,"superficie_km2":"546.02","latitude_centre":"43.6207","longitude_centre":"1.7374","distance_km":4.27},{"id":19068,"code_insee":"31534","nom_standard":"Saussens","nom_a":null,"nom_de":null,"slug_ville":"saussens","departement_id":0,"code_postal":"31460","population":217,"superficie_km2":"302.72","latitude_centre":"43.5922","longitude_centre":"1.7257","distance_km":4.65},{"id":18694,"code_insee":"31006","nom_standard":"Albiac","nom_a":null,"nom_de":null,"slug_ville":"albiac","departement_id":0,"code_postal":"31460","population":231,"superficie_km2":"474.61","latitude_centre":"43.5547","longitude_centre":"1.7864","distance_km":5.08},{"id":33413,"code_insee":"81050","nom_standard":"Cambon-lès-Lavaur","nom_a":null,"nom_de":null,"slug_ville":"cambon-les-lavaur","departement_id":0,"code_postal":"81470","population":362,"superficie_km2":"1216.43","latitude_centre":"43.5919","longitude_centre":"1.8452","distance_km":5.14},{"id":19004,"code_insee":"31441","nom_standard":"Prunet","nom_a":null,"nom_de":null,"slug_ville":"prunet","departement_id":0,"code_postal":"31460","population":153,"superficie_km2":"467.11","latitude_centre":"43.572","longitude_centre":"1.7301","distance_km":5.26},{"id":18819,"code_insee":"31179","nom_standard":"Le Faget","nom_a":null,"nom_de":null,"slug_ville":"le-faget","departement_id":0,"code_postal":"31460","population":297,"superficie_km2":"1143.54","latitude_centre":"43.5647","longitude_centre":"1.8256","distance_km":5.27},{"id":18917,"code_insee":"31325","nom_standard":"Mascarville","nom_a":null,"nom_de":null,"slug_ville":"mascarville","departement_id":0,"code_postal":"31460","population":179,"superficie_km2":"531.87","latitude_centre":"43.5575","longitude_centre":"1.7531","distance_km":5.31},{"id":33466,"code_insee":"81126","nom_standard":"Lacougotte-Cadoul","nom_a":null,"nom_de":null,"slug_ville":"lacougotte-cadoul","departement_id":0,"code_postal":"81500","population":173,"superficie_km2":"879.53","latitude_centre":"43.6416","longitude_centre":"1.8191","distance_km":5.46},{"id":33397,"code_insee":"81025","nom_standard":"Belcastel","nom_a":null,"nom_de":null,"slug_ville":"belcastel","departement_id":0,"code_postal":"81500","population":216,"superficie_km2":"1083.63","latitude_centre":"43.6497","longitude_centre":"1.751","distance_km":6.05},{"id":19062,"code_insee":"31527","nom_standard":"La Salvetat-Lauragais","nom_a":null,"nom_de":null,"slug_ville":"la-salvetat-lauragais","departement_id":0,"code_postal":"31460","population":151,"superficie_km2":"369.58","latitude_centre":"43.5466","longitude_centre":"1.8013","distance_km":6.16},{"id":0,"code_insee":"31082","nom_standard":"Bourg-Saint-Bernard","nom_a":null,"nom_de":null,"slug_ville":"bourg-saint-bernard","departement_id":0,"code_postal":"31570","population":1125,"superficie_km2":"1659.61","latitude_centre":"43.6069","longitude_centre":"1.7028","distance_km":6.45},{"id":33593,"code_insee":"81298","nom_standard":"Teulat","nom_a":null,"nom_de":null,"slug_ville":"teulat","departement_id":0,"code_postal":"81500","population":495,"superficie_km2":"1009.59","latitude_centre":"43.6367","longitude_centre":"1.7103","distance_km":7.08},{"id":0,"code_insee":"31106","nom_standard":"Caraman","nom_a":null,"nom_de":null,"slug_ville":"caraman","departement_id":0,"code_postal":"31460","population":2513,"superficie_km2":"3068.79","latitude_centre":"43.5324","longitude_centre":"1.7487","distance_km":8.02}]}