{"ville":{"id":26529,"code_insee":"59622","nom_standard":"Villers-en-Cauchies","nom_a":null,"nom_de":null,"slug_ville":"villers-en-cauchies","departement_id":0,"code_postal":"59188","population":1151,"superficie_km2":"893.70","latitude_centre":"50.2267","longitude_centre":"3.3903","dep_code":"59","dep_nom":"Nord","dep_slug":"nord","reg_code":"32","reg_nom":"Hauts-de-France","reg_slug":"hauts-de-france"},"departement":{"code":"59","nom":"Nord","slug":"nord"},"region":{"code":"32","nom":"Hauts-de-France","slug":"hauts-de-france"},"villes_proches":[{"id":0,"code_insee":"59038","nom_standard":"Avesnes-le-Sec","nom_a":null,"nom_de":null,"slug_ville":"avesnes-le-sec","departement_id":0,"code_postal":"59296","population":1458,"superficie_km2":"1051.49","latitude_centre":"50.246","longitude_centre":"3.3725","distance_km":2.49},{"id":0,"code_insee":"59528","nom_standard":"Saint-Aubert","nom_a":null,"nom_de":null,"slug_ville":"saint-aubert","departement_id":0,"code_postal":"59188","population":1570,"superficie_km2":"809.78","latitude_centre":"50.2067","longitude_centre":"3.4215","distance_km":3.14},{"id":0,"code_insee":"59502","nom_standard":"Rieux-en-Cambrésis","nom_a":null,"nom_de":null,"slug_ville":"rieux-en-cambresis","departement_id":0,"code_postal":"59277","population":1425,"superficie_km2":"763.25","latitude_centre":"50.2022","longitude_centre":"3.3533","distance_km":3.79},{"id":0,"code_insee":"59322","nom_standard":"Iwuy","nom_a":null,"nom_de":null,"slug_ville":"iwuy","departement_id":0,"code_postal":"59141","population":3403,"superficie_km2":"1274.99","latitude_centre":"50.2334","longitude_centre":"3.3363","distance_km":3.91},{"id":0,"code_insee":"59037","nom_standard":"Avesnes-les-Aubert","nom_a":null,"nom_de":null,"slug_ville":"avesnes-les-aubert","departement_id":0,"code_postal":"59129","population":3562,"superficie_km2":"903.85","latitude_centre":"50.1931","longitude_centre":"3.3726","distance_km":3.94},{"id":0,"code_insee":"59558","nom_standard":"Saulzoir","nom_a":null,"nom_de":null,"slug_ville":"saulzoir","departement_id":0,"code_postal":"59227","population":1672,"superficie_km2":"1007.65","latitude_centre":"50.2406","longitude_centre":"3.4422","distance_km":4.0},{"id":26435,"code_insee":"59415","nom_standard":"Montrécourt","nom_a":null,"nom_de":null,"slug_ville":"montrecourt","departement_id":0,"code_postal":"59227","population":228,"superficie_km2":"353.38","latitude_centre":"50.2267","longitude_centre":"3.4483","distance_km":4.13},{"id":0,"code_insee":"59285","nom_standard":"Haspres","nom_a":null,"nom_de":null,"slug_ville":"haspres","departement_id":0,"code_postal":"59198","population":2626,"superficie_km2":"1223.24","latitude_centre":"50.2642","longitude_centre":"3.412","distance_km":4.45},{"id":26493,"code_insee":"59547","nom_standard":"Saint-Vaast-en-Cambrésis","nom_a":null,"nom_de":null,"slug_ville":"saint-vaast-en-cambresis","departement_id":0,"code_postal":"59188","population":871,"superficie_km2":"438.05","latitude_centre":"50.1948","longitude_centre":"3.4286","distance_km":4.47},{"id":0,"code_insee":"59533","nom_standard":"Saint-Hilaire-lez-Cambrai","nom_a":null,"nom_de":null,"slug_ville":"saint-hilaire-lez-cambrai","departement_id":0,"code_postal":"59292","population":1558,"superficie_km2":"651.84","latitude_centre":"50.1796","longitude_centre":"3.4197","distance_km":5.64},{"id":0,"code_insee":"59313","nom_standard":"Hordain","nom_a":null,"nom_de":null,"slug_ville":"hordain","departement_id":0,"code_postal":"59111","population":1446,"superficie_km2":"556.53","latitude_centre":"50.261","longitude_centre":"3.3295","distance_km":5.77},{"id":26437,"code_insee":"59422","nom_standard":"Naves","nom_a":null,"nom_de":null,"slug_ville":"naves","departement_id":0,"code_postal":"59161","population":620,"superficie_km2":"521.47","latitude_centre":"50.2046","longitude_centre":"3.3163","distance_km":5.81},{"id":26446,"code_insee":"59440","nom_standard":"Noyelles-sur-Selle","nom_a":null,"nom_de":null,"slug_ville":"noyelles-sur-selle","departement_id":0,"code_postal":"59282","population":657,"superficie_km2":"505.12","latitude_centre":"50.2796","longitude_centre":"3.3832","distance_km":5.9},{"id":0,"code_insee":"59348","nom_standard":"Lieu-Saint-Amand","nom_a":null,"nom_de":null,"slug_ville":"lieu-saint-amand","departement_id":0,"code_postal":"59111","population":1462,"superficie_km2":"512.45","latitude_centre":"50.2723","longitude_centre":"3.348","distance_km":5.9},{"id":0,"code_insee":"59610","nom_standard":"Verchain-Maugré","nom_a":null,"nom_de":null,"slug_ville":"verchain-maugre","departement_id":0,"code_postal":"59227","population":1103,"superficie_km2":"961.24","latitude_centre":"50.265","longitude_centre":"3.4598","distance_km":6.52},{"id":26309,"code_insee":"59102","nom_standard":"Boussières-en-Cambrésis","nom_a":null,"nom_de":null,"slug_ville":"boussieres-en-cambresis","departement_id":0,"code_postal":"59217","population":436,"superficie_km2":"481.31","latitude_centre":"50.1617","longitude_centre":"3.3739","distance_km":7.32},{"id":0,"code_insee":"59485","nom_standard":"Quiévy","nom_a":null,"nom_de":null,"slug_ville":"quievy","departement_id":0,"code_postal":"59214","population":1803,"superficie_km2":"681.83","latitude_centre":"50.1627","longitude_centre":"3.422","distance_km":7.47},{"id":26300,"code_insee":"59081","nom_standard":"Bévillers","nom_a":null,"nom_de":null,"slug_ville":"bevillers","departement_id":0,"code_postal":"59217","population":529,"superficie_km2":"479.65","latitude_centre":"50.1578","longitude_centre":"3.3885","distance_km":7.66},{"id":0,"code_insee":"59429","nom_standard":"Neuville-sur-Escaut","nom_a":null,"nom_de":null,"slug_ville":"neuville-sur-escaut","departement_id":0,"code_postal":"59293","population":2901,"superficie_km2":"476.45","latitude_centre":"50.2922","longitude_centre":"3.3491","distance_km":7.85},{"id":0,"code_insee":"59179","nom_standard":"Douchy-les-Mines","nom_a":null,"nom_de":null,"slug_ville":"douchy-les-mines","departement_id":0,"code_postal":"59282","population":10109,"superficie_km2":"918.66","latitude_centre":"50.3005","longitude_centre":"3.3887","distance_km":8.21}]}