{"ville":{"id":13244,"code_insee":"11436","nom_standard":"Villesèque-des-Corbières","nom_a":null,"nom_de":null,"slug_ville":"villeseque-des-corbieres","departement_id":0,"code_postal":"11360","population":386,"superficie_km2":"3198.23","latitude_centre":"43.0174","longitude_centre":"2.8585","dep_code":"11","dep_nom":"Aude","dep_slug":"aude","reg_code":"76","reg_nom":"Occitanie","reg_slug":"occitanie"},"departement":{"code":"11","nom":"Aude","slug":"aude"},"region":{"code":"76","nom":"Occitanie","slug":"occitanie"},"villes_proches":[{"id":12982,"code_insee":"11124","nom_standard":"Durban-Corbières","nom_a":null,"nom_de":null,"slug_ville":"durban-corbieres","departement_id":0,"code_postal":"11360","population":649,"superficie_km2":"2563.69","latitude_centre":"42.9975","longitude_centre":"2.8116","distance_km":4.41},{"id":0,"code_insee":"11295","nom_standard":"Portel-des-Corbières","nom_a":null,"nom_de":null,"slug_ville":"portel-des-corbieres","departement_id":0,"code_postal":"11490","population":1279,"superficie_km2":"3497.43","latitude_centre":"43.0515","longitude_centre":"2.9056","distance_km":5.39},{"id":13005,"code_insee":"11152","nom_standard":"Fontjoncouse","nom_a":null,"nom_de":null,"slug_ville":"fontjoncouse","departement_id":0,"code_postal":"11360","population":139,"superficie_km2":"2771.76","latitude_centre":"43.0424","longitude_centre":"2.7945","distance_km":5.9},{"id":13162,"code_insee":"11345","nom_standard":"Saint-Jean-de-Barrou","nom_a":null,"nom_de":null,"slug_ville":"saint-jean-de-barrou","departement_id":0,"code_postal":"11360","population":272,"superficie_km2":"758.03","latitude_centre":"42.9623","longitude_centre":"2.8262","distance_km":6.67},{"id":0,"code_insee":"11322","nom_standard":"Roquefort-des-Corbières","nom_a":null,"nom_de":null,"slug_ville":"roquefort-des-corbieres","departement_id":0,"code_postal":"11540","population":1051,"superficie_km2":"4545.26","latitude_centre":"42.9963","longitude_centre":"2.9371","distance_km":6.81},{"id":13010,"code_insee":"11157","nom_standard":"Fraissé-des-Corbières","nom_a":null,"nom_de":null,"slug_ville":"fraisse-des-corbieres","departement_id":0,"code_postal":"11360","population":232,"superficie_km2":"1904.35","latitude_centre":"42.9553","longitude_centre":"2.8711","distance_km":6.98},{"id":0,"code_insee":"11332","nom_standard":"Saint-André-de-Roquelongue","nom_a":null,"nom_de":null,"slug_ville":"saint-andre-de-roquelongue","departement_id":0,"code_postal":"11200","population":1488,"superficie_km2":"2996.69","latitude_centre":"43.0929","longitude_centre":"2.8501","distance_km":8.42},{"id":12939,"code_insee":"11071","nom_standard":"Cascastel-des-Corbières","nom_a":null,"nom_de":null,"slug_ville":"cascastel-des-corbieres","departement_id":0,"code_postal":"11360","population":212,"superficie_km2":"1571.30","latitude_centre":"42.9779","longitude_centre":"2.7521","distance_km":9.7},{"id":13239,"code_insee":"11431","nom_standard":"Villeneuve-les-Corbières","nom_a":null,"nom_de":null,"slug_ville":"villeneuve-les-corbieres","departement_id":0,"code_postal":"11360","population":253,"superficie_km2":"2427.85","latitude_centre":"42.9624","longitude_centre":"2.765","distance_km":9.76},{"id":0,"code_insee":"11379","nom_standard":"Sigean","nom_a":null,"nom_de":null,"slug_ville":"sigean","departement_id":0,"code_postal":"11130","population":5657,"superficie_km2":"4053.01","latitude_centre":"43.0344","longitude_centre":"2.9793","distance_km":10.0},{"id":13200,"code_insee":"11390","nom_standard":"Thézan-des-Corbières","nom_a":null,"nom_de":null,"slug_ville":"thezan-des-corbieres","departement_id":0,"code_postal":"11200","population":573,"superficie_km2":"2649.75","latitude_centre":"43.0947","longitude_centre":"2.7918","distance_km":10.16},{"id":12969,"code_insee":"11110","nom_standard":"Coustouge","nom_a":null,"nom_de":null,"slug_ville":"coustouge","departement_id":0,"code_postal":"11220","population":117,"superficie_km2":"973.93","latitude_centre":"43.0549","longitude_centre":"2.7425","distance_km":10.31},{"id":12887,"code_insee":"11006","nom_standard":"Albas","nom_a":null,"nom_de":null,"slug_ville":"albas","departement_id":0,"code_postal":"11360","population":87,"superficie_km2":"2286.25","latitude_centre":"43.0046","longitude_centre":"2.7328","distance_km":10.32},{"id":13094,"code_insee":"11256","nom_standard":"Montséret","nom_a":null,"nom_de":null,"slug_ville":"montseret","departement_id":0,"code_postal":"11200","population":616,"superficie_km2":"1142.08","latitude_centre":"43.1049","longitude_centre":"2.8101","distance_km":10.49},{"id":12983,"code_insee":"11125","nom_standard":"Embres-et-Castelmaure","nom_a":null,"nom_de":null,"slug_ville":"embres-et-castelmaure","departement_id":0,"code_postal":"11360","population":165,"superficie_km2":"3259.79","latitude_centre":"42.9278","longitude_centre":"2.8142","distance_km":10.59},{"id":12998,"code_insee":"11143","nom_standard":"Feuilla","nom_a":null,"nom_de":null,"slug_ville":"feuilla","departement_id":0,"code_postal":"11510","population":107,"superficie_km2":"2422.52","latitude_centre":"42.9273","longitude_centre":"2.9025","distance_km":10.64},{"id":13026,"code_insee":"11176","nom_standard":"Jonquières","nom_a":null,"nom_de":null,"slug_ville":"jonquieres","departement_id":0,"code_postal":"11220","population":45,"superficie_km2":"1356.31","latitude_centre":"43.0421","longitude_centre":"2.7265","distance_km":11.08},{"id":0,"code_insee":"11285","nom_standard":"Peyriac-de-Mer","nom_a":null,"nom_de":null,"slug_ville":"peyriac-de-mer","departement_id":0,"code_postal":"11440","population":1187,"superficie_km2":"3547.00","latitude_centre":"43.0899","longitude_centre":"2.9547","distance_km":11.23},{"id":12951,"code_insee":"11086","nom_standard":"Caves","nom_a":null,"nom_de":null,"slug_ville":"caves","departement_id":0,"code_postal":"11510","population":875,"superficie_km2":"897.96","latitude_centre":"42.9392","longitude_centre":"2.9624","distance_km":12.13},{"id":0,"code_insee":"11040","nom_standard":"Bizanet","nom_a":null,"nom_de":null,"slug_ville":"bizanet","departement_id":0,"code_postal":"11200","population":1730,"superficie_km2":"3756.68","latitude_centre":"43.1445","longitude_centre":"2.8704","distance_km":14.17}]}