{"ville":{"id":26267,"code_insee":"58312","nom_standard":"Villiers-sur-Yonne","nom_a":null,"nom_de":null,"slug_ville":"villiers-sur-yonne","departement_id":0,"code_postal":"58500","population":267,"superficie_km2":"1595.00","latitude_centre":"47.4145","longitude_centre":"3.557","dep_code":"58","dep_nom":"Nièvre","dep_slug":"nievre","reg_code":"27","reg_nom":"Bourgogne-Franche-Comté","reg_slug":"bourgogne-franche-comte"},"departement":{"code":"58","nom":"Nièvre","slug":"nievre"},"region":{"code":"27","nom":"Bourgogne-Franche-Comté","slug":"bourgogne-franche-comte"},"villes_proches":[{"id":26015,"code_insee":"58016","nom_standard":"Asnois","nom_a":null,"nom_de":null,"slug_ville":"asnois","departement_id":0,"code_postal":"58190","population":141,"superficie_km2":"575.84","latitude_centre":"47.4011","longitude_centre":"3.5868","distance_km":2.69},{"id":26004,"code_insee":"58005","nom_standard":"Amazy","nom_a":null,"nom_de":null,"slug_ville":"amazy","departement_id":0,"code_postal":"58190","population":208,"superficie_km2":"1389.12","latitude_centre":"47.384","longitude_centre":"3.5697","distance_km":3.52},{"id":26065,"code_insee":"58073","nom_standard":"Chevroches","nom_a":null,"nom_de":null,"slug_ville":"chevroches","departement_id":0,"code_postal":"58500","population":113,"superficie_km2":"326.95","latitude_centre":"47.4458","longitude_centre":"3.5445","distance_km":3.61},{"id":26087,"code_insee":"58103","nom_standard":"Dornecy","nom_a":null,"nom_de":null,"slug_ville":"dornecy","departement_id":0,"code_postal":"58530","population":451,"superficie_km2":"1742.29","latitude_centre":"47.4428","longitude_centre":"3.5891","distance_km":3.97},{"id":26170,"code_insee":"58200","nom_standard":"Ouagne","nom_a":null,"nom_de":null,"slug_ville":"ouagne","departement_id":0,"code_postal":"58500","population":149,"superficie_km2":"1180.82","latitude_centre":"47.4025","longitude_centre":"3.5016","distance_km":4.38},{"id":26189,"code_insee":"58222","nom_standard":"Rix","nom_a":null,"nom_de":null,"slug_ville":"rix","departement_id":0,"code_postal":"58500","population":150,"superficie_km2":"398.86","latitude_centre":"47.4265","longitude_centre":"3.4963","distance_km":4.76},{"id":26037,"code_insee":"58039","nom_standard":"Brèves","nom_a":null,"nom_de":null,"slug_ville":"breves","departement_id":0,"code_postal":"58530","population":258,"superficie_km2":"1659.32","latitude_centre":"47.4299","longitude_centre":"3.6223","distance_km":5.2},{"id":26010,"code_insee":"58011","nom_standard":"Armes","nom_a":null,"nom_de":null,"slug_ville":"armes","departement_id":0,"code_postal":"58500","population":266,"superficie_km2":"858.69","latitude_centre":"47.464","longitude_centre":"3.5591","distance_km":5.51},{"id":0,"code_insee":"58079","nom_standard":"Clamecy","nom_a":null,"nom_de":null,"slug_ville":"clamecy","departement_id":0,"code_postal":"58500","population":3544,"superficie_km2":"3088.42","latitude_centre":"47.4588","longitude_centre":"3.5188","distance_km":5.7},{"id":26244,"code_insee":"58286","nom_standard":"Tannay","nom_a":null,"nom_de":null,"slug_ville":"tannay","departement_id":0,"code_postal":"58190","population":530,"superficie_km2":"1551.84","latitude_centre":"47.3622","longitude_centre":"3.5787","distance_km":6.04},{"id":26206,"code_insee":"58242","nom_standard":"Saint-Germain-des-Bois","nom_a":null,"nom_de":null,"slug_ville":"saint-germain-des-bois","departement_id":0,"code_postal":"58210","population":112,"superficie_km2":"1254.43","latitude_centre":"47.3679","longitude_centre":"3.5146","distance_km":6.09},{"id":26139,"code_insee":"58165","nom_standard":"Metz-le-Comte","nom_a":null,"nom_de":null,"slug_ville":"metz-le-comte","departement_id":0,"code_postal":"58190","population":177,"superficie_km2":"1440.48","latitude_centre":"47.3925","longitude_centre":"3.6405","distance_km":6.74},{"id":26027,"code_insee":"58029","nom_standard":"Beuvron","nom_a":null,"nom_de":null,"slug_ville":"beuvron","departement_id":0,"code_postal":"58210","population":84,"superficie_km2":"958.70","latitude_centre":"47.351","longitude_centre":"3.4997","distance_km":8.27},{"id":26099,"code_insee":"58116","nom_standard":"Flez-Cuzy","nom_a":null,"nom_de":null,"slug_ville":"flez-cuzy","departement_id":0,"code_postal":"58190","population":134,"superficie_km2":"596.28","latitude_centre":"47.3592","longitude_centre":"3.6315","distance_km":8.32},{"id":26202,"code_insee":"58237","nom_standard":"Saint-Didier","nom_a":null,"nom_de":null,"slug_ville":"saint-didier","departement_id":0,"code_postal":"58190","population":30,"superficie_km2":"362.44","latitude_centre":"47.3475","longitude_centre":"3.6198","distance_km":8.82},{"id":0,"code_insee":"89225","nom_standard":"Lichères-sur-Yonne","nom_a":null,"nom_de":null,"slug_ville":"licheres-sur-yonne","departement_id":0,"code_postal":"89660","population":49,"superficie_km2":"1431.46","latitude_centre":"47.4901","longitude_centre":"3.5955","distance_km":8.89},{"id":26242,"code_insee":"58284","nom_standard":"Talon","nom_a":null,"nom_de":null,"slug_ville":"talon","departement_id":0,"code_postal":"58190","population":42,"superficie_km2":"624.91","latitude_centre":"47.3335","longitude_centre":"3.5502","distance_km":9.02},{"id":26185,"code_insee":"58217","nom_standard":"Pousseaux","nom_a":null,"nom_de":null,"slug_ville":"pousseaux","departement_id":0,"code_postal":"58500","population":186,"superficie_km2":"1112.94","latitude_centre":"47.4974","longitude_centre":"3.5446","distance_km":9.27},{"id":26127,"code_insee":"58150","nom_standard":"Lys","nom_a":null,"nom_de":null,"slug_ville":"lys","departement_id":0,"code_postal":"58190","population":104,"superficie_km2":"1076.44","latitude_centre":"47.3361","longitude_centre":"3.6003","distance_km":9.31},{"id":0,"code_insee":"89234","nom_standard":"Lucy-sur-Yonne","nom_a":null,"nom_de":null,"slug_ville":"lucy-sur-yonne","departement_id":0,"code_postal":"89480","population":126,"superficie_km2":"815.76","latitude_centre":"47.5143","longitude_centre":"3.5668","distance_km":11.12}]}