{"ville":{"id":33860,"code_insee":"84148","nom_standard":"Villes-sur-Auzon","nom_a":null,"nom_de":null,"slug_ville":"villes-sur-auzon","departement_id":0,"code_postal":"84570","population":1306,"superficie_km2":"2719.43","latitude_centre":"44.0658","longitude_centre":"5.2572","dep_code":"84","dep_nom":"Vaucluse","dep_slug":"vaucluse","reg_code":"93","reg_nom":"Provence-Alpes-Côte d'Azur","reg_slug":"provence-alpes-cote-d-azur"},"departement":{"code":"84","nom":"Vaucluse","slug":"vaucluse"},"region":{"code":"93","nom":"Provence-Alpes-Côte d'Azur","slug":"provence-alpes-cote-d-azur"},"villes_proches":[{"id":33801,"code_insee":"84018","nom_standard":"Blauvac","nom_a":null,"nom_de":null,"slug_ville":"blauvac","departement_id":0,"code_postal":"84570","population":573,"superficie_km2":"2106.14","latitude_centre":"44.0356","longitude_centre":"5.2418","distance_km":3.58},{"id":33811,"code_insee":"84046","nom_standard":"Flassan","nom_a":null,"nom_de":null,"slug_ville":"flassan","departement_id":0,"code_postal":"84410","population":453,"superficie_km2":"2086.48","latitude_centre":"44.0995","longitude_centre":"5.2613","distance_km":3.76},{"id":0,"code_insee":"84082","nom_standard":"Mormoiron","nom_a":null,"nom_de":null,"slug_ville":"mormoiron","departement_id":0,"code_postal":"84570","population":1884,"superficie_km2":"2522.77","latitude_centre":"44.0686","longitude_centre":"5.1918","distance_km":5.23},{"id":33822,"code_insee":"84075","nom_standard":"Méthamis","nom_a":null,"nom_de":null,"slug_ville":"methamis","departement_id":0,"code_postal":"84570","population":450,"superficie_km2":"3706.51","latitude_centre":"44.0153","longitude_centre":"5.2483","distance_km":5.66},{"id":33824,"code_insee":"84079","nom_standard":"Monieux","nom_a":null,"nom_de":null,"slug_ville":"monieux","departement_id":0,"code_postal":"84390","population":263,"superficie_km2":"4755.07","latitude_centre":"44.052","longitude_centre":"5.345","distance_km":7.18},{"id":0,"code_insee":"84017","nom_standard":"Bédoin","nom_a":null,"nom_de":null,"slug_ville":"bedoin","departement_id":0,"code_postal":"84410","population":3106,"superficie_km2":"9061.30","latitude_centre":"44.1337","longitude_centre":"5.2342","distance_km":7.77},{"id":0,"code_insee":"84070","nom_standard":"Malemort-du-Comtat","nom_a":null,"nom_de":null,"slug_ville":"malemort-du-comtat","departement_id":0,"code_postal":"84570","population":1969,"superficie_km2":"1198.13","latitude_centre":"44.0171","longitude_centre":"5.1646","distance_km":9.17},{"id":33843,"code_insee":"84115","nom_standard":"Saint-Pierre-de-Vassols","nom_a":null,"nom_de":null,"slug_ville":"saint-pierre-de-vassols","departement_id":0,"code_postal":"84330","population":499,"superficie_km2":"499.89","latitude_centre":"44.0983","longitude_centre":"5.1463","distance_km":9.57},{"id":0,"code_insee":"84072","nom_standard":"Mazan","nom_a":null,"nom_de":null,"slug_ville":"mazan","departement_id":0,"code_postal":"84380","population":6285,"superficie_km2":"3796.11","latitude_centre":"44.0528","longitude_centre":"5.1333","distance_km":10.01},{"id":33809,"code_insee":"84041","nom_standard":"Crillon-le-Brave","nom_a":null,"nom_de":null,"slug_ville":"crillon-le-brave","departement_id":0,"code_postal":"84410","population":488,"superficie_km2":"765.67","latitude_centre":"44.1187","longitude_centre":"5.152","distance_km":10.26},{"id":0,"code_insee":"84123","nom_standard":"Sault","nom_a":null,"nom_de":null,"slug_ville":"sault","departement_id":0,"code_postal":"84390","population":1343,"superficie_km2":"11219.47","latitude_centre":"44.0774","longitude_centre":"5.3892","distance_km":10.62},{"id":33820,"code_insee":"84066","nom_standard":"Lioux","nom_a":null,"nom_de":null,"slug_ville":"lioux","departement_id":0,"code_postal":"84220","population":286,"superficie_km2":"3884.93","latitude_centre":"43.9782","longitude_centre":"5.3122","distance_km":10.69},{"id":33825,"code_insee":"84085","nom_standard":"Murs","nom_a":null,"nom_de":null,"slug_ville":"murs","departement_id":0,"code_postal":"84220","population":376,"superficie_km2":"3140.05","latitude_centre":"43.965","longitude_centre":"5.2432","distance_km":11.26},{"id":0,"code_insee":"84143","nom_standard":"Venasque","nom_a":null,"nom_de":null,"slug_ville":"venasque","departement_id":0,"code_postal":"84210","population":1082,"superficie_km2":"3507.05","latitude_centre":"43.9866","longitude_centre":"5.1684","distance_km":11.31},{"id":33823,"code_insee":"84077","nom_standard":"Modène","nom_a":null,"nom_de":null,"slug_ville":"modene","departement_id":0,"code_postal":"84330","population":458,"superficie_km2":"476.61","latitude_centre":"44.1092","longitude_centre":"5.1285","distance_km":11.36},{"id":33800,"code_insee":"84015","nom_standard":"Beaumont-du-Ventoux","nom_a":null,"nom_de":null,"slug_ville":"beaumont-du-ventoux","departement_id":0,"code_postal":"84340","population":308,"superficie_km2":"2812.60","latitude_centre":"44.182","longitude_centre":"5.2197","distance_km":13.26},{"id":0,"code_insee":"84118","nom_standard":"Saint-Saturnin-lès-Apt","nom_a":null,"nom_de":null,"slug_ville":"saint-saturnin-les-apt","departement_id":0,"code_postal":"84490","population":3004,"superficie_km2":"7682.46","latitude_centre":"43.961","longitude_centre":"5.3566","distance_km":14.11},{"id":33802,"code_insee":"84021","nom_standard":"Brantes","nom_a":null,"nom_de":null,"slug_ville":"brantes","departement_id":0,"code_postal":"84390","population":86,"superficie_km2":"2824.18","latitude_centre":"44.1861","longitude_centre":"5.3315","distance_km":14.63},{"id":33838,"code_insee":"84110","nom_standard":"Saint-Léger-du-Ventoux","nom_a":null,"nom_de":null,"slug_ville":"saint-leger-du-ventoux","departement_id":0,"code_postal":"84390","population":25,"superficie_km2":"1950.82","latitude_centre":"44.2027","longitude_centre":"5.2749","distance_km":15.29},{"id":33814,"code_insee":"84057","nom_standard":"Joucas","nom_a":null,"nom_de":null,"slug_ville":"joucas","departement_id":0,"code_postal":"84220","population":348,"superficie_km2":"843.87","latitude_centre":"43.9223","longitude_centre":"5.2522","distance_km":15.96}]}