{"ville":{"id":11462,"code_insee":"05182","nom_standard":"Villar-Loubière","nom_a":null,"nom_de":null,"slug_ville":"villar-loubiere","departement_id":0,"code_postal":"05800","population":31,"superficie_km2":"2197.33","latitude_centre":"44.8364","longitude_centre":"6.1335","dep_code":"05","dep_nom":"Hautes-Alpes","dep_slug":"hautes-alpes","reg_code":"93","reg_nom":"Provence-Alpes-Côte d'Azur","reg_slug":"provence-alpes-cote-d-azur"},"departement":{"code":"05","nom":"Hautes-Alpes","slug":"hautes-alpes"},"region":{"code":"93","nom":"Provence-Alpes-Côte d'Azur","slug":"provence-alpes-cote-d-azur"},"villes_proches":[{"id":11438,"code_insee":"05152","nom_standard":"Saint-Maurice-en-Valgodemard","nom_a":null,"nom_de":null,"slug_ville":"saint-maurice-en-valgodemard","departement_id":0,"code_postal":"05800","population":118,"superficie_km2":"3721.11","latitude_centre":"44.8034","longitude_centre":"6.1159","distance_km":3.92},{"id":0,"code_insee":"38522","nom_standard":"Valjouffrey","nom_a":null,"nom_de":null,"slug_ville":"valjouffrey","departement_id":0,"code_postal":"38740","population":167,"superficie_km2":"12658.07","latitude_centre":"44.8776","longitude_centre":"6.0948","distance_km":5.5},{"id":11433,"code_insee":"05144","nom_standard":"Saint-Jacques-en-Valgodemard","nom_a":null,"nom_de":null,"slug_ville":"saint-jacques-en-valgodemard","departement_id":0,"code_postal":"05800","population":113,"superficie_km2":"1544.46","latitude_centre":"44.7773","longitude_centre":"6.0649","distance_km":8.51},{"id":11372,"code_insee":"05064","nom_standard":"La Chapelle-en-Valgaudémar","nom_a":null,"nom_de":null,"slug_ville":"la-chapelle-en-valgaudemar","departement_id":0,"code_postal":"05800","population":120,"superficie_km2":"12764.41","latitude_centre":"44.8069","longitude_centre":"6.244","distance_km":9.31},{"id":11432,"code_insee":"05142","nom_standard":"Saint-Firmin","nom_a":null,"nom_de":null,"slug_ville":"saint-firmin","departement_id":0,"code_postal":"05800","population":468,"superficie_km2":"2208.00","latitude_centre":"44.7962","longitude_centre":"6.0204","distance_km":9.98},{"id":11331,"code_insee":"05009","nom_standard":"Aspres-lès-Corps","nom_a":null,"nom_de":null,"slug_ville":"aspres-les-corps","departement_id":0,"code_postal":"05800","population":102,"superficie_km2":"1656.37","latitude_centre":"44.8145","longitude_centre":"6.003","distance_km":10.58},{"id":11391,"code_insee":"05090","nom_standard":"La Motte-en-Champsaur","nom_a":null,"nom_de":null,"slug_ville":"la-motte-en-champsaur","departement_id":0,"code_postal":"05500","population":207,"superficie_km2":"5533.83","latitude_centre":"44.74","longitude_centre":"6.1211","distance_km":10.76},{"id":0,"code_insee":"38469","nom_standard":"La Salette-Fallavaux","nom_a":null,"nom_de":null,"slug_ville":"la-salette-fallavaux","departement_id":0,"code_postal":"38970","population":81,"superficie_km2":"2245.75","latitude_centre":"44.8422","longitude_centre":"5.9877","distance_km":11.51},{"id":0,"code_insee":"38375","nom_standard":"Saint-Christophe-en-Oisans","nom_a":null,"nom_de":null,"slug_ville":"saint-christophe-en-oisans","departement_id":0,"code_postal":"38520","population":99,"superficie_km2":"23778.31","latitude_centre":"44.9304","longitude_centre":"6.2327","distance_km":13.05},{"id":11354,"code_insee":"05039","nom_standard":"Aubessagne","nom_a":null,"nom_de":null,"slug_ville":"aubessagne","departement_id":0,"code_postal":"05500","population":740,"superficie_km2":"2760.96","latitude_centre":"44.739","longitude_centre":"6.0311","distance_km":13.51},{"id":0,"code_insee":"38154","nom_standard":"Entraigues","nom_a":null,"nom_de":null,"slug_ville":"entraigues","departement_id":0,"code_postal":"38740","population":225,"superficie_km2":"2150.25","latitude_centre":"44.8926","longitude_centre":"5.9663","distance_km":14.58},{"id":0,"code_insee":"38031","nom_standard":"Beaufin","nom_a":null,"nom_de":null,"slug_ville":"beaufin","departement_id":0,"code_postal":"38970","population":19,"superficie_km2":"654.30","latitude_centre":"44.788","longitude_centre":"5.9615","distance_km":14.6},{"id":11349,"code_insee":"05032","nom_standard":"Champoléon","nom_a":null,"nom_de":null,"slug_ville":"champoleon","departement_id":0,"code_postal":"05260","population":144,"superficie_km2":"10200.35","latitude_centre":"44.7416","longitude_centre":"6.2741","distance_km":15.3},{"id":11370,"code_insee":"05062","nom_standard":"Le Glaizil","nom_a":null,"nom_de":null,"slug_ville":"le-glaizil","departement_id":0,"code_postal":"05800","population":178,"superficie_km2":"2166.02","latitude_centre":"44.7483","longitude_centre":"5.9766","distance_km":15.79},{"id":0,"code_insee":"05132","nom_standard":"Saint-Bonnet-en-Champsaur","nom_a":null,"nom_de":null,"slug_ville":"saint-bonnet-en-champsaur","departement_id":0,"code_postal":"05500","population":2086,"superficie_km2":"3588.56","latitude_centre":"44.692","longitude_centre":"6.0988","distance_km":16.29},{"id":11439,"code_insee":"05153","nom_standard":"Saint-Michel-de-Chaillol","nom_a":null,"nom_de":null,"slug_ville":"saint-michel-de-chaillol","departement_id":0,"code_postal":"05260","population":373,"superficie_km2":"1701.65","latitude_centre":"44.6892","longitude_centre":"6.1683","distance_km":16.6},{"id":0,"code_insee":"38253","nom_standard":"Les Deux Alpes","nom_a":null,"nom_de":null,"slug_ville":"les-deux-alpes","departement_id":0,"code_postal":"38520","population":1910,"superficie_km2":"8175.43","latitude_centre":"44.9885","longitude_centre":"6.1349","distance_km":16.91},{"id":11435,"code_insee":"05147","nom_standard":"Saint-Julien-en-Champsaur","nom_a":null,"nom_de":null,"slug_ville":"saint-julien-en-champsaur","departement_id":0,"code_postal":"05500","population":382,"superficie_km2":"1034.40","latitude_centre":"44.6726","longitude_centre":"6.1289","distance_km":18.22},{"id":11404,"code_insee":"05104","nom_standard":"Poligny","nom_a":null,"nom_de":null,"slug_ville":"poligny","departement_id":0,"code_postal":"05500","population":338,"superficie_km2":"1391.13","latitude_centre":"44.6858","longitude_centre":"6.0335","distance_km":18.51},{"id":11343,"code_insee":"05025","nom_standard":"Buissard","nom_a":null,"nom_de":null,"slug_ville":"buissard","departement_id":0,"code_postal":"05500","population":187,"superficie_km2":"296.34","latitude_centre":"44.6587","longitude_centre":"6.1457","distance_km":19.78}]}