{"ville":{"id":25373,"code_insee":"55569","nom_standard":"Villotte-devant-Louppy","nom_a":null,"nom_de":null,"slug_ville":"villotte-devant-louppy","departement_id":0,"code_postal":"55250","population":163,"superficie_km2":"1137.55","latitude_centre":"48.8899","longitude_centre":"5.0776","dep_code":"55","dep_nom":"Meuse","dep_slug":"meuse","reg_code":"44","reg_nom":"Grand Est","reg_slug":"grand-est"},"departement":{"code":"55","nom":"Meuse","slug":"meuse"},"region":{"code":"44","nom":"Grand Est","slug":"grand-est"},"villes_proches":[{"id":25155,"code_insee":"55304","nom_standard":"Louppy-le-Château","nom_a":null,"nom_de":null,"slug_ville":"louppy-le-chateau","departement_id":0,"code_postal":"55800","population":155,"superficie_km2":"1889.32","latitude_centre":"48.8668","longitude_centre":"5.0736","distance_km":2.59},{"id":25130,"code_insee":"55271","nom_standard":"Laheycourt","nom_a":null,"nom_de":null,"slug_ville":"laheycourt","departement_id":0,"code_postal":"55800","population":349,"superficie_km2":"1787.91","latitude_centre":"48.901","longitude_centre":"5.0353","distance_km":3.33},{"id":25147,"code_insee":"55295","nom_standard":"Lisle-en-Barrois","nom_a":null,"nom_de":null,"slug_ville":"lisle-en-barrois","departement_id":0,"code_postal":"55250","population":27,"superficie_km2":"2900.33","latitude_centre":"48.921","longitude_centre":"5.0816","distance_km":3.47},{"id":25365,"code_insee":"55560","nom_standard":"Villers-aux-Vents","nom_a":null,"nom_de":null,"slug_ville":"villers-aux-vents","departement_id":0,"code_postal":"55800","population":125,"superficie_km2":"609.23","latitude_centre":"48.8598","longitude_centre":"5.0231","distance_km":5.2},{"id":25131,"code_insee":"55272","nom_standard":"Laimont","nom_a":null,"nom_de":null,"slug_ville":"laimont","departement_id":0,"code_postal":"55800","population":423,"superficie_km2":"1074.79","latitude_centre":"48.8422","longitude_centre":"5.0417","distance_km":5.92},{"id":25345,"code_insee":"55532","nom_standard":"Vaubecourt","nom_a":null,"nom_de":null,"slug_ville":"vaubecourt","departement_id":0,"code_postal":"55250","population":312,"superficie_km2":"2265.11","latitude_centre":"48.9446","longitude_centre":"5.1063","distance_km":6.43},{"id":25229,"code_insee":"55388","nom_standard":"Noyers-Auzécourt","nom_a":null,"nom_de":null,"slug_ville":"noyers-auzecourt","departement_id":0,"code_postal":"55800","population":273,"superficie_km2":"1731.02","latitude_centre":"48.8852","longitude_centre":"4.9834","distance_km":6.91},{"id":25017,"code_insee":"55123","nom_standard":"Les Hauts-de-Chée","nom_a":null,"nom_de":null,"slug_ville":"les-hauts-de-chee","departement_id":0,"code_postal":"55000","population":693,"superficie_km2":"5007.08","latitude_centre":"48.8724","longitude_centre":"5.1711","distance_km":7.11},{"id":25223,"code_insee":"55382","nom_standard":"Neuville-sur-Ornain","nom_a":null,"nom_de":null,"slug_ville":"neuville-sur-ornain","departement_id":0,"code_postal":"55800","population":365,"superficie_km2":"1167.28","latitude_centre":"48.8235","longitude_centre":"5.0497","distance_km":7.66},{"id":24998,"code_insee":"55101","nom_standard":"Chardogne","nom_a":null,"nom_de":null,"slug_ville":"chardogne","departement_id":0,"code_postal":"55000","population":305,"superficie_km2":"1279.30","latitude_centre":"48.8263","longitude_centre":"5.1277","distance_km":7.97},{"id":24972,"code_insee":"55069","nom_standard":"Brabant-le-Roi","nom_a":null,"nom_de":null,"slug_ville":"brabant-le-roi","departement_id":0,"code_postal":"55800","population":221,"superficie_km2":"1113.49","latitude_centre":"48.8576","longitude_centre":"4.9784","distance_km":8.1},{"id":25256,"code_insee":"55423","nom_standard":"Rembercourt-Sommaisne","nom_a":null,"nom_de":null,"slug_ville":"rembercourt-sommaisne","departement_id":0,"code_postal":"55250","population":309,"superficie_km2":"2227.11","latitude_centre":"48.9207","longitude_centre":"5.1813","distance_km":8.32},{"id":25207,"code_insee":"55366","nom_standard":"Val-d'Ornain","nom_a":null,"nom_de":null,"slug_ville":"val-d-ornain","departement_id":0,"code_postal":"55000","population":952,"superficie_km2":"2415.06","latitude_centre":"48.8131","longitude_centre":"5.0886","distance_km":8.58},{"id":25314,"code_insee":"55493","nom_standard":"Sommeilles","nom_a":null,"nom_de":null,"slug_ville":"sommeilles","departement_id":0,"code_postal":"55800","population":181,"superficie_km2":"1870.73","latitude_centre":"48.9153","longitude_centre":"4.9659","distance_km":8.64},{"id":25245,"code_insee":"55409","nom_standard":"Pretz-en-Argonne","nom_a":null,"nom_de":null,"slug_ville":"pretz-en-argonne","departement_id":0,"code_postal":"55250","population":64,"superficie_km2":"988.18","latitude_centre":"48.9585","longitude_centre":"5.1453","distance_km":9.09},{"id":25333,"code_insee":"55517","nom_standard":"Seuil-d'Argonne","nom_a":null,"nom_de":null,"slug_ville":"seuil-d-argonne","departement_id":0,"code_postal":"55250","population":530,"superficie_km2":"2551.65","latitude_centre":"48.9713","longitude_centre":"5.0527","distance_km":9.23},{"id":23360,"code_insee":"51047","nom_standard":"Belval-en-Argonne","nom_a":null,"nom_de":null,"slug_ville":"belval-en-argonne","departement_id":0,"code_postal":"51330","population":44,"superficie_km2":"1220.92","latitude_centre":"48.9439","longitude_centre":"4.9814","distance_km":9.24},{"id":25344,"code_insee":"55531","nom_standard":"Vassincourt","nom_a":null,"nom_de":null,"slug_ville":"vassincourt","departement_id":0,"code_postal":"55800","population":274,"superficie_km2":"796.34","latitude_centre":"48.801","longitude_centre":"5.026","distance_km":10.58},{"id":25063,"code_insee":"55185","nom_standard":"Èvres","nom_a":null,"nom_de":null,"slug_ville":"evres","departement_id":0,"code_postal":"55250","population":90,"superficie_km2":"1169.16","latitude_centre":"48.9824","longitude_centre":"5.1294","distance_km":10.96},{"id":0,"code_insee":"55186","nom_standard":"Fains-Véel","nom_a":null,"nom_de":null,"slug_ville":"fains-veel","departement_id":0,"code_postal":"55000","population":2080,"superficie_km2":"1848.16","latitude_centre":"48.7849","longitude_centre":"5.1102","distance_km":11.92}]}