{"ville":{"id":23318,"code_insee":"50639","nom_standard":"Villedieu-les-Poêles-Rouffigny","nom_a":null,"nom_de":null,"slug_ville":"villedieu-les-poeles-rouffigny","departement_id":0,"code_postal":"50800","population":3903,"superficie_km2":"1468.87","latitude_centre":"48.8247","longitude_centre":"-1.2399","dep_code":"50","dep_nom":"Manche","dep_slug":"manche","reg_code":"28","reg_nom":"Normandie","reg_slug":"normandie"},"departement":{"code":"50","nom":"Manche","slug":"manche"},"region":{"code":"28","nom":"Normandie","slug":"normandie"},"villes_proches":[{"id":23110,"code_insee":"50262","nom_standard":"La Lande-d'Airou","nom_a":null,"nom_de":null,"slug_ville":"la-lande-d-airou","departement_id":0,"code_postal":"50800","population":535,"superficie_km2":"1517.71","latitude_centre":"48.8171","longitude_centre":"-1.2835","distance_km":3.3},{"id":0,"code_insee":"50185","nom_standard":"Fleury","nom_a":null,"nom_de":null,"slug_ville":"fleury","departement_id":0,"code_postal":"50800","population":1101,"superficie_km2":"1272.27","latitude_centre":"48.8497","longitude_centre":"-1.2649","distance_km":3.33},{"id":23040,"code_insee":"50130","nom_standard":"Chérencé-le-Héron","nom_a":null,"nom_de":null,"slug_ville":"cherence-le-heron","departement_id":0,"code_postal":"50800","population":436,"superficie_km2":"963.15","latitude_centre":"48.8011","longitude_centre":"-1.2009","distance_km":3.88},{"id":23212,"code_insee":"50453","nom_standard":"Sainte-Cécile","nom_a":null,"nom_de":null,"slug_ville":"sainte-cecile","departement_id":0,"code_postal":"50800","population":792,"superficie_km2":"1160.94","latitude_centre":"48.8344","longitude_centre":"-1.1866","distance_km":4.05},{"id":23302,"code_insee":"50607","nom_standard":"La Trinité","nom_a":null,"nom_de":null,"slug_ville":"la-trinite","departement_id":0,"code_postal":"50800","population":405,"superficie_km2":"920.43","latitude_centre":"48.7871","longitude_centre":"-1.2438","distance_km":4.19},{"id":23010,"code_insee":"50069","nom_standard":"Bourguenolles","nom_a":null,"nom_de":null,"slug_ville":"bourguenolles","departement_id":0,"code_postal":"50800","population":349,"superficie_km2":"766.68","latitude_centre":"48.7944","longitude_centre":"-1.2892","distance_km":4.94},{"id":23007,"code_insee":"50060","nom_standard":"La Bloutière","nom_a":null,"nom_de":null,"slug_ville":"la-bloutiere","departement_id":0,"code_postal":"50800","population":423,"superficie_km2":"937.38","latitude_centre":"48.869","longitude_centre":"-1.2511","distance_km":4.99},{"id":23037,"code_insee":"50121","nom_standard":"La Chapelle-Cécelin","nom_a":null,"nom_de":null,"slug_ville":"la-chapelle-cecelin","departement_id":0,"code_postal":"50800","population":245,"superficie_km2":"524.31","latitude_centre":"48.8094","longitude_centre":"-1.1677","distance_km":5.55},{"id":23035,"code_insee":"50118","nom_standard":"Champrepus","nom_a":null,"nom_de":null,"slug_ville":"champrepus","departement_id":0,"code_postal":"50800","population":322,"superficie_km2":"915.02","latitude_centre":"48.8357","longitude_centre":"-1.3188","distance_km":5.9},{"id":23042,"code_insee":"50137","nom_standard":"La Colombe","nom_a":null,"nom_de":null,"slug_ville":"la-colombe","departement_id":0,"code_postal":"50800","population":626,"superficie_km2":"1446.55","latitude_centre":"48.8704","longitude_centre":"-1.1914","distance_km":6.2},{"id":23139,"code_insee":"50311","nom_standard":"Le Mesnil-Garnier","nom_a":null,"nom_de":null,"slug_ville":"le-mesnil-garnier","departement_id":0,"code_postal":"50450","population":220,"superficie_km2":"1049.19","latitude_centre":"48.8639","longitude_centre":"-1.3035","distance_km":6.38},{"id":23259,"code_insee":"50521","nom_standard":"Saint-Maur-des-Bois","nom_a":null,"nom_de":null,"slug_ville":"saint-maur-des-bois","departement_id":0,"code_postal":"50800","population":153,"superficie_km2":"496.58","latitude_centre":"48.8159","longitude_centre":"-1.1525","distance_km":6.47},{"id":23241,"code_insee":"50495","nom_standard":"Saint-Jean-du-Corail-des-Bois","nom_a":null,"nom_de":null,"slug_ville":"saint-jean-du-corail-des-bois","departement_id":0,"code_postal":"50370","population":70,"superficie_km2":"366.74","latitude_centre":"48.7704","longitude_centre":"-1.2031","distance_km":6.61},{"id":23032,"code_insee":"50112","nom_standard":"La Chaise-Baudouin","nom_a":null,"nom_de":null,"slug_ville":"la-chaise-baudouin","departement_id":0,"code_postal":"50370","population":435,"superficie_km2":"1215.85","latitude_centre":"48.764","longitude_centre":"-1.2442","distance_km":6.76},{"id":23000,"code_insee":"50048","nom_standard":"Beslon","nom_a":null,"nom_de":null,"slug_ville":"beslon","departement_id":0,"code_postal":"50800","population":562,"superficie_km2":"1743.99","latitude_centre":"48.8583","longitude_centre":"-1.1601","distance_km":6.93},{"id":23263,"code_insee":"50529","nom_standard":"Saint-Nicolas-des-Bois","nom_a":null,"nom_de":null,"slug_ville":"saint-nicolas-des-bois","departement_id":0,"code_postal":"50370","population":98,"superficie_km2":"361.83","latitude_centre":"48.7627","longitude_centre":"-1.1938","distance_km":7.68},{"id":23151,"code_insee":"50336","nom_standard":"Montaigu-les-Bois","nom_a":null,"nom_de":null,"slug_ville":"montaigu-les-bois","departement_id":0,"code_postal":"50450","population":204,"superficie_km2":"672.91","latitude_centre":"48.8917","longitude_centre":"-1.2716","distance_km":7.8},{"id":23266,"code_insee":"50535","nom_standard":"Le Parc","nom_a":null,"nom_de":null,"slug_ville":"le-parc","departement_id":0,"code_postal":"50870","population":921,"superficie_km2":"2278.36","latitude_centre":"48.7515","longitude_centre":"-1.2904","distance_km":8.94},{"id":23177,"code_insee":"50379","nom_standard":"Notre-Dame-de-Livoye","nom_a":null,"nom_de":null,"slug_ville":"notre-dame-de-livoye","departement_id":0,"code_postal":"50370","population":164,"superficie_km2":"361.15","latitude_centre":"48.7464","longitude_centre":"-1.198","distance_km":9.23},{"id":23225,"code_insee":"50472","nom_standard":"Saint-Georges-de-Livoye","nom_a":null,"nom_de":null,"slug_ville":"saint-georges-de-livoye","departement_id":0,"code_postal":"50370","population":204,"superficie_km2":"557.32","latitude_centre":"48.7395","longitude_centre":"-1.2211","distance_km":9.57}]}