{"ville":{"id":21199,"code_insee":"39577","nom_standard":"Vincent-Froideville","nom_a":null,"nom_de":null,"slug_ville":"vincent-froideville","departement_id":0,"code_postal":"39230","population":381,"superficie_km2":"1200.51","latitude_centre":"46.7928","longitude_centre":"5.4803","dep_code":"39","dep_nom":"Jura","dep_slug":"jura","reg_code":"27","reg_nom":"Bourgogne-Franche-Comté","reg_slug":"bourgogne-franche-comte"},"departement":{"code":"39","nom":"Jura","slug":"jura"},"region":{"code":"27","nom":"Bourgogne-Franche-Comté","slug":"bourgogne-franche-comte"},"villes_proches":[{"id":20993,"code_insee":"39296","nom_standard":"Lombard","nom_a":null,"nom_de":null,"slug_ville":"lombard","departement_id":0,"code_postal":"39230","population":220,"superficie_km2":"526.20","latitude_centre":"46.7815","longitude_centre":"5.509","distance_km":2.52},{"id":21108,"code_insee":"39454","nom_standard":"Recanoz","nom_a":null,"nom_de":null,"slug_ville":"recanoz","departement_id":0,"code_postal":"39230","population":94,"superficie_km2":"307.46","latitude_centre":"46.808","longitude_centre":"5.508","distance_km":2.7},{"id":20913,"code_insee":"39194","nom_standard":"Desnes","nom_a":null,"nom_de":null,"slug_ville":"desnes","departement_id":0,"code_postal":"39140","population":494,"superficie_km2":"930.42","latitude_centre":"46.7682","longitude_centre":"5.4669","distance_km":2.92},{"id":20887,"code_insee":"39160","nom_standard":"Commenailles","nom_a":null,"nom_de":null,"slug_ville":"commenailles","departement_id":0,"code_postal":"39140","population":898,"superficie_km2":"2182.16","latitude_centre":"46.8034","longitude_centre":"5.436","distance_km":3.57},{"id":20866,"code_insee":"39132","nom_standard":"La Chaux-en-Bresse","nom_a":null,"nom_de":null,"slug_ville":"la-chaux-en-bresse","departement_id":0,"code_postal":"39230","population":30,"superficie_km2":"207.89","latitude_centre":"46.8262","longitude_centre":"5.4764","distance_km":3.73},{"id":20810,"code_insee":"39060","nom_standard":"Bois-de-Gand","nom_a":null,"nom_de":null,"slug_ville":"bois-de-gand","departement_id":0,"code_postal":"39230","population":60,"superficie_km2":"330.24","latitude_centre":"46.8261","longitude_centre":"5.5019","distance_km":4.05},{"id":21110,"code_insee":"39456","nom_standard":"Relans","nom_a":null,"nom_de":null,"slug_ville":"relans","departement_id":0,"code_postal":"39140","population":348,"superficie_km2":"468.18","latitude_centre":"46.7675","longitude_centre":"5.4359","distance_km":4.4},{"id":21181,"code_insee":"39555","nom_standard":"Vers-sous-Sellières","nom_a":null,"nom_de":null,"slug_ville":"vers-sous-sellieres","departement_id":0,"code_postal":"39230","population":223,"superficie_km2":"854.85","latitude_centre":"46.8227","longitude_centre":"5.5266","distance_km":4.84},{"id":0,"code_insee":"39017","nom_standard":"Arlay","nom_a":null,"nom_de":null,"slug_ville":"arlay","departement_id":0,"code_postal":"39140","population":1182,"superficie_km2":"2028.63","latitude_centre":"46.767","longitude_centre":"5.5383","distance_km":5.27},{"id":20943,"code_insee":"39236","nom_standard":"Francheville","nom_a":null,"nom_de":null,"slug_ville":"francheville","departement_id":0,"code_postal":"39230","population":39,"superficie_km2":"147.65","latitude_centre":"46.8375","longitude_centre":"5.5039","distance_km":5.28},{"id":21002,"code_insee":"39310","nom_standard":"Mantry","nom_a":null,"nom_de":null,"slug_ville":"mantry","departement_id":0,"code_postal":"39230","population":472,"superficie_km2":"1081.20","latitude_centre":"46.7918","longitude_centre":"5.5501","distance_km":5.31},{"id":20860,"code_insee":"39124","nom_standard":"Chaumergy","nom_a":null,"nom_de":null,"slug_ville":"chaumergy","departement_id":0,"code_postal":"39230","population":510,"superficie_km2":"623.10","latitude_centre":"46.8427","longitude_centre":"5.4767","distance_km":5.56},{"id":21197,"code_insee":"39575","nom_standard":"Le Villey","nom_a":null,"nom_de":null,"slug_ville":"le-villey","departement_id":0,"code_postal":"39230","population":94,"superficie_km2":"360.84","latitude_centre":"46.847","longitude_centre":"5.506","distance_km":6.34},{"id":21053,"code_insee":"39379","nom_standard":"Nance","nom_a":null,"nom_de":null,"slug_ville":"nance","departement_id":0,"code_postal":"39140","population":544,"superficie_km2":"743.78","latitude_centre":"46.7506","longitude_centre":"5.4217","distance_km":6.48},{"id":0,"code_insee":"71028","nom_standard":"Beauvernois","nom_a":null,"nom_de":null,"slug_ville":"beauvernois","departement_id":0,"code_postal":"71270","population":105,"superficie_km2":"889.32","latitude_centre":"46.8436","longitude_centre":"5.4374","distance_km":6.52},{"id":20873,"code_insee":"39140","nom_standard":"Chêne-Sec","nom_a":null,"nom_de":null,"slug_ville":"chene-sec","departement_id":0,"code_postal":"39230","population":39,"superficie_km2":"82.07","latitude_centre":"46.8533","longitude_centre":"5.4444","distance_km":7.26},{"id":21102,"code_insee":"39447","nom_standard":"Quintigny","nom_a":null,"nom_de":null,"slug_ville":"quintigny","departement_id":0,"code_postal":"39570","population":308,"superficie_km2":"369.64","latitude_centre":"46.7343","longitude_centre":"5.5232","distance_km":7.28},{"id":21123,"code_insee":"39471","nom_standard":"Ruffey-sur-Seille","nom_a":null,"nom_de":null,"slug_ville":"ruffey-sur-seille","departement_id":0,"code_postal":"39140","population":738,"superficie_km2":"1812.42","latitude_centre":"46.7282","longitude_centre":"5.503","distance_km":7.39},{"id":20942,"code_insee":"39234","nom_standard":"Foulenay","nom_a":null,"nom_de":null,"slug_ville":"foulenay","departement_id":0,"code_postal":"39230","population":82,"superficie_km2":"415.16","latitude_centre":"46.8619","longitude_centre":"5.4869","distance_km":7.7},{"id":21196,"code_insee":"39574","nom_standard":"Villevieux","nom_a":null,"nom_de":null,"slug_ville":"villevieux","departement_id":0,"code_postal":"39140","population":705,"superficie_km2":"1012.60","latitude_centre":"46.7276","longitude_centre":"5.4449","distance_km":7.74}]}