{"ville":{"id":35030,"code_insee":"89480","nom_standard":"Vinneuf","nom_a":null,"nom_de":null,"slug_ville":"vinneuf","departement_id":0,"code_postal":"89140","population":1536,"superficie_km2":"1529.63","latitude_centre":"48.353","longitude_centre":"3.144","dep_code":"89","dep_nom":"Yonne","dep_slug":"yonne","reg_code":"27","reg_nom":"Bourgogne-Franche-Comté","reg_slug":"bourgogne-franche-comte"},"departement":{"code":"89","nom":"Yonne","slug":"yonne"},"region":{"code":"27","nom":"Bourgogne-Franche-Comté","slug":"bourgogne-franche-comte"},"villes_proches":[{"id":0,"code_insee":"89124","nom_standard":"Courlon-sur-Yonne","nom_a":null,"nom_de":null,"slug_ville":"courlon-sur-yonne","departement_id":0,"code_postal":"89140","population":1183,"superficie_km2":"1685.66","latitude_centre":"48.3436","longitude_centre":"3.1787","distance_km":2.77},{"id":32271,"code_insee":"77293","nom_standard":"Misy-sur-Yonne","nom_a":null,"nom_de":null,"slug_ville":"misy-sur-yonne","departement_id":0,"code_postal":"77130","population":834,"superficie_km2":"626.66","latitude_centre":"48.3628","longitude_centre":"3.0942","distance_km":3.84},{"id":32227,"code_insee":"77212","nom_standard":"Gravon","nom_a":null,"nom_de":null,"slug_ville":"gravon","departement_id":0,"code_postal":"77118","population":156,"superficie_km2":"759.16","latitude_centre":"48.3881","longitude_centre":"3.1225","distance_km":4.21},{"id":32127,"code_insee":"77019","nom_standard":"Balloy","nom_a":null,"nom_de":null,"slug_ville":"balloy","departement_id":0,"code_postal":"77118","population":359,"superficie_km2":"1338.84","latitude_centre":"48.3951","longitude_centre":"3.1493","distance_km":4.7},{"id":35004,"code_insee":"89449","nom_standard":"Villeblevin","nom_a":null,"nom_de":null,"slug_ville":"villeblevin","departement_id":0,"code_postal":"89340","population":1795,"superficie_km2":"737.95","latitude_centre":"48.3313","longitude_centre":"3.0826","distance_km":5.14},{"id":34963,"code_insee":"89390","nom_standard":"Serbonnes","nom_a":null,"nom_de":null,"slug_ville":"serbonnes","departement_id":0,"code_postal":"89140","population":716,"superficie_km2":"989.83","latitude_centre":"48.3304","longitude_centre":"3.2058","distance_km":5.21},{"id":32358,"code_insee":"77467","nom_standard":"La Tombe","nom_a":null,"nom_de":null,"slug_ville":"la-tombe","departement_id":0,"code_postal":"77130","population":208,"superficie_km2":"784.45","latitude_centre":"48.3873","longitude_centre":"3.0949","distance_km":5.26},{"id":0,"code_insee":"89074","nom_standard":"Champigny","nom_a":null,"nom_de":null,"slug_ville":"champigny","departement_id":0,"code_postal":"89340","population":2128,"superficie_km2":"2117.11","latitude_centre":"48.3045","longitude_centre":"3.1348","distance_km":5.44},{"id":34746,"code_insee":"89093","nom_standard":"Chaumont","nom_a":null,"nom_de":null,"slug_ville":"chaumont","departement_id":0,"code_postal":"89340","population":645,"superficie_km2":"896.24","latitude_centre":"48.3095","longitude_centre":"3.1023","distance_km":5.74},{"id":32132,"code_insee":"77025","nom_standard":"Bazoches-lès-Bray","nom_a":null,"nom_de":null,"slug_ville":"bazoches-les-bray","departement_id":0,"code_postal":"77118","population":878,"superficie_km2":"2264.86","latitude_centre":"48.3978","longitude_centre":"3.1902","distance_km":6.04},{"id":35009,"code_insee":"89456","nom_standard":"Villemanoche","nom_a":null,"nom_de":null,"slug_ville":"villemanoche","departement_id":0,"code_postal":"89140","population":667,"superficie_km2":"1458.08","latitude_centre":"48.2975","longitude_centre":"3.1655","distance_km":6.37},{"id":35012,"code_insee":"89460","nom_standard":"Villeneuve-la-Guyard","nom_a":null,"nom_de":null,"slug_ville":"villeneuve-la-guyard","departement_id":0,"code_postal":"89340","population":3455,"superficie_km2":"1693.88","latitude_centre":"48.331","longitude_centre":"3.0578","distance_km":6.82},{"id":32129,"code_insee":"77021","nom_standard":"Barbey","nom_a":null,"nom_de":null,"slug_ville":"barbey","departement_id":0,"code_postal":"77130","population":153,"superficie_km2":"430.69","latitude_centre":"48.3655","longitude_centre":"3.0481","distance_km":7.22},{"id":0,"code_insee":"77101","nom_standard":"Châtenay-sur-Seine","nom_a":null,"nom_de":null,"slug_ville":"chatenay-sur-seine","departement_id":0,"code_postal":"77126","population":1049,"superficie_km2":"1338.40","latitude_centre":"48.4198","longitude_centre":"3.097","distance_km":8.2},{"id":32284,"code_insee":"77321","nom_standard":"Mousseaux-lès-Bray","nom_a":null,"nom_de":null,"slug_ville":"mousseaux-les-bray","departement_id":0,"code_postal":"77480","population":682,"superficie_km2":"867.83","latitude_centre":"48.3941","longitude_centre":"3.2371","distance_km":8.26},{"id":34924,"code_insee":"89332","nom_standard":"Saint-Agnan","nom_a":null,"nom_de":null,"slug_ville":"saint-agnan","departement_id":0,"code_postal":"89340","population":913,"superficie_km2":"1324.42","latitude_centre":"48.3024","longitude_centre":"3.0557","distance_km":8.62},{"id":0,"code_insee":"89309","nom_standard":"Pont-sur-Yonne","nom_a":null,"nom_de":null,"slug_ville":"pont-sur-yonne","departement_id":0,"code_postal":"89140","population":3391,"superficie_km2":"1395.65","latitude_centre":"48.2807","longitude_centre":"3.1885","distance_km":8.69},{"id":32204,"code_insee":"77167","nom_standard":"Égligny","nom_a":null,"nom_de":null,"slug_ville":"egligny","departement_id":0,"code_postal":"77126","population":310,"superficie_km2":"1663.20","latitude_centre":"48.4367","longitude_centre":"3.1251","distance_km":9.41},{"id":32396,"code_insee":"77524","nom_standard":"Vimpelles","nom_a":null,"nom_de":null,"slug_ville":"vimpelles","departement_id":0,"code_postal":"77520","population":512,"superficie_km2":"1136.39","latitude_centre":"48.4436","longitude_centre":"3.1678","distance_km":10.23},{"id":32343,"code_insee":"77434","nom_standard":"Saint-Sauveur-lès-Bray","nom_a":null,"nom_de":null,"slug_ville":"saint-sauveur-les-bray","departement_id":0,"code_postal":"77480","population":350,"superficie_km2":"646.04","latitude_centre":"48.4387","longitude_centre":"3.2038","distance_km":10.5}]}