{"ville":{"id":32526,"code_insee":"78686","nom_standard":"Viroflay","nom_a":null,"nom_de":null,"slug_ville":"viroflay","departement_id":0,"code_postal":"78220","population":17237,"superficie_km2":"347.87","latitude_centre":"48.8017","longitude_centre":"2.1725","dep_code":"78","dep_nom":"Yvelines","dep_slug":"yvelines","reg_code":"11","reg_nom":"Île-de-France","reg_slug":"ile-de-france"},"departement":{"code":"78","nom":"Yvelines","slug":"yvelines"},"region":{"code":"11","nom":"Île-de-France","slug":"ile-de-france"},"villes_proches":[{"id":0,"code_insee":"92022","nom_standard":"Chaville","nom_a":null,"nom_de":null,"slug_ville":"chaville","departement_id":0,"code_postal":"92370","population":20594,"superficie_km2":"357.45","latitude_centre":"48.8091","longitude_centre":"2.191","distance_km":1.59},{"id":0,"code_insee":"92077","nom_standard":"Ville-d'Avray","nom_a":null,"nom_de":null,"slug_ville":"ville-d-avray","departement_id":0,"code_postal":"92410","population":11089,"superficie_km2":"369.08","latitude_centre":"48.8215","longitude_centre":"2.1759","distance_km":2.22},{"id":0,"code_insee":"78640","nom_standard":"Vélizy-Villacoublay","nom_a":null,"nom_de":null,"slug_ville":"velizy-villacoublay","departement_id":0,"code_postal":"78140","population":23011,"superficie_km2":"893.23","latitude_centre":"48.784","longitude_centre":"2.1956","distance_km":2.6},{"id":0,"code_insee":"92047","nom_standard":"Marnes-la-Coquette","nom_a":null,"nom_de":null,"slug_ville":"marnes-la-coquette","departement_id":0,"code_postal":"92430","population":1752,"superficie_km2":"347.42","latitude_centre":"48.8286","longitude_centre":"2.1689","distance_km":3.0},{"id":0,"code_insee":"92072","nom_standard":"Sèvres","nom_a":null,"nom_de":null,"slug_ville":"sevres","departement_id":0,"code_postal":"92310","population":22303,"superficie_km2":"392.74","latitude_centre":"48.8223","longitude_centre":"2.2056","distance_km":3.33},{"id":0,"code_insee":"78646","nom_standard":"Versailles","nom_a":null,"nom_de":null,"slug_ville":"versailles","departement_id":0,"code_postal":"78000","population":84095,"superficie_km2":"2615.05","latitude_centre":"48.8039","longitude_centre":"2.1191","distance_km":3.92},{"id":0,"code_insee":"92076","nom_standard":"Vaucresson","nom_a":null,"nom_de":null,"slug_ville":"vaucresson","departement_id":0,"code_postal":"92420","population":8432,"superficie_km2":"309.44","latitude_centre":"48.8377","longitude_centre":"2.1628","distance_km":4.07},{"id":0,"code_insee":"92048","nom_standard":"Meudon","nom_a":null,"nom_de":null,"slug_ville":"meudon","departement_id":0,"code_postal":"92190","population":46334,"superficie_km2":"994.19","latitude_centre":"48.8028","longitude_centre":"2.2288","distance_km":4.13},{"id":0,"code_insee":"78322","nom_standard":"Jouy-en-Josas","nom_a":null,"nom_de":null,"slug_ville":"jouy-en-josas","departement_id":0,"code_postal":"78350","population":7981,"superficie_km2":"1021.49","latitude_centre":"48.7652","longitude_centre":"2.161","distance_km":4.15},{"id":0,"code_insee":"78117","nom_standard":"Buc","nom_a":null,"nom_de":null,"slug_ville":"buc","departement_id":0,"code_postal":"78530","population":5816,"superficie_km2":"805.23","latitude_centre":"48.7736","longitude_centre":"2.125","distance_km":4.68},{"id":0,"code_insee":"78158","nom_standard":"Le Chesnay-Rocquencourt","nom_a":null,"nom_de":null,"slug_ville":"le-chesnay-rocquencourt","departement_id":0,"code_postal":"78150","population":30689,"superficie_km2":"715.55","latitude_centre":"48.8285","longitude_centre":"2.1188","distance_km":4.93},{"id":0,"code_insee":"78343","nom_standard":"Les Loges-en-Josas","nom_a":null,"nom_de":null,"slug_ville":"les-loges-en-josas","departement_id":0,"code_postal":"78350","population":1645,"superficie_km2":"250.60","latitude_centre":"48.7617","longitude_centre":"2.1412","distance_km":5.0},{"id":0,"code_insee":"92033","nom_standard":"Garches","nom_a":null,"nom_de":null,"slug_ville":"garches","departement_id":0,"code_postal":"92380","population":17743,"superficie_km2":"272.07","latitude_centre":"48.8469","longitude_centre":"2.1861","distance_km":5.12},{"id":0,"code_insee":"92064","nom_standard":"Saint-Cloud","nom_a":null,"nom_de":null,"slug_ville":"saint-cloud","departement_id":0,"code_postal":"92210","population":29855,"superficie_km2":"750.91","latitude_centre":"48.844","longitude_centre":"2.2032","distance_km":5.21},{"id":0,"code_insee":"91064","nom_standard":"Bièvres","nom_a":null,"nom_de":null,"slug_ville":"bievres","departement_id":0,"code_postal":"91570","population":4686,"superficie_km2":"971.34","latitude_centre":"48.7565","longitude_centre":"2.2079","distance_km":5.66},{"id":0,"code_insee":"78126","nom_standard":"La Celle-Saint-Cloud","nom_a":null,"nom_de":null,"slug_ville":"la-celle-saint-cloud","departement_id":0,"code_postal":"78170","population":20460,"superficie_km2":"583.85","latitude_centre":"48.8498","longitude_centre":"2.1342","distance_km":6.04},{"id":0,"code_insee":"78620","nom_standard":"Toussus-le-Noble","nom_a":null,"nom_de":null,"slug_ville":"toussus-le-noble","departement_id":0,"code_postal":"78117","population":1172,"superficie_km2":"402.04","latitude_centre":"48.7477","longitude_centre":"2.1192","distance_km":7.16},{"id":0,"code_insee":"78092","nom_standard":"Bougival","nom_a":null,"nom_de":null,"slug_ville":"bougival","departement_id":0,"code_postal":"78380","population":9134,"superficie_km2":"275.63","latitude_centre":"48.8627","longitude_centre":"2.1394","distance_km":7.2},{"id":0,"code_insee":"91534","nom_standard":"Saclay","nom_a":null,"nom_de":null,"slug_ville":"saclay","departement_id":0,"code_postal":"91400","population":4437,"superficie_km2":"1374.81","latitude_centre":"48.7367","longitude_centre":"2.1693","distance_km":7.23},{"id":0,"code_insee":"92063","nom_standard":"Rueil-Malmaison","nom_a":null,"nom_de":null,"slug_ville":"rueil-malmaison","departement_id":0,"code_postal":"92500","population":82874,"superficie_km2":"1452.83","latitude_centre":"48.8717","longitude_centre":"2.1806","distance_km":7.81}]}