{"ville":{"id":24260,"code_insee":"52541","nom_standard":"Vitry-lès-Nogent","nom_a":null,"nom_de":null,"slug_ville":"vitry-les-nogent","departement_id":0,"code_postal":"52800","population":205,"superficie_km2":"814.05","latitude_centre":"47.987","longitude_centre":"5.3428","dep_code":"52","dep_nom":"Haute-Marne","dep_slug":"haute-marne","reg_code":"44","reg_nom":"Grand Est","reg_slug":"grand-est"},"departement":{"code":"52","nom":"Haute-Marne","slug":"haute-marne"},"region":{"code":"44","nom":"Grand Est","slug":"grand-est"},"villes_proches":[{"id":24156,"code_insee":"52396","nom_standard":"Poinson-lès-Nogent","nom_a":null,"nom_de":null,"slug_ville":"poinson-les-nogent","departement_id":0,"code_postal":"52800","population":144,"superficie_km2":"1078.31","latitude_centre":"47.9906","longitude_centre":"5.3809","distance_km":2.86},{"id":24219,"code_insee":"52488","nom_standard":"Thivet","nom_a":null,"nom_de":null,"slug_ville":"thivet","departement_id":0,"code_postal":"52800","population":276,"superficie_km2":"1546.37","latitude_centre":"47.9857","longitude_centre":"5.2958","distance_km":3.5},{"id":0,"code_insee":"52432","nom_standard":"Rolampont","nom_a":null,"nom_de":null,"slug_ville":"rolampont","departement_id":0,"code_postal":"52260","population":1373,"superficie_km2":"4929.00","latitude_centre":"47.9476","longitude_centre":"5.309","distance_km":5.05},{"id":23986,"code_insee":"52163","nom_standard":"Dampierre","nom_a":null,"nom_de":null,"slug_ville":"dampierre","departement_id":0,"code_postal":"52360","population":382,"superficie_km2":"1625.58","latitude_centre":"47.961","longitude_centre":"5.4011","distance_km":5.21},{"id":24244,"code_insee":"52518","nom_standard":"Vesaignes-sur-Marne","nom_a":null,"nom_de":null,"slug_ville":"vesaignes-sur-marne","departement_id":0,"code_postal":"52800","population":103,"superficie_km2":"858.96","latitude_centre":"47.9974","longitude_centre":"5.2668","distance_km":5.77},{"id":0,"code_insee":"52353","nom_standard":"Nogent","nom_a":null,"nom_de":null,"slug_ville":"nogent","departement_id":0,"code_postal":"52800","population":3550,"superficie_km2":"5511.18","latitude_centre":"48.0419","longitude_centre":"5.3635","distance_km":6.3},{"id":24081,"code_insee":"52295","nom_standard":"Louvières","nom_a":null,"nom_de":null,"slug_ville":"louvieres","departement_id":0,"code_postal":"52800","population":87,"superficie_km2":"870.60","latitude_centre":"48.0274","longitude_centre":"5.2819","distance_km":6.38},{"id":24199,"code_insee":"52461","nom_standard":"Sarrey","nom_a":null,"nom_de":null,"slug_ville":"sarrey","departement_id":0,"code_postal":"52140","population":363,"superficie_km2":"1418.20","latitude_centre":"48.0015","longitude_centre":"5.4261","distance_km":6.4},{"id":23954,"code_insee":"52120","nom_standard":"Chauffourt","nom_a":null,"nom_de":null,"slug_ville":"chauffourt","departement_id":0,"code_postal":"52140","population":180,"superficie_km2":"968.30","latitude_centre":"47.9709","longitude_centre":"5.4366","distance_km":7.21},{"id":23946,"code_insee":"52108","nom_standard":"Charmes","nom_a":null,"nom_de":null,"slug_ville":"charmes","departement_id":0,"code_postal":"52360","population":151,"superficie_km2":"609.66","latitude_centre":"47.9219","longitude_centre":"5.3528","distance_km":7.28},{"id":23943,"code_insee":"52105","nom_standard":"Changey","nom_a":null,"nom_de":null,"slug_ville":"changey","departement_id":0,"code_postal":"52360","population":285,"superficie_km2":"662.88","latitude_centre":"47.9249","longitude_centre":"5.3851","distance_km":7.59},{"id":24198,"code_insee":"52459","nom_standard":"Sarcey","nom_a":null,"nom_de":null,"slug_ville":"sarcey","departement_id":0,"code_postal":"52800","population":97,"superficie_km2":"722.85","latitude_centre":"48.0576","longitude_centre":"5.2961","distance_km":8.58},{"id":23944,"code_insee":"52106","nom_standard":"Chanoy","nom_a":null,"nom_de":null,"slug_ville":"chanoy","departement_id":0,"code_postal":"52260","population":132,"superficie_km2":"208.90","latitude_centre":"47.9195","longitude_centre":"5.2858","distance_km":8.62},{"id":24161,"code_insee":"52401","nom_standard":"Poulangy","nom_a":null,"nom_de":null,"slug_ville":"poulangy","departement_id":0,"code_postal":"52800","population":361,"superficie_km2":"1740.17","latitude_centre":"48.0455","longitude_centre":"5.256","distance_km":9.16},{"id":24089,"code_insee":"52305","nom_standard":"Mandres-la-Côte","nom_a":null,"nom_de":null,"slug_ville":"mandres-la-cote","departement_id":0,"code_postal":"52800","population":556,"superficie_km2":"1151.45","latitude_centre":"48.0692","longitude_centre":"5.3323","distance_km":9.17},{"id":24047,"code_insee":"52246","nom_standard":"Humes-Jorquenay","nom_a":null,"nom_de":null,"slug_ville":"humes-jorquenay","departement_id":0,"code_postal":"52200","population":594,"superficie_km2":"1569.74","latitude_centre":"47.9027","longitude_centre":"5.3022","distance_km":9.85},{"id":23898,"code_insee":"52037","nom_standard":"Bannes","nom_a":null,"nom_de":null,"slug_ville":"bannes","departement_id":0,"code_postal":"52360","population":360,"superficie_km2":"1010.01","latitude_centre":"47.903","longitude_centre":"5.3906","distance_km":10.0},{"id":23941,"code_insee":"52102","nom_standard":"Champigny-lès-Langres","nom_a":null,"nom_de":null,"slug_ville":"champigny-les-langres","departement_id":0,"code_postal":"52200","population":402,"superficie_km2":"637.95","latitude_centre":"47.895","longitude_centre":"5.3474","distance_km":10.24},{"id":24061,"code_insee":"52271","nom_standard":"Lanques-sur-Rognon","nom_a":null,"nom_de":null,"slug_ville":"lanques-sur-rognon","departement_id":0,"code_postal":"52800","population":213,"superficie_km2":"1317.85","latitude_centre":"48.083","longitude_centre":"5.3638","distance_km":10.79},{"id":24144,"code_insee":"52380","nom_standard":"Peigney","nom_a":null,"nom_de":null,"slug_ville":"peigney","departement_id":0,"code_postal":"52200","population":381,"superficie_km2":"831.88","latitude_centre":"47.8785","longitude_centre":"5.373","distance_km":12.27}]}