{"ville":{"id":24261,"code_insee":"52542","nom_standard":"Vivey","nom_a":null,"nom_de":null,"slug_ville":"vivey","departement_id":0,"code_postal":"52160","population":51,"superficie_km2":"1299.33","latitude_centre":"47.7377","longitude_centre":"5.0608","dep_code":"52","dep_nom":"Haute-Marne","dep_slug":"haute-marne","reg_code":"44","reg_nom":"Grand Est","reg_slug":"grand-est"},"departement":{"code":"52","nom":"Haute-Marne","slug":"haute-marne"},"region":{"code":"44","nom":"Grand Est","slug":"grand-est"},"villes_proches":[{"id":24162,"code_insee":"52403","nom_standard":"Praslay","nom_a":null,"nom_de":null,"slug_ville":"praslay","departement_id":0,"code_postal":"52160","population":75,"superficie_km2":"1133.06","latitude_centre":"47.7381","longitude_centre":"5.1094","distance_km":3.63},{"id":24251,"code_insee":"52526","nom_standard":"Villars-Santenoge","nom_a":null,"nom_de":null,"slug_ville":"villars-santenoge","departement_id":0,"code_postal":"52160","population":82,"superficie_km2":"1977.38","latitude_centre":"47.7451","longitude_centre":"5.0017","distance_km":4.5},{"id":24153,"code_insee":"52393","nom_standard":"Poinsenot","nom_a":null,"nom_de":null,"slug_ville":"poinsenot","departement_id":0,"code_postal":"52160","population":54,"superficie_km2":"728.39","latitude_centre":"47.7156","longitude_centre":"5.0094","distance_km":4.56},{"id":23936,"code_insee":"52094","nom_standard":"Vals-des-Tilles","nom_a":null,"nom_de":null,"slug_ville":"vals-des-tilles","departement_id":0,"code_postal":"52160","population":180,"superficie_km2":"3728.88","latitude_centre":"47.6905","longitude_centre":"5.0868","distance_km":5.6},{"id":23888,"code_insee":"52023","nom_standard":"Auberive","nom_a":null,"nom_de":null,"slug_ville":"auberive","departement_id":0,"code_postal":"52160","population":166,"superficie_km2":"7076.27","latitude_centre":"47.7843","longitude_centre":"5.0948","distance_km":5.77},{"id":24114,"code_insee":"52344","nom_standard":"Mouilleron","nom_a":null,"nom_de":null,"slug_ville":"mouilleron","departement_id":0,"code_postal":"52160","population":29,"superficie_km2":"521.04","latitude_centre":"47.6949","longitude_centre":"5.1126","distance_km":6.14},{"id":24155,"code_insee":"52395","nom_standard":"Poinson-lès-Grancey","nom_a":null,"nom_de":null,"slug_ville":"poinson-les-grancey","departement_id":0,"code_postal":"52160","population":57,"superficie_km2":"1161.91","latitude_centre":"47.7103","longitude_centre":"4.9789","distance_km":6.84},{"id":24024,"code_insee":"52216","nom_standard":"Germaines","nom_a":null,"nom_de":null,"slug_ville":"germaines","departement_id":0,"code_postal":"52160","population":47,"superficie_km2":"867.89","latitude_centre":"47.7991","longitude_centre":"5.0297","distance_km":7.21},{"id":24182,"code_insee":"52437","nom_standard":"Rouelles","nom_a":null,"nom_de":null,"slug_ville":"rouelles","departement_id":0,"code_postal":"52160","population":25,"superficie_km2":"660.52","latitude_centre":"47.8041","longitude_centre":"5.0891","distance_km":7.68},{"id":24228,"code_insee":"52499","nom_standard":"Vaillant","nom_a":null,"nom_de":null,"slug_ville":"vaillant","departement_id":0,"code_postal":"52160","population":46,"superficie_km2":"758.30","latitude_centre":"47.7171","longitude_centre":"5.1591","distance_km":7.7},{"id":23890,"code_insee":"52027","nom_standard":"Aujeurres","nom_a":null,"nom_de":null,"slug_ville":"aujeurres","departement_id":0,"code_postal":"52190","population":73,"superficie_km2":"1298.86","latitude_centre":"47.7391","longitude_centre":"5.1714","distance_km":8.27},{"id":23969,"code_insee":"52138","nom_standard":"Colmier-le-Haut","nom_a":null,"nom_de":null,"slug_ville":"colmier-le-haut","departement_id":0,"code_postal":"52160","population":61,"superficie_km2":"1961.49","latitude_centre":"47.7896","longitude_centre":"4.9801","distance_km":8.35},{"id":15445,"code_insee":"21304","nom_standard":"Grancey-le-Château-Neuvelle","nom_a":null,"nom_de":null,"slug_ville":"grancey-le-chateau-neuvelle","departement_id":0,"code_postal":"21580","population":247,"superficie_km2":"2770.56","latitude_centre":"47.6699","longitude_centre":"5.0117","distance_km":8.39},{"id":23935,"code_insee":"52092","nom_standard":"Chalancey","nom_a":null,"nom_de":null,"slug_ville":"chalancey","departement_id":0,"code_postal":"52160","population":121,"superficie_km2":"1366.83","latitude_centre":"47.6773","longitude_centre":"5.135","distance_km":8.71},{"id":24259,"code_insee":"52540","nom_standard":"Vitry-en-Montagne","nom_a":null,"nom_de":null,"slug_ville":"vitry-en-montagne","departement_id":0,"code_postal":"52160","population":33,"superficie_km2":"973.02","latitude_centre":"47.8211","longitude_centre":"5.0919","distance_km":9.56},{"id":23901,"code_insee":"52040","nom_standard":"Bay-sur-Aube","nom_a":null,"nom_de":null,"slug_ville":"bay-sur-aube","departement_id":0,"code_postal":"52160","population":45,"superficie_km2":"970.81","latitude_centre":"47.8253","longitude_centre":"5.0588","distance_km":9.74},{"id":15276,"code_insee":"21118","nom_standard":"Busserotte-et-Montenaille","nom_a":null,"nom_de":null,"slug_ville":"busserotte-et-montenaille","departement_id":0,"code_postal":"21580","population":33,"superficie_km2":"668.57","latitude_centre":"47.6599","longitude_centre":"4.9827","distance_km":10.44},{"id":23891,"code_insee":"52028","nom_standard":"Aulnoy-sur-Aube","nom_a":null,"nom_de":null,"slug_ville":"aulnoy-sur-aube","departement_id":0,"code_postal":"52160","population":51,"superficie_km2":"941.69","latitude_centre":"47.8319","longitude_centre":"5.0321","distance_km":10.69},{"id":15357,"code_insee":"21207","nom_standard":"Courlon","nom_a":null,"nom_de":null,"slug_ville":"courlon","departement_id":0,"code_postal":"21580","population":79,"superficie_km2":"982.79","latitude_centre":"47.646","longitude_centre":"5.0124","distance_km":10.82},{"id":15368,"code_insee":"21220","nom_standard":"Cussey-les-Forges","nom_a":null,"nom_de":null,"slug_ville":"cussey-les-forges","departement_id":0,"code_postal":"21580","population":144,"superficie_km2":"2345.32","latitude_centre":"47.6391","longitude_centre":"5.0845","distance_km":11.11}]}