{"ville":{"id":22974,"code_insee":"49378","nom_standard":"Vivy","nom_a":null,"nom_de":null,"slug_ville":"vivy","departement_id":0,"code_postal":"49680","population":2582,"superficie_km2":"2349.97","latitude_centre":"47.3211","longitude_centre":"-0.071","dep_code":"49","dep_nom":"Maine-et-Loire","dep_slug":"maine-et-loire","reg_code":"52","reg_nom":"Pays de la Loire","reg_slug":"pays-de-la-loire"},"departement":{"code":"49","nom":"Maine-et-Loire","slug":"maine-et-loire"},"region":{"code":"52","nom":"Pays de la Loire","slug":"pays-de-la-loire"},"villes_proches":[{"id":22957,"code_insee":"49224","nom_standard":"Neuillé","nom_a":null,"nom_de":null,"slug_ville":"neuille","departement_id":0,"code_postal":"49680","population":1028,"superficie_km2":"1392.52","latitude_centre":"47.3321","longitude_centre":"-0.0175","distance_km":4.21},{"id":22922,"code_insee":"49030","nom_standard":"Blou","nom_a":null,"nom_de":null,"slug_ville":"blou","departement_id":0,"code_postal":"49160","population":929,"superficie_km2":"2160.15","latitude_centre":"47.3607","longitude_centre":"-0.0534","distance_km":4.6},{"id":0,"code_insee":"49002","nom_standard":"Allonnes","nom_a":null,"nom_de":null,"slug_ville":"allonnes","departement_id":0,"code_postal":"49650","population":2911,"superficie_km2":"3658.44","latitude_centre":"47.3069","longitude_centre":"0.0081","distance_km":6.17},{"id":0,"code_insee":"49328","nom_standard":"Saumur","nom_a":null,"nom_de":null,"slug_ville":"saumur","departement_id":0,"code_postal":"49400","population":26241,"superficie_km2":"6653.01","latitude_centre":"47.2645","longitude_centre":"-0.0837","distance_km":6.37},{"id":22973,"code_insee":"49374","nom_standard":"Villebernier","nom_a":null,"nom_de":null,"slug_ville":"villebernier","departement_id":0,"code_postal":"49400","population":1441,"superficie_km2":"1008.95","latitude_centre":"47.2644","longitude_centre":"-0.0218","distance_km":7.32},{"id":0,"code_insee":"49311","nom_standard":"Saint-Philbert-du-Peuple","nom_a":null,"nom_de":null,"slug_ville":"saint-philbert-du-peuple","departement_id":0,"code_postal":"49160","population":1307,"superficie_km2":"1669.21","latitude_centre":"47.3901","longitude_centre":"-0.0471","distance_km":7.88},{"id":0,"code_insee":"49180","nom_standard":"Longué-Jumelles","nom_a":null,"nom_de":null,"slug_ville":"longue-jumelles","departement_id":0,"code_postal":"49160","population":6564,"superficie_km2":"9664.78","latitude_centre":"47.3961","longitude_centre":"-0.1092","distance_km":8.82},{"id":0,"code_insee":"49272","nom_standard":"Saint-Clément-des-Levées","nom_a":null,"nom_de":null,"slug_ville":"saint-clement-des-levees","departement_id":0,"code_postal":"49350","population":1128,"superficie_km2":"1045.84","latitude_centre":"47.3495","longitude_centre":"-0.1803","distance_km":8.82},{"id":22961,"code_insee":"49262","nom_standard":"Rou-Marson","nom_a":null,"nom_de":null,"slug_ville":"rou-marson","departement_id":0,"code_postal":"49400","population":638,"superficie_km2":"1288.89","latitude_centre":"47.2461","longitude_centre":"-0.1529","distance_km":10.38},{"id":0,"code_insee":"49362","nom_standard":"Varrains","nom_a":null,"nom_de":null,"slug_ville":"varrains","departement_id":0,"code_postal":"49400","population":1312,"superficie_km2":"348.04","latitude_centre":"47.2276","longitude_centre":"-0.0661","distance_km":10.4},{"id":22972,"code_insee":"49370","nom_standard":"Verrie","nom_a":null,"nom_de":null,"slug_ville":"verrie","departement_id":0,"code_postal":"49400","population":458,"superficie_km2":"1710.11","latitude_centre":"47.2659","longitude_centre":"-0.19","distance_km":10.87},{"id":0,"code_insee":"49368","nom_standard":"Vernantes","nom_a":null,"nom_de":null,"slug_ville":"vernantes","departement_id":0,"code_postal":"49390","population":2004,"superficie_km2":"4167.90","latitude_centre":"47.3945","longitude_centre":"0.0259","distance_km":10.95},{"id":0,"code_insee":"49123","nom_standard":"Distré","nom_a":null,"nom_de":null,"slug_ville":"distre","departement_id":0,"code_postal":"49400","population":1806,"superficie_km2":"1492.76","latitude_centre":"47.2273","longitude_centre":"-0.1217","distance_km":11.11},{"id":22969,"code_insee":"49341","nom_standard":"Souzay-Champigny","nom_a":null,"nom_de":null,"slug_ville":"souzay-champigny","departement_id":0,"code_postal":"49400","population":686,"superficie_km2":"914.00","latitude_centre":"47.2209","longitude_centre":"-0.0272","distance_km":11.62},{"id":0,"code_insee":"49361","nom_standard":"Varennes-sur-Loire","nom_a":null,"nom_de":null,"slug_ville":"varennes-sur-loire","departement_id":0,"code_postal":"49730","population":1922,"superficie_km2":"2354.66","latitude_centre":"47.2451","longitude_centre":"0.0371","distance_km":11.74},{"id":22958,"code_insee":"49235","nom_standard":"Parnay","nom_a":null,"nom_de":null,"slug_ville":"parnay","departement_id":0,"code_postal":"49730","population":373,"superficie_km2":"672.56","latitude_centre":"47.2209","longitude_centre":"0.0051","distance_km":12.53},{"id":22918,"code_insee":"49011","nom_standard":"Artannes-sur-Thouet","nom_a":null,"nom_de":null,"slug_ville":"artannes-sur-thouet","departement_id":0,"code_postal":"49260","population":405,"superficie_km2":"669.98","latitude_centre":"47.2042","longitude_centre":"-0.0978","distance_km":13.16},{"id":22970,"code_insee":"49358","nom_standard":"Turquant","nom_a":null,"nom_de":null,"slug_ville":"turquant","departement_id":0,"code_postal":"49730","population":566,"superficie_km2":"791.43","latitude_centre":"47.2131","longitude_centre":"0.017","distance_km":13.72},{"id":22948,"code_insee":"49171","nom_standard":"La Lande-Chasles","nom_a":null,"nom_de":null,"slug_ville":"la-lande-chasles","departement_id":0,"code_postal":"49150","population":116,"superficie_km2":"519.63","latitude_centre":"47.4607","longitude_centre":"-0.0702","distance_km":15.52},{"id":0,"code_insee":"49060","nom_standard":"Bellevigne-les-Châteaux","nom_a":null,"nom_de":null,"slug_ville":"bellevigne-les-chateaux","departement_id":0,"code_postal":"49260","population":3435,"superficie_km2":"3542.07","latitude_centre":"47.1781","longitude_centre":"-0.0449","distance_km":16.02}]}