{"ville":{"id":11324,"code_insee":"04244","nom_standard":"Volonne","nom_a":null,"nom_de":null,"slug_ville":"volonne","departement_id":0,"code_postal":"04290","population":1633,"superficie_km2":"2526.42","latitude_centre":"44.1232","longitude_centre":"6.0333","dep_code":"04","dep_nom":"Alpes-de-Haute-Provence","dep_slug":"alpes-de-haute-provence","reg_code":"93","reg_nom":"Provence-Alpes-Côte d'Azur","reg_slug":"provence-alpes-cote-d-azur"},"departement":{"code":"04","nom":"Alpes-de-Haute-Provence","slug":"alpes-de-haute-provence"},"region":{"code":"93","nom":"Provence-Alpes-Côte d'Azur","slug":"provence-alpes-cote-d-azur"},"villes_proches":[{"id":11302,"code_insee":"04211","nom_standard":"Sourribes","nom_a":null,"nom_de":null,"slug_ville":"sourribes","departement_id":0,"code_postal":"04290","population":174,"superficie_km2":"2006.58","latitude_centre":"44.1582","longitude_centre":"6.0433","distance_km":3.97},{"id":11293,"code_insee":"04200","nom_standard":"Salignac","nom_a":null,"nom_de":null,"slug_ville":"salignac","departement_id":0,"code_postal":"04290","population":678,"superficie_km2":"1438.51","latitude_centre":"44.1546","longitude_centre":"5.9889","distance_km":4.97},{"id":0,"code_insee":"04079","nom_standard":"L'Escale","nom_a":null,"nom_de":null,"slug_ville":"l-escale","departement_id":0,"code_postal":"04160","population":1427,"superficie_km2":"2028.75","latitude_centre":"44.0777","longitude_centre":"6.0363","distance_km":5.07},{"id":0,"code_insee":"04049","nom_standard":"Château-Arnoux-Saint-Auban","nom_a":null,"nom_de":null,"slug_ville":"chateau-arnoux-saint-auban","departement_id":0,"code_postal":"04160","population":5107,"superficie_km2":"1853.40","latitude_centre":"44.0801","longitude_centre":"5.9942","distance_km":5.72},{"id":11170,"code_insee":"04021","nom_standard":"Barras","nom_a":null,"nom_de":null,"slug_ville":"barras","departement_id":0,"code_postal":"04380","population":139,"superficie_km2":"2097.10","latitude_centre":"44.0949","longitude_centre":"6.0987","distance_km":6.1},{"id":11166,"code_insee":"04013","nom_standard":"Aubignosc","nom_a":null,"nom_de":null,"slug_ville":"aubignosc","departement_id":0,"code_postal":"04200","population":616,"superficie_km2":"1501.79","latitude_centre":"44.1211","longitude_centre":"5.9542","distance_km":6.32},{"id":0,"code_insee":"04145","nom_standard":"Peipin","nom_a":null,"nom_de":null,"slug_ville":"peipin","departement_id":0,"code_postal":"04200","population":1506,"superficie_km2":"1348.34","latitude_centre":"44.1407","longitude_centre":"5.9447","distance_km":7.33},{"id":11305,"code_insee":"04217","nom_standard":"Thoard","nom_a":null,"nom_de":null,"slug_ville":"thoard","departement_id":0,"code_postal":"04380","population":744,"superficie_km2":"4420.05","latitude_centre":"44.1495","longitude_centre":"6.1258","distance_km":7.94},{"id":11236,"code_insee":"04122","nom_standard":"Mirabeau","nom_a":null,"nom_de":null,"slug_ville":"mirabeau","departement_id":0,"code_postal":"04510","population":522,"superficie_km2":"1906.01","latitude_centre":"44.0608","longitude_centre":"6.0826","distance_km":7.98},{"id":11209,"code_insee":"04075","nom_standard":"Entrepierres","nom_a":null,"nom_de":null,"slug_ville":"entrepierres","departement_id":0,"code_postal":"04200","population":414,"superficie_km2":"4857.12","latitude_centre":"44.195","longitude_centre":"6.0254","distance_km":8.01},{"id":11193,"code_insee":"04053","nom_standard":"Châteauneuf-Val-Saint-Donat","nom_a":null,"nom_de":null,"slug_ville":"chateauneuf-val-saint-donat","departement_id":0,"code_postal":"04200","population":532,"superficie_km2":"2121.20","latitude_centre":"44.0951","longitude_centre":"5.9289","distance_km":8.9},{"id":11190,"code_insee":"04047","nom_standard":"Champtercier","nom_a":null,"nom_de":null,"slug_ville":"champtercier","departement_id":0,"code_postal":"04660","population":750,"superficie_km2":"1873.55","latitude_centre":"44.0977","longitude_centre":"6.145","distance_km":9.36},{"id":0,"code_insee":"04108","nom_standard":"Malijai","nom_a":null,"nom_de":null,"slug_ville":"malijai","departement_id":0,"code_postal":"04350","population":2020,"superficie_km2":"2663.50","latitude_centre":"44.0392","longitude_centre":"6.052","distance_km":9.46},{"id":11239,"code_insee":"04127","nom_standard":"Montfort","nom_a":null,"nom_de":null,"slug_ville":"montfort","departement_id":0,"code_postal":"04600","population":343,"superficie_km2":"1249.46","latitude_centre":"44.0551","longitude_centre":"5.9505","distance_km":10.05},{"id":0,"code_insee":"04001","nom_standard":"Aiglun","nom_a":null,"nom_de":null,"slug_ville":"aiglun","departement_id":0,"code_postal":"04510","population":1399,"superficie_km2":"1464.97","latitude_centre":"44.0632","longitude_centre":"6.1413","distance_km":10.9},{"id":11230,"code_insee":"04110","nom_standard":"Mallemoisson","nom_a":null,"nom_de":null,"slug_ville":"mallemoisson","departement_id":0,"code_postal":"04510","population":957,"superficie_km2":"645.07","latitude_centre":"44.0432","longitude_centre":"6.1201","distance_km":11.28},{"id":11185,"code_insee":"04040","nom_standard":"Le Castellard-Mélan","nom_a":null,"nom_de":null,"slug_ville":"le-castellard-melan","departement_id":0,"code_postal":"04380","population":64,"superficie_km2":"2596.83","latitude_centre":"44.1995","longitude_centre":"6.135","distance_km":11.74},{"id":0,"code_insee":"04209","nom_standard":"Sisteron","nom_a":null,"nom_de":null,"slug_ville":"sisteron","departement_id":0,"code_postal":"04200","population":7850,"superficie_km2":"5054.24","latitude_centre":"44.1993","longitude_centre":"5.9276","distance_km":11.95},{"id":11277,"code_insee":"04179","nom_standard":"Saint-Geniez","nom_a":null,"nom_de":null,"slug_ville":"saint-geniez","departement_id":0,"code_postal":"04200","population":112,"superficie_km2":"3893.12","latitude_centre":"44.2368","longitude_centre":"6.0526","distance_km":12.73},{"id":0,"code_insee":"04149","nom_standard":"Peyruis","nom_a":null,"nom_de":null,"slug_ville":"peyruis","departement_id":0,"code_postal":"04310","population":2798,"superficie_km2":"2335.04","latitude_centre":"44.0351","longitude_centre":"5.9306","distance_km":12.78}]}