{"ville":{"id":34113,"code_insee":"86295","nom_standard":"Voulême","nom_a":null,"nom_de":null,"slug_ville":"vouleme","departement_id":0,"code_postal":"86400","population":390,"superficie_km2":"1126.67","latitude_centre":"46.1001","longitude_centre":"0.2327","dep_code":"86","dep_nom":"Vienne","dep_slug":"vienne","reg_code":"75","reg_nom":"Nouvelle-Aquitaine","reg_slug":"nouvelle-aquitaine"},"departement":{"code":"86","nom":"Vienne","slug":"vienne"},"region":{"code":"75","nom":"Nouvelle-Aquitaine","slug":"nouvelle-aquitaine"},"villes_proches":[{"id":14105,"code_insee":"16002","nom_standard":"Les Adjots","nom_a":null,"nom_de":null,"slug_ville":"les-adjots","departement_id":0,"code_postal":"16700","population":538,"superficie_km2":"1130.30","latitude_centre":"46.0781","longitude_centre":"0.2028","distance_km":3.36},{"id":14355,"code_insee":"16378","nom_standard":"Taizé-Aizie","nom_a":null,"nom_de":null,"slug_ville":"taize-aizie","departement_id":0,"code_postal":"16700","population":593,"superficie_km2":"1486.82","latitude_centre":"46.0669","longitude_centre":"0.2537","distance_km":4.03},{"id":34020,"code_insee":"86136","nom_standard":"Lizant","nom_a":null,"nom_de":null,"slug_ville":"lizant","departement_id":0,"code_postal":"86400","population":393,"superficie_km2":"1696.67","latitude_centre":"46.0792","longitude_centre":"0.2783","distance_km":4.22},{"id":34070,"code_insee":"86220","nom_standard":"Saint-Gaudent","nom_a":null,"nom_de":null,"slug_ville":"saint-gaudent","departement_id":0,"code_postal":"86400","population":303,"superficie_km2":"1181.63","latitude_centre":"46.1123","longitude_centre":"0.2856","distance_km":4.3},{"id":34083,"code_insee":"86247","nom_standard":"Val-de-Comporté","nom_a":null,"nom_de":null,"slug_ville":"val-de-comporte","departement_id":0,"code_postal":"86400","population":999,"superficie_km2":"2159.92","latitude_centre":"46.1423","longitude_centre":"0.2283","distance_km":4.7},{"id":32600,"code_insee":"79150","nom_standard":"Limalonges","nom_a":null,"nom_de":null,"slug_ville":"limalonges","departement_id":0,"code_postal":"79190","population":843,"superficie_km2":"2438.95","latitude_centre":"46.1361","longitude_centre":"0.1757","distance_km":5.94},{"id":34078,"code_insee":"86237","nom_standard":"Saint-Pierre-d'Exideuil","nom_a":null,"nom_de":null,"slug_ville":"saint-pierre-d-exideuil","departement_id":0,"code_postal":"86400","population":717,"superficie_km2":"1946.25","latitude_centre":"46.157","longitude_centre":"0.2536","distance_km":6.53},{"id":0,"code_insee":"86078","nom_standard":"Civray","nom_a":null,"nom_de":null,"slug_ville":"civray","departement_id":0,"code_postal":"86400","population":2522,"superficie_km2":"869.75","latitude_centre":"46.1427","longitude_centre":"0.2994","distance_km":6.99},{"id":14128,"code_insee":"16039","nom_standard":"Bernac","nom_a":null,"nom_de":null,"slug_ville":"bernac","departement_id":0,"code_postal":"16700","population":465,"superficie_km2":"855.74","latitude_centre":"46.0543","longitude_centre":"0.1689","distance_km":7.08},{"id":14234,"code_insee":"16189","nom_standard":"Londigny","nom_a":null,"nom_de":null,"slug_ville":"londigny","departement_id":0,"code_postal":"16700","population":237,"superficie_km2":"979.09","latitude_centre":"46.0854","longitude_centre":"0.1434","distance_km":7.08},{"id":0,"code_insee":"16292","nom_standard":"Ruffec","nom_a":null,"nom_de":null,"slug_ville":"ruffec","departement_id":0,"code_postal":"16700","population":3449,"superficie_km2":"1351.43","latitude_centre":"46.0383","longitude_centre":"0.1991","distance_km":7.34},{"id":14326,"code_insee":"16335","nom_standard":"Saint-Martin-du-Clocher","nom_a":null,"nom_de":null,"slug_ville":"saint-martin-du-clocher","departement_id":0,"code_postal":"16700","population":126,"superficie_km2":"681.35","latitude_centre":"46.0678","longitude_centre":"0.1477","distance_km":7.48},{"id":14174,"code_insee":"16104","nom_standard":"Condac","nom_a":null,"nom_de":null,"slug_ville":"condac","departement_id":0,"code_postal":"16700","population":456,"superficie_km2":"958.99","latitude_centre":"46.0303","longitude_centre":"0.232","distance_km":7.76},{"id":34018,"code_insee":"86134","nom_standard":"Linazay","nom_a":null,"nom_de":null,"slug_ville":"linazay","departement_id":0,"code_postal":"86400","population":216,"superficie_km2":"922.75","latitude_centre":"46.1654","longitude_centre":"0.1932","distance_km":7.87},{"id":33999,"code_insee":"86104","nom_standard":"Genouillé","nom_a":null,"nom_de":null,"slug_ville":"genouille","departement_id":0,"code_postal":"86250","population":504,"superficie_km2":"3006.24","latitude_centre":"46.0971","longitude_centre":"0.3396","distance_km":8.25},{"id":14132,"code_insee":"16044","nom_standard":"Bioussac","nom_a":null,"nom_de":null,"slug_ville":"bioussac","departement_id":0,"code_postal":"16700","population":206,"superficie_km2":"1586.00","latitude_centre":"46.0296","longitude_centre":"0.2671","distance_km":8.28},{"id":14170,"code_insee":"16098","nom_standard":"La Chèvrerie","nom_a":null,"nom_de":null,"slug_ville":"la-chevrerie","departement_id":0,"code_postal":"16240","population":136,"superficie_km2":"468.55","latitude_centre":"46.0444","longitude_centre":"0.134","distance_km":9.81},{"id":14121,"code_insee":"16031","nom_standard":"Barro","nom_a":null,"nom_de":null,"slug_ville":"barro","departement_id":0,"code_postal":"16700","population":413,"superficie_km2":"1067.23","latitude_centre":"46.0069","longitude_centre":"0.2348","distance_km":10.36},{"id":14198,"code_insee":"16136","nom_standard":"La Faye","nom_a":null,"nom_de":null,"slug_ville":"la-faye","departement_id":0,"code_postal":"16700","population":617,"superficie_km2":"1361.51","latitude_centre":"46.0198","longitude_centre":"0.1601","distance_km":10.54},{"id":33970,"code_insee":"86051","nom_standard":"Champagné-le-Sec","nom_a":null,"nom_de":null,"slug_ville":"champagne-le-sec","departement_id":0,"code_postal":"86510","population":215,"superficie_km2":"802.37","latitude_centre":"46.1903","longitude_centre":"0.1895","distance_km":10.57}]}