{"ville":{"id":32404,"code_insee":"77532","nom_standard":"Vulaines-lès-Provins","nom_a":null,"nom_de":null,"slug_ville":"vulaines-les-provins","departement_id":0,"code_postal":"77160","population":80,"superficie_km2":"1074.36","latitude_centre":"48.5637","longitude_centre":"3.2208","dep_code":"77","dep_nom":"Seine-et-Marne","dep_slug":"seine-et-marne","reg_code":"11","reg_nom":"Île-de-France","reg_slug":"ile-de-france"},"departement":{"code":"77","nom":"Seine-et-Marne","slug":"seine-et-marne"},"region":{"code":"11","nom":"Île-de-France","slug":"ile-de-france"},"villes_proches":[{"id":32333,"code_insee":"77418","nom_standard":"Saint-Loup-de-Naud","nom_a":null,"nom_de":null,"slug_ville":"saint-loup-de-naud","departement_id":0,"code_postal":"77650","population":848,"superficie_km2":"1095.69","latitude_centre":"48.5368","longitude_centre":"3.217","distance_km":3.0},{"id":32168,"code_insee":"77090","nom_standard":"La Chapelle-Saint-Sulpice","nom_a":null,"nom_de":null,"slug_ville":"la-chapelle-saint-sulpice","departement_id":0,"code_postal":"77160","population":239,"superficie_km2":"638.35","latitude_centre":"48.5588","longitude_centre":"3.1778","distance_km":3.21},{"id":32283,"code_insee":"77319","nom_standard":"Mortery","nom_a":null,"nom_de":null,"slug_ville":"mortery","departement_id":0,"code_postal":"77160","population":137,"superficie_km2":"1317.87","latitude_centre":"48.5906","longitude_centre":"3.2475","distance_km":3.58},{"id":0,"code_insee":"77404","nom_standard":"Sainte-Colombe","nom_a":null,"nom_de":null,"slug_ville":"sainte-colombe","departement_id":0,"code_postal":"77650","population":1781,"superficie_km2":"814.81","latitude_centre":"48.5367","longitude_centre":"3.261","distance_km":4.22},{"id":32309,"code_insee":"77368","nom_standard":"Poigny","nom_a":null,"nom_de":null,"slug_ville":"poigny","departement_id":0,"code_postal":"77160","population":501,"superficie_km2":"597.16","latitude_centre":"48.5449","longitude_centre":"3.2772","distance_km":4.65},{"id":0,"code_insee":"77379","nom_standard":"Provins","nom_a":null,"nom_de":null,"slug_ville":"provins","departement_id":0,"code_postal":"77160","population":11632,"superficie_km2":"1471.23","latitude_centre":"48.5629","longitude_centre":"3.2845","distance_km":4.69},{"id":32259,"code_insee":"77272","nom_standard":"Maison-Rouge","nom_a":null,"nom_de":null,"slug_ville":"maison-rouge","departement_id":0,"code_postal":"77370","population":880,"superficie_km2":"1388.49","latitude_centre":"48.5549","longitude_centre":"3.1533","distance_km":5.06},{"id":0,"code_insee":"77260","nom_standard":"Longueville","nom_a":null,"nom_de":null,"slug_ville":"longueville","departement_id":0,"code_postal":"77650","population":1804,"superficie_km2":"559.58","latitude_centre":"48.5148","longitude_centre":"3.2414","distance_km":5.64},{"id":32252,"code_insee":"77256","nom_standard":"Lizines","nom_a":null,"nom_de":null,"slug_ville":"lizines","departement_id":0,"code_postal":"77650","population":174,"superficie_km2":"581.42","latitude_centre":"48.5283","longitude_centre":"3.1654","distance_km":5.67},{"id":32319,"code_insee":"77391","nom_standard":"Rouilly","nom_a":null,"nom_de":null,"slug_ville":"rouilly","departement_id":0,"code_postal":"77160","population":496,"superficie_km2":"775.70","latitude_centre":"48.5912","longitude_centre":"3.2897","distance_km":5.92},{"id":0,"code_insee":"77109","nom_standard":"Chenoise-Cucharmoy","nom_a":null,"nom_de":null,"slug_ville":"chenoise-cucharmoy","departement_id":0,"code_postal":"77160","population":1607,"superficie_km2":"4873.41","latitude_centre":"48.611","longitude_centre":"3.1809","distance_km":6.02},{"id":32347,"code_insee":"77446","nom_standard":"Savins","nom_a":null,"nom_de":null,"slug_ville":"savins","departement_id":0,"code_postal":"77650","population":617,"superficie_km2":"660.74","latitude_centre":"48.5096","longitude_centre":"3.2037","distance_km":6.15},{"id":32372,"code_insee":"77496","nom_standard":"Vieux-Champagne","nom_a":null,"nom_de":null,"slug_ville":"vieux-champagne","departement_id":0,"code_postal":"77370","population":192,"superficie_km2":"890.95","latitude_centre":"48.5886","longitude_centre":"3.1427","distance_km":6.38},{"id":32351,"code_insee":"77454","nom_standard":"Sognolles-en-Montois","nom_a":null,"nom_de":null,"slug_ville":"sognolles-en-montois","departement_id":0,"code_postal":"77520","population":371,"superficie_km2":"1023.13","latitude_centre":"48.5213","longitude_centre":"3.1516","distance_km":6.94},{"id":32161,"code_insee":"77073","nom_standard":"Chalautre-la-Petite","nom_a":null,"nom_de":null,"slug_ville":"chalautre-la-petite","departement_id":0,"code_postal":"77160","population":541,"superficie_km2":"937.17","latitude_centre":"48.5288","longitude_centre":"3.3068","distance_km":7.43},{"id":32243,"code_insee":"77242","nom_standard":"Jutigny","nom_a":null,"nom_de":null,"slug_ville":"jutigny","departement_id":0,"code_postal":"77650","population":547,"superficie_km2":"459.35","latitude_centre":"48.4925","longitude_centre":"3.2253","distance_km":7.92},{"id":32330,"code_insee":"77414","nom_standard":"Saint-Hilliers","nom_a":null,"nom_de":null,"slug_ville":"saint-hilliers","departement_id":0,"code_postal":"77160","population":474,"superficie_km2":"1907.21","latitude_centre":"48.6323","longitude_centre":"3.2612","distance_km":8.19},{"id":32162,"code_insee":"77076","nom_standard":"Chalmaison","nom_a":null,"nom_de":null,"slug_ville":"chalmaison","departement_id":0,"code_postal":"77650","population":749,"superficie_km2":"1005.73","latitude_centre":"48.4904","longitude_centre":"3.2568","distance_km":8.57},{"id":32354,"code_insee":"77461","nom_standard":"Thénisy","nom_a":null,"nom_de":null,"slug_ville":"thenisy","departement_id":0,"code_postal":"77520","population":297,"superficie_km2":"540.46","latitude_centre":"48.4902","longitude_centre":"3.1793","distance_km":8.73},{"id":32300,"code_insee":"77355","nom_standard":"Paroy","nom_a":null,"nom_de":null,"slug_ville":"paroy","departement_id":0,"code_postal":"77520","population":187,"superficie_km2":"425.54","latitude_centre":"48.4796","longitude_centre":"3.2005","distance_km":9.47}]}