{"ville":{"id":26544,"code_insee":"59637","nom_standard":"Wandignies-Hamage","nom_a":null,"nom_de":null,"slug_ville":"wandignies-hamage","departement_id":0,"code_postal":"59870","population":1301,"superficie_km2":"627.23","latitude_centre":"50.3978","longitude_centre":"3.3219","dep_code":"59","dep_nom":"Nord","dep_slug":"nord","reg_code":"32","reg_nom":"Hauts-de-France","reg_slug":"hauts-de-france"},"departement":{"code":"59","nom":"Nord","slug":"nord"},"region":{"code":"32","nom":"Hauts-de-France","slug":"hauts-de-france"},"villes_proches":[{"id":0,"code_insee":"59642","nom_standard":"Warlaing","nom_a":null,"nom_de":null,"slug_ville":"warlaing","departement_id":0,"code_postal":"59870","population":603,"superficie_km2":"393.81","latitude_centre":"50.4087","longitude_centre":"3.3246","distance_km":1.23},{"id":0,"code_insee":"59203","nom_standard":"Erre","nom_a":null,"nom_de":null,"slug_ville":"erre","departement_id":0,"code_postal":"59171","population":1586,"superficie_km2":"585.54","latitude_centre":"50.3677","longitude_centre":"3.3198","distance_km":3.35},{"id":0,"code_insee":"59314","nom_standard":"Hornaing","nom_a":null,"nom_de":null,"slug_ville":"hornaing","departement_id":0,"code_postal":"59171","population":3496,"superficie_km2":"892.63","latitude_centre":"50.3693","longitude_centre":"3.3373","distance_km":3.35},{"id":26516,"code_insee":"59596","nom_standard":"Tilloy-lez-Marchiennes","nom_a":null,"nom_de":null,"slug_ville":"tilloy-lez-marchiennes","departement_id":0,"code_postal":"59870","population":536,"superficie_km2":"550.09","latitude_centre":"50.4296","longitude_centre":"3.325","distance_km":3.54},{"id":0,"code_insee":"59297","nom_standard":"Hélesmes","nom_a":null,"nom_de":null,"slug_ville":"helesmes","departement_id":0,"code_postal":"59171","population":1907,"superficie_km2":"731.86","latitude_centre":"50.3741","longitude_centre":"3.3584","distance_km":3.69},{"id":0,"code_insee":"59227","nom_standard":"Fenain","nom_a":null,"nom_de":null,"slug_ville":"fenain","departement_id":0,"code_postal":"59179","population":5441,"superficie_km2":"582.33","latitude_centre":"50.3656","longitude_centre":"3.2998","distance_km":3.91},{"id":26313,"code_insee":"59109","nom_standard":"Brillon","nom_a":null,"nom_de":null,"slug_ville":"brillon","departement_id":0,"code_postal":"59178","population":771,"superficie_km2":"284.49","latitude_centre":"50.4331","longitude_centre":"3.3383","distance_km":4.09},{"id":0,"code_insee":"59501","nom_standard":"Rieulay","nom_a":null,"nom_de":null,"slug_ville":"rieulay","departement_id":0,"code_postal":"59870","population":1261,"superficie_km2":"735.00","latitude_centre":"50.3868","longitude_centre":"3.2669","distance_km":4.09},{"id":26307,"code_insee":"59100","nom_standard":"Bousignies","nom_a":null,"nom_de":null,"slug_ville":"bousignies","departement_id":0,"code_postal":"59178","population":339,"superficie_km2":"314.57","latitude_centre":"50.4306","longitude_centre":"3.3566","distance_km":4.4},{"id":0,"code_insee":"59284","nom_standard":"Hasnon","nom_a":null,"nom_de":null,"slug_ville":"hasnon","departement_id":0,"code_postal":"59178","population":3849,"superficie_km2":"1280.46","latitude_centre":"50.4132","longitude_centre":"3.3866","distance_km":4.89},{"id":26429,"code_insee":"59403","nom_standard":"Millonfosse","nom_a":null,"nom_de":null,"slug_ville":"millonfosse","departement_id":0,"code_postal":"59178","population":705,"superficie_km2":"347.36","latitude_centre":"50.4273","longitude_centre":"3.3782","distance_km":5.16},{"id":0,"code_insee":"59375","nom_standard":"Marchiennes","nom_a":null,"nom_de":null,"slug_ville":"marchiennes","departement_id":0,"code_postal":"59870","population":4507,"superficie_km2":"2145.46","latitude_centre":"50.4128","longitude_centre":"3.2482","distance_km":5.48},{"id":26497,"code_insee":"59554","nom_standard":"Sars-et-Rosières","nom_a":null,"nom_de":null,"slug_ville":"sars-et-rosieres","departement_id":0,"code_postal":"59230","population":620,"superficie_km2":"258.00","latitude_centre":"50.4469","longitude_centre":"3.3295","distance_km":5.49},{"id":0,"code_insee":"59574","nom_standard":"Somain","nom_a":null,"nom_de":null,"slug_ville":"somain","departement_id":0,"code_postal":"59490","population":11766,"superficie_km2":"1227.63","latitude_centre":"50.3595","longitude_centre":"3.2717","distance_km":5.55},{"id":26539,"code_insee":"59632","nom_standard":"Wallers","nom_a":null,"nom_de":null,"slug_ville":"wallers","departement_id":0,"code_postal":"59135","population":5633,"superficie_km2":"2099.50","latitude_centre":"50.3745","longitude_centre":"3.3944","distance_km":5.76},{"id":0,"code_insee":"59080","nom_standard":"Beuvry-la-Forêt","nom_a":null,"nom_de":null,"slug_ville":"beuvry-la-foret","departement_id":0,"code_postal":"59310","population":2861,"superficie_km2":"1258.56","latitude_centre":"50.4509","longitude_centre":"3.2832","distance_km":6.51},{"id":0,"code_insee":"59511","nom_standard":"Rosult","nom_a":null,"nom_de":null,"slug_ville":"rosult","departement_id":0,"code_postal":"59230","population":2022,"superficie_km2":"810.98","latitude_centre":"50.4548","longitude_centre":"3.3607","distance_km":6.91},{"id":0,"code_insee":"59205","nom_standard":"Escaudain","nom_a":null,"nom_de":null,"slug_ville":"escaudain","departement_id":0,"code_postal":"59124","population":9039,"superficie_km2":"1024.01","latitude_centre":"50.333","longitude_centre":"3.3388","distance_km":7.3},{"id":0,"code_insee":"59002","nom_standard":"Abscon","nom_a":null,"nom_de":null,"slug_ville":"abscon","departement_id":0,"code_postal":"59215","population":4108,"superficie_km2":"724.41","latitude_centre":"50.3293","longitude_centre":"3.2993","distance_km":7.78},{"id":0,"code_insee":"59330","nom_standard":"Landas","nom_a":null,"nom_de":null,"slug_ville":"landas","departement_id":0,"code_postal":"59310","population":2518,"superficie_km2":"1196.43","latitude_centre":"50.4708","longitude_centre":"3.2947","distance_km":8.34}]}