{"ville":{"id":28040,"code_insee":"62883","nom_standard":"Wavrans-sur-Ternoise","nom_a":null,"nom_de":null,"slug_ville":"wavrans-sur-ternoise","departement_id":0,"code_postal":"62130","population":197,"superficie_km2":"475.49","latitude_centre":"50.4086","longitude_centre":"2.2867","dep_code":"62","dep_nom":"Pas-de-Calais","dep_slug":"pas-de-calais","reg_code":"32","reg_nom":"Hauts-de-France","reg_slug":"hauts-de-france"},"departement":{"code":"62","nom":"Pas-de-Calais","slug":"pas-de-calais"},"region":{"code":"32","nom":"Hauts-de-France","slug":"hauts-de-france"},"villes_proches":[{"id":27725,"code_insee":"62442","nom_standard":"Hernicourt","nom_a":null,"nom_de":null,"slug_ville":"hernicourt","departement_id":0,"code_postal":"62130","population":512,"superficie_km2":"988.24","latitude_centre":"50.4111","longitude_centre":"2.3037","distance_km":1.24},{"id":27868,"code_insee":"62655","nom_standard":"Pierremont","nom_a":null,"nom_de":null,"slug_ville":"pierremont","departement_id":0,"code_postal":"62130","population":325,"superficie_km2":"613.73","latitude_centre":"50.3994","longitude_centre":"2.2573","distance_km":2.32},{"id":27672,"code_insee":"62367","nom_standard":"Gauchin-Verloingt","nom_a":null,"nom_de":null,"slug_ville":"gauchin-verloingt","departement_id":0,"code_postal":"62130","population":774,"superficie_km2":"593.51","latitude_centre":"50.3912","longitude_centre":"2.313","distance_km":2.69},{"id":27816,"code_insee":"62581","nom_standard":"Monchy-Cayeux","nom_a":null,"nom_de":null,"slug_ville":"monchy-cayeux","departement_id":0,"code_postal":"62134","population":285,"superficie_km2":"623.05","latitude_centre":"50.4343","longitude_centre":"2.2799","distance_km":2.9},{"id":27601,"code_insee":"62260","nom_standard":"Croix-en-Ternois","nom_a":null,"nom_de":null,"slug_ville":"croix-en-ternois","departement_id":0,"code_postal":"62130","population":333,"superficie_km2":"661.04","latitude_centre":"50.3845","longitude_centre":"2.2687","distance_km":2.97},{"id":27650,"code_insee":"62339","nom_standard":"Fleury","nom_a":null,"nom_de":null,"slug_ville":"fleury","departement_id":0,"code_postal":"62134","population":109,"superficie_km2":"283.69","latitude_centre":"50.4239","longitude_centre":"2.2524","distance_km":2.97},{"id":27495,"code_insee":"62114","nom_standard":"Bermicourt","nom_a":null,"nom_de":null,"slug_ville":"bermicourt","departement_id":0,"code_postal":"62130","population":164,"superficie_km2":"553.53","latitude_centre":"50.4076","longitude_centre":"2.2321","distance_km":3.87},{"id":27586,"code_insee":"62238","nom_standard":"Conteville-en-Ternois","nom_a":null,"nom_de":null,"slug_ville":"conteville-en-ternois","departement_id":0,"code_postal":"62130","population":83,"superficie_km2":"233.02","latitude_centre":"50.4323","longitude_centre":"2.3273","distance_km":3.9},{"id":27996,"code_insee":"62831","nom_standard":"Troisvaux","nom_a":null,"nom_de":null,"slug_ville":"troisvaux","departement_id":0,"code_postal":"62130","population":293,"superficie_km2":"620.49","latitude_centre":"50.4123","longitude_centre":"2.3419","distance_km":3.93},{"id":27970,"code_insee":"62797","nom_standard":"Siracourt","nom_a":null,"nom_de":null,"slug_ville":"siracourt","departement_id":0,"code_postal":"62130","population":286,"superficie_km2":"314.43","latitude_centre":"50.3704","longitude_centre":"2.2664","distance_km":4.48},{"id":27442,"code_insee":"62036","nom_standard":"Anvin","nom_a":null,"nom_de":null,"slug_ville":"anvin","departement_id":0,"code_postal":"62134","population":700,"superficie_km2":"788.78","latitude_centre":"50.4506","longitude_centre":"2.2614","distance_km":5.0},{"id":0,"code_insee":"62767","nom_standard":"Saint-Pol-sur-Ternoise","nom_a":null,"nom_de":null,"slug_ville":"saint-pol-sur-ternoise","departement_id":0,"code_postal":"62130","population":4677,"superficie_km2":"821.66","latitude_centre":"50.3876","longitude_centre":"2.3517","distance_km":5.17},{"id":27484,"code_insee":"62101","nom_standard":"Beauvois","nom_a":null,"nom_de":null,"slug_ville":"beauvois","departement_id":0,"code_postal":"62130","population":133,"superficie_km2":"262.65","latitude_centre":"50.3741","longitude_centre":"2.2344","distance_km":5.34},{"id":27896,"code_insee":"62686","nom_standard":"Ramecourt","nom_a":null,"nom_de":null,"slug_ville":"ramecourt","departement_id":0,"code_postal":"62130","population":349,"superficie_km2":"805.04","latitude_centre":"50.3611","longitude_centre":"2.3063","distance_km":5.46},{"id":27622,"code_insee":"62299","nom_standard":"Eps","nom_a":null,"nom_de":null,"slug_ville":"eps","departement_id":0,"code_postal":"62134","population":238,"superficie_km2":"692.39","latitude_centre":"50.4574","longitude_centre":"2.2981","distance_km":5.49},{"id":27730,"code_insee":"62450","nom_standard":"Hestrus","nom_a":null,"nom_de":null,"slug_ville":"hestrus","departement_id":0,"code_postal":"62550","population":215,"superficie_km2":"788.16","latitude_centre":"50.4507","longitude_centre":"2.3299","distance_km":5.59},{"id":27600,"code_insee":"62258","nom_standard":"Croisette","nom_a":null,"nom_de":null,"slug_ville":"croisette","departement_id":0,"code_postal":"62130","population":318,"superficie_km2":"757.86","latitude_centre":"50.3499","longitude_centre":"2.2627","distance_km":6.75},{"id":27491,"code_insee":"62109","nom_standard":"Bergueneuse","nom_a":null,"nom_de":null,"slug_ville":"bergueneuse","departement_id":0,"code_postal":"62134","population":213,"superficie_km2":"280.11","latitude_centre":"50.4676","longitude_centre":"2.2498","distance_km":7.06},{"id":27719,"code_insee":"62435","nom_standard":"Herlincourt","nom_a":null,"nom_de":null,"slug_ville":"herlincourt","departement_id":0,"code_postal":"62130","population":106,"superficie_km2":"296.93","latitude_centre":"50.3444","longitude_centre":"2.2922","distance_km":7.15},{"id":27541,"code_insee":"62171","nom_standard":"Boyaval","nom_a":null,"nom_de":null,"slug_ville":"boyaval","departement_id":0,"code_postal":"62134","population":147,"superficie_km2":"545.14","latitude_centre":"50.4723","longitude_centre":"2.3113","distance_km":7.29}]}