{"ville":{"id":26560,"code_insee":"59654","nom_standard":"Waziers","nom_a":null,"nom_de":null,"slug_ville":"waziers","departement_id":0,"code_postal":"59119","population":7266,"superficie_km2":"432.59","latitude_centre":"50.3841","longitude_centre":"3.1121","dep_code":"59","dep_nom":"Nord","dep_slug":"nord","reg_code":"32","reg_nom":"Hauts-de-France","reg_slug":"hauts-de-france"},"departement":{"code":"59","nom":"Nord","slug":"nord"},"region":{"code":"32","nom":"Hauts-de-France","slug":"hauts-de-france"},"villes_proches":[{"id":0,"code_insee":"59178","nom_standard":"Douai","nom_a":null,"nom_de":null,"slug_ville":"douai","departement_id":0,"code_postal":"59500","population":40250,"superficie_km2":"1686.15","latitude_centre":"50.3785","longitude_centre":"3.1004","distance_km":1.04},{"id":0,"code_insee":"59569","nom_standard":"Sin-le-Noble","nom_a":null,"nom_de":null,"slug_ville":"sin-le-noble","departement_id":0,"code_postal":"59450","population":16076,"superficie_km2":"1150.97","latitude_centre":"50.3672","longitude_centre":"3.1213","distance_km":1.99},{"id":0,"code_insee":"59509","nom_standard":"Roost-Warendin","nom_a":null,"nom_de":null,"slug_ville":"roost-warendin","departement_id":0,"code_postal":"59286","population":5956,"superficie_km2":"715.02","latitude_centre":"50.4127","longitude_centre":"3.0981","distance_km":3.33},{"id":26272,"code_insee":"59007","nom_standard":"Anhiers","nom_a":null,"nom_de":null,"slug_ville":"anhiers","departement_id":0,"code_postal":"59194","population":888,"superficie_km2":"171.07","latitude_centre":"50.4037","longitude_centre":"3.1546","distance_km":3.72},{"id":0,"code_insee":"59170","nom_standard":"Dechy","nom_a":null,"nom_de":null,"slug_ville":"dechy","departement_id":0,"code_postal":"59187","population":5338,"superficie_km2":"928.76","latitude_centre":"50.3523","longitude_centre":"3.1288","distance_km":3.73},{"id":0,"code_insee":"59327","nom_standard":"Lallaing","nom_a":null,"nom_de":null,"slug_ville":"lallaing","departement_id":0,"code_postal":"59167","population":6287,"superficie_km2":"599.07","latitude_centre":"50.3868","longitude_centre":"3.1719","distance_km":4.25},{"id":0,"code_insee":"59486","nom_standard":"Râches","nom_a":null,"nom_de":null,"slug_ville":"raches","departement_id":0,"code_postal":"59194","population":2672,"superficie_km2":"485.23","latitude_centre":"50.4208","longitude_centre":"3.1338","distance_km":4.36},{"id":0,"code_insee":"59276","nom_standard":"Guesnain","nom_a":null,"nom_de":null,"slug_ville":"guesnain","departement_id":0,"code_postal":"59287","population":4635,"superficie_km2":"405.60","latitude_centre":"50.3486","longitude_centre":"3.148","distance_km":4.7},{"id":0,"code_insee":"59234","nom_standard":"Flers-en-Escrebieux","nom_a":null,"nom_de":null,"slug_ville":"flers-en-escrebieux","departement_id":0,"code_postal":"59128","population":5424,"superficie_km2":"713.32","latitude_centre":"50.4025","longitude_centre":"3.0497","distance_km":4.87},{"id":0,"code_insee":"59028","nom_standard":"Auby","nom_a":null,"nom_de":null,"slug_ville":"auby","departement_id":0,"code_postal":"59950","population":7083,"superficie_km2":"712.95","latitude_centre":"50.4143","longitude_centre":"3.0612","distance_km":4.93},{"id":0,"code_insee":"59329","nom_standard":"Lambres-lez-Douai","nom_a":null,"nom_de":null,"slug_ville":"lambres-lez-douai","departement_id":0,"code_postal":"59552","population":4883,"superficie_km2":"879.79","latitude_centre":"50.3548","longitude_centre":"3.0542","distance_km":5.24},{"id":0,"code_insee":"59414","nom_standard":"Montigny-en-Ostrevent","nom_a":null,"nom_de":null,"slug_ville":"montigny-en-ostrevent","departement_id":0,"code_postal":"59182","population":4495,"superficie_km2":"543.50","latitude_centre":"50.3685","longitude_centre":"3.1833","distance_km":5.34},{"id":26412,"code_insee":"59354","nom_standard":"Loffre","nom_a":null,"nom_de":null,"slug_ville":"loffre","departement_id":0,"code_postal":"59182","population":712,"superficie_km2":"260.51","latitude_centre":"50.3541","longitude_centre":"3.172","distance_km":5.4},{"id":0,"code_insee":"59489","nom_standard":"Raimbeaucourt","nom_a":null,"nom_de":null,"slug_ville":"raimbeaucourt","departement_id":0,"code_postal":"59283","population":4000,"superficie_km2":"1107.31","latitude_centre":"50.4369","longitude_centre":"3.1024","distance_km":5.91},{"id":0,"code_insee":"59156","nom_standard":"Courchelettes","nom_a":null,"nom_de":null,"slug_ville":"courchelettes","departement_id":0,"code_postal":"59552","population":2855,"superficie_km2":"165.73","latitude_centre":"50.342","longitude_centre":"3.0595","distance_km":5.99},{"id":0,"code_insee":"59228","nom_standard":"Férin","nom_a":null,"nom_de":null,"slug_ville":"ferin","departement_id":0,"code_postal":"59169","population":1432,"superficie_km2":"551.67","latitude_centre":"50.33","longitude_centre":"3.0827","distance_km":6.37},{"id":0,"code_insee":"59345","nom_standard":"Lewarde","nom_a":null,"nom_de":null,"slug_ville":"lewarde","departement_id":0,"code_postal":"59287","population":2353,"superficie_km2":"389.69","latitude_centre":"50.3364","longitude_centre":"3.1682","distance_km":6.63},{"id":26476,"code_insee":"59513","nom_standard":"Roucourt","nom_a":null,"nom_de":null,"slug_ville":"roucourt","departement_id":0,"code_postal":"59169","population":456,"superficie_km2":"318.82","latitude_centre":"50.3275","longitude_centre":"3.146","distance_km":6.74},{"id":0,"code_insee":"59222","nom_standard":"Faumont","nom_a":null,"nom_de":null,"slug_ville":"faumont","departement_id":0,"code_postal":"59310","population":2278,"superficie_km2":"955.52","latitude_centre":"50.4503","longitude_centre":"3.1335","distance_km":7.52},{"id":0,"code_insee":"59263","nom_standard":"Gœulzin","nom_a":null,"nom_de":null,"slug_ville":"goeulzin","departement_id":0,"code_postal":"59169","population":1070,"superficie_km2":"476.87","latitude_centre":"50.3161","longitude_centre":"3.1011","distance_km":7.6}]}