{"ville":{"id":29978,"code_insee":"68364","nom_standard":"Westhalten","nom_a":null,"nom_de":null,"slug_ville":"westhalten","departement_id":0,"code_postal":"68250","population":1017,"superficie_km2":"1113.47","latitude_centre":"47.9684","longitude_centre":"7.2543","dep_code":"68","dep_nom":"Haut-Rhin","dep_slug":"haut-rhin","reg_code":"44","reg_nom":"Grand Est","reg_slug":"grand-est"},"departement":{"code":"68","nom":"Haut-Rhin","slug":"haut-rhin"},"region":{"code":"44","nom":"Grand Est","slug":"grand-est"},"villes_proches":[{"id":0,"code_insee":"68287","nom_standard":"Rouffach","nom_a":null,"nom_de":null,"slug_ville":"rouffach","departement_id":0,"code_postal":"68250","population":4238,"superficie_km2":"4003.06","latitude_centre":"47.9688","longitude_centre":"7.2773","distance_km":1.71},{"id":0,"code_insee":"68318","nom_standard":"Soultzmatt","nom_a":null,"nom_de":null,"slug_ville":"soultzmatt","departement_id":0,"code_postal":"68570","population":2487,"superficie_km2":"2012.84","latitude_centre":"47.979","longitude_centre":"7.2153","distance_km":3.13},{"id":0,"code_insee":"68255","nom_standard":"Pfaffenheim","nom_a":null,"nom_de":null,"slug_ville":"pfaffenheim","departement_id":0,"code_postal":"68250","population":1373,"superficie_km2":"1472.50","latitude_centre":"47.9975","longitude_centre":"7.2482","distance_km":3.27},{"id":0,"code_insee":"68250","nom_standard":"Orschwihr","nom_a":null,"nom_de":null,"slug_ville":"orschwihr","departement_id":0,"code_postal":"68500","population":1010,"superficie_km2":"704.53","latitude_centre":"47.9381","longitude_centre":"7.2332","distance_km":3.72},{"id":29911,"code_insee":"68251","nom_standard":"Osenbach","nom_a":null,"nom_de":null,"slug_ville":"osenbach","departement_id":0,"code_postal":"68570","population":810,"superficie_km2":"573.99","latitude_centre":"47.9925","longitude_centre":"7.2162","distance_km":3.9},{"id":29832,"code_insee":"68111","nom_standard":"Gueberschwihr","nom_a":null,"nom_de":null,"slug_ville":"gueberschwihr","departement_id":0,"code_postal":"68420","population":807,"superficie_km2":"893.80","latitude_centre":"48.008","longitude_centre":"7.2567","distance_km":4.41},{"id":29785,"code_insee":"68030","nom_standard":"Bergholtzzell","nom_a":null,"nom_de":null,"slug_ville":"bergholtzzell","departement_id":0,"code_postal":"68500","population":385,"superficie_km2":"224.96","latitude_centre":"47.9269","longitude_centre":"7.224","distance_km":5.14},{"id":0,"code_insee":"68029","nom_standard":"Bergholtz","nom_a":null,"nom_de":null,"slug_ville":"bergholtz","departement_id":0,"code_postal":"68500","population":1039,"superficie_km2":"428.81","latitude_centre":"47.9207","longitude_centre":"7.2459","distance_km":5.34},{"id":29839,"code_insee":"68123","nom_standard":"Hattstatt","nom_a":null,"nom_de":null,"slug_ville":"hattstatt","departement_id":0,"code_postal":"68420","population":862,"superficie_km2":"603.17","latitude_centre":"48.0164","longitude_centre":"7.2705","distance_km":5.47},{"id":29834,"code_insee":"68116","nom_standard":"Gundolsheim","nom_a":null,"nom_de":null,"slug_ville":"gundolsheim","departement_id":0,"code_postal":"68250","population":735,"superficie_km2":"829.00","latitude_centre":"47.9295","longitude_centre":"7.3002","distance_km":5.51},{"id":29964,"code_insee":"68350","nom_standard":"Vœgtlinshoffen","nom_a":null,"nom_de":null,"slug_ville":"voegtlinshoffen","departement_id":0,"code_postal":"68420","population":479,"superficie_km2":"396.74","latitude_centre":"48.0258","longitude_centre":"7.2636","distance_km":6.42},{"id":0,"code_insee":"68177","nom_standard":"Lautenbach","nom_a":null,"nom_de":null,"slug_ville":"lautenbach","departement_id":0,"code_postal":"68610","population":1544,"superficie_km2":"1329.75","latitude_centre":"47.9548","longitude_centre":"7.1696","distance_km":6.49},{"id":29908,"code_insee":"68244","nom_standard":"Obermorschwihr","nom_a":null,"nom_de":null,"slug_ville":"obermorschwihr","departement_id":0,"code_postal":"68420","population":420,"superficie_km2":"158.94","latitude_centre":"48.0218","longitude_centre":"7.2899","distance_km":6.5},{"id":0,"code_insee":"68112","nom_standard":"Guebwiller","nom_a":null,"nom_de":null,"slug_ville":"guebwiller","departement_id":0,"code_postal":"68500","population":11243,"superficie_km2":"962.95","latitude_centre":"47.9118","longitude_centre":"7.2097","distance_km":7.12},{"id":0,"code_insee":"68156","nom_standard":"Issenheim","nom_a":null,"nom_de":null,"slug_ville":"issenheim","departement_id":0,"code_postal":"68500","population":3502,"superficie_km2":"813.02","latitude_centre":"47.9043","longitude_centre":"7.2555","distance_km":7.13},{"id":0,"code_insee":"68058","nom_standard":"Buhl","nom_a":null,"nom_de":null,"slug_ville":"buhl","departement_id":0,"code_postal":"68530","population":3100,"superficie_km2":"875.52","latitude_centre":"47.9259","longitude_centre":"7.1799","distance_km":7.28},{"id":29851,"code_insee":"68150","nom_standard":"Husseren-les-Châteaux","nom_a":null,"nom_de":null,"slug_ville":"husseren-les-chateaux","departement_id":0,"code_postal":"68420","population":502,"superficie_km2":"124.69","latitude_centre":"48.0354","longitude_centre":"7.2757","distance_km":7.62},{"id":0,"code_insee":"68203","nom_standard":"Merxheim","nom_a":null,"nom_de":null,"slug_ville":"merxheim","departement_id":0,"code_postal":"68500","population":1396,"superficie_km2":"901.57","latitude_centre":"47.9086","longitude_centre":"7.3042","distance_km":7.62},{"id":29945,"code_insee":"68316","nom_standard":"Soultzbach-les-Bains","nom_a":null,"nom_de":null,"slug_ville":"soultzbach-les-bains","departement_id":0,"code_postal":"68230","population":731,"superficie_km2":"703.07","latitude_centre":"48.0286","longitude_centre":"7.2034","distance_km":7.69},{"id":0,"code_insee":"68078","nom_standard":"Eguisheim","nom_a":null,"nom_de":null,"slug_ville":"eguisheim","departement_id":0,"code_postal":"68420","population":1729,"superficie_km2":"1401.11","latitude_centre":"48.0377","longitude_centre":"7.2966","distance_km":8.32}]}