{"ville":{"id":28056,"code_insee":"62900","nom_standard":"Witternesse","nom_a":null,"nom_de":null,"slug_ville":"witternesse","departement_id":0,"code_postal":"62120","population":636,"superficie_km2":"553.37","latitude_centre":"50.6134","longitude_centre":"2.3602","dep_code":"62","dep_nom":"Pas-de-Calais","dep_slug":"pas-de-calais","reg_code":"32","reg_nom":"Hauts-de-France","reg_slug":"hauts-de-france"},"departement":{"code":"62","nom":"Pas-de-Calais","slug":"pas-de-calais"},"region":{"code":"32","nom":"Hauts-de-France","slug":"hauts-de-france"},"villes_proches":[{"id":27887,"code_insee":"62676","nom_standard":"Quernes","nom_a":null,"nom_de":null,"slug_ville":"quernes","departement_id":0,"code_postal":"62120","population":420,"superficie_km2":"275.93","latitude_centre":"50.6018","longitude_centre":"2.3681","distance_km":1.41},{"id":27515,"code_insee":"62141","nom_standard":"Blessy","nom_a":null,"nom_de":null,"slug_ville":"blessy","departement_id":0,"code_postal":"62120","population":907,"superficie_km2":"535.75","latitude_centre":"50.6164","longitude_centre":"2.332","distance_km":2.02},{"id":27768,"code_insee":"62509","nom_standard":"Liettres","nom_a":null,"nom_de":null,"slug_ville":"liettres","departement_id":0,"code_postal":"62145","population":378,"superficie_km2":"305.77","latitude_centre":"50.5961","longitude_centre":"2.3392","distance_km":2.43},{"id":27774,"code_insee":"62517","nom_standard":"Linghem","nom_a":null,"nom_de":null,"slug_ville":"linghem","departement_id":0,"code_postal":"62120","population":219,"superficie_km2":"366.47","latitude_centre":"50.591","longitude_centre":"2.3721","distance_km":2.63},{"id":27920,"code_insee":"62720","nom_standard":"Rombly","nom_a":null,"nom_de":null,"slug_ville":"rombly","departement_id":0,"code_postal":"62120","population":53,"superficie_km2":"114.41","latitude_centre":"50.5946","longitude_centre":"2.3906","distance_km":3.0},{"id":0,"code_insee":"62486","nom_standard":"Lambres","nom_a":null,"nom_de":null,"slug_ville":"lambres","departement_id":0,"code_postal":"62120","population":1070,"superficie_km2":"438.01","latitude_centre":"50.6169","longitude_centre":"2.406","distance_km":3.25},{"id":27631,"code_insee":"62313","nom_standard":"Estrée-Blanche","nom_a":null,"nom_de":null,"slug_ville":"estree-blanche","departement_id":0,"code_postal":"62145","population":913,"superficie_km2":"532.31","latitude_centre":"50.5934","longitude_centre":"2.3224","distance_km":3.47},{"id":27803,"code_insee":"62564","nom_standard":"Mazinghem","nom_a":null,"nom_de":null,"slug_ville":"mazinghem","departement_id":0,"code_postal":"62120","population":457,"superficie_km2":"520.12","latitude_centre":"50.6058","longitude_centre":"2.4115","distance_km":3.72},{"id":0,"code_insee":"62543","nom_standard":"Mametz","nom_a":null,"nom_de":null,"slug_ville":"mametz","departement_id":0,"code_postal":"62120","population":1973,"superficie_km2":"970.11","latitude_centre":"50.6271","longitude_centre":"2.3072","distance_km":4.04},{"id":27908,"code_insee":"62701","nom_standard":"Rely","nom_a":null,"nom_de":null,"slug_ville":"rely","departement_id":0,"code_postal":"62120","population":464,"superficie_km2":"487.94","latitude_centre":"50.5759","longitude_centre":"2.3607","distance_km":4.17},{"id":0,"code_insee":"62620","nom_standard":"Norrent-Fontes","nom_a":null,"nom_de":null,"slug_ville":"norrent-fontes","departement_id":0,"code_postal":"62120","population":1381,"superficie_km2":"566.36","latitude_centre":"50.5899","longitude_centre":"2.4096","distance_km":4.36},{"id":0,"code_insee":"62014","nom_standard":"Aire-sur-la-Lys","nom_a":null,"nom_de":null,"slug_ville":"aire-sur-la-lys","departement_id":0,"code_postal":"62120","population":9598,"superficie_km2":"3319.53","latitude_centre":"50.6457","longitude_centre":"2.3962","distance_km":4.4},{"id":27770,"code_insee":"62512","nom_standard":"Ligny-lès-Aire","nom_a":null,"nom_de":null,"slug_ville":"ligny-les-aire","departement_id":0,"code_postal":"62960","population":565,"superficie_km2":"802.60","latitude_centre":"50.5633","longitude_centre":"2.3414","distance_km":5.73},{"id":27939,"code_insee":"62750","nom_standard":"Saint-Hilaire-Cottes","nom_a":null,"nom_de":null,"slug_ville":"saint-hilaire-cottes","departement_id":0,"code_postal":"62120","population":830,"superficie_km2":"731.77","latitude_centre":"50.5658","longitude_centre":"2.3981","distance_km":5.93},{"id":0,"code_insee":"62295","nom_standard":"Enquin-lez-Guinegatte","nom_a":null,"nom_de":null,"slug_ville":"enquin-lez-guinegatte","departement_id":0,"code_postal":"62145","population":1594,"superficie_km2":"2018.31","latitude_centre":"50.5949","longitude_centre":"2.2801","distance_km":6.02},{"id":0,"code_insee":"62721","nom_standard":"Roquetoire","nom_a":null,"nom_de":null,"slug_ville":"roquetoire","departement_id":0,"code_postal":"62120","population":1970,"superficie_km2":"1086.59","latitude_centre":"50.6685","longitude_centre":"2.3361","distance_km":6.36},{"id":0,"code_insee":"62901","nom_standard":"Wittes","nom_a":null,"nom_de":null,"slug_ville":"wittes","departement_id":0,"code_postal":"62120","population":973,"superficie_km2":"416.31","latitude_centre":"50.6722","longitude_centre":"2.3858","distance_km":6.78},{"id":27447,"code_insee":"62049","nom_standard":"Auchy-au-Bois","nom_a":null,"nom_de":null,"slug_ville":"auchy-au-bois","departement_id":0,"code_postal":"62190","population":548,"superficie_km2":"429.00","latitude_centre":"50.5501","longitude_centre":"2.3728","distance_km":7.09},{"id":27892,"code_insee":"62681","nom_standard":"Quiestède","nom_a":null,"nom_de":null,"slug_ville":"quiestede","departement_id":0,"code_postal":"62120","population":663,"superficie_km2":"284.21","latitude_centre":"50.6785","longitude_centre":"2.3303","distance_km":7.54},{"id":28041,"code_insee":"62885","nom_standard":"Westrehem","nom_a":null,"nom_de":null,"slug_ville":"westrehem","departement_id":0,"code_postal":"62960","population":246,"superficie_km2":"297.19","latitude_centre":"50.5457","longitude_centre":"2.3434","distance_km":7.62}]}