{"ville":{"id":33372,"code_insee":"80829","nom_standard":"Y","nom_a":null,"nom_de":null,"slug_ville":"y","departement_id":0,"code_postal":"80190","population":87,"superficie_km2":"275.66","latitude_centre":"49.8022","longitude_centre":"2.9879","dep_code":"80","dep_nom":"Somme","dep_slug":"somme","reg_code":"32","reg_nom":"Hauts-de-France","reg_slug":"hauts-de-france"},"departement":{"code":"80","nom":"Somme","slug":"somme"},"region":{"code":"32","nom":"Hauts-de-France","slug":"hauts-de-france"},"villes_proches":[{"id":33340,"code_insee":"80794","nom_standard":"Villecourt","nom_a":null,"nom_de":null,"slug_ville":"villecourt","departement_id":0,"code_postal":"80190","population":46,"superficie_km2":"215.10","latitude_centre":"49.7974","longitude_centre":"2.9722","distance_km":1.25},{"id":33130,"code_insee":"80519","nom_standard":"Matigny","nom_a":null,"nom_de":null,"slug_ville":"matigny","departement_id":0,"code_postal":"80400","population":505,"superficie_km2":"704.38","latitude_centre":"49.7972","longitude_centre":"3.011","distance_km":1.75},{"id":32890,"code_insee":"80226","nom_standard":"Croix-Moligneaux","nom_a":null,"nom_de":null,"slug_ville":"croix-moligneaux","departement_id":0,"code_postal":"80400","population":270,"superficie_km2":"797.00","latitude_centre":"49.8218","longitude_centre":"3.002","distance_km":2.4},{"id":32776,"code_insee":"80097","nom_standard":"Béthencourt-sur-Somme","nom_a":null,"nom_de":null,"slug_ville":"bethencourt-sur-somme","departement_id":0,"code_postal":"80190","population":124,"superficie_km2":"287.53","latitude_centre":"49.7923","longitude_centre":"2.9556","distance_km":2.57},{"id":33206,"code_insee":"80616","nom_standard":"Pargny","nom_a":null,"nom_de":null,"slug_ville":"pargny","departement_id":0,"code_postal":"80190","population":198,"superficie_km2":"371.23","latitude_centre":"49.8088","longitude_centre":"2.9488","distance_km":2.9},{"id":32948,"code_insee":"80300","nom_standard":"Falvy","nom_a":null,"nom_de":null,"slug_ville":"falvy","departement_id":0,"code_postal":"80190","population":163,"superficie_km2":"634.65","latitude_centre":"49.8215","longitude_centre":"2.9572","distance_km":3.08},{"id":33357,"code_insee":"80811","nom_standard":"Voyennes","nom_a":null,"nom_de":null,"slug_ville":"voyennes","departement_id":0,"code_postal":"80400","population":595,"superficie_km2":"922.06","latitude_centre":"49.7696","longitude_centre":"2.9849","distance_km":3.63},{"id":33255,"code_insee":"80683","nom_standard":"Rouy-le-Grand","nom_a":null,"nom_de":null,"slug_ville":"rouy-le-grand","departement_id":0,"code_postal":"80190","population":100,"superficie_km2":"384.90","latitude_centre":"49.7801","longitude_centre":"2.9498","distance_km":3.68},{"id":33199,"code_insee":"80605","nom_standard":"Offoy","nom_a":null,"nom_de":null,"slug_ville":"offoy","departement_id":0,"code_postal":"80400","population":196,"superficie_km2":"714.75","latitude_centre":"49.7714","longitude_centre":"3.0166","distance_km":4.0},{"id":33235,"code_insee":"80658","nom_standard":"Quivières","nom_a":null,"nom_de":null,"slug_ville":"quivieres","departement_id":0,"code_postal":"80400","population":139,"superficie_km2":"687.72","latitude_centre":"49.8256","longitude_centre":"3.0302","distance_km":4.0},{"id":33169,"code_insee":"80568","nom_standard":"Morchain","nom_a":null,"nom_de":null,"slug_ville":"morchain","departement_id":0,"code_postal":"80190","population":362,"superficie_km2":"587.91","latitude_centre":"49.7997","longitude_centre":"2.9249","distance_km":4.53},{"id":32925,"code_insee":"80272","nom_standard":"Épénancourt","nom_a":null,"nom_de":null,"slug_ville":"epenancourt","departement_id":0,"code_postal":"80190","population":129,"superficie_km2":"348.14","latitude_centre":"49.8211","longitude_centre":"2.9291","distance_km":4.71},{"id":33256,"code_insee":"80684","nom_standard":"Rouy-le-Petit","nom_a":null,"nom_de":null,"slug_ville":"rouy-le-petit","departement_id":0,"code_postal":"80190","population":101,"superficie_km2":"328.69","latitude_centre":"49.7658","longitude_centre":"2.9537","distance_km":4.73},{"id":32921,"code_insee":"80267","nom_standard":"Ennemain","nom_a":null,"nom_de":null,"slug_ville":"ennemain","departement_id":0,"code_postal":"80200","population":241,"superficie_km2":"661.12","latitude_centre":"49.842","longitude_centre":"2.9595","distance_km":4.87},{"id":32912,"code_insee":"80252","nom_standard":"Douilly","nom_a":null,"nom_de":null,"slug_ville":"douilly","departement_id":0,"code_postal":"80400","population":250,"superficie_km2":"989.47","latitude_centre":"49.7956","longitude_centre":"3.0587","distance_km":5.13},{"id":33281,"code_insee":"80726","nom_standard":"Sancourt","nom_a":null,"nom_de":null,"slug_ville":"sancourt","departement_id":0,"code_postal":"80400","population":269,"superficie_km2":"728.09","latitude_centre":"49.7698","longitude_centre":"3.0465","distance_km":5.54},{"id":32901,"code_insee":"80239","nom_standard":"Devise","nom_a":null,"nom_de":null,"slug_ville":"devise","departement_id":0,"code_postal":"80200","population":59,"superficie_km2":"275.41","latitude_centre":"49.8513","longitude_centre":"3.0076","distance_km":5.64},{"id":32722,"code_insee":"80034","nom_standard":"Athies","nom_a":null,"nom_de":null,"slug_ville":"athies","departement_id":0,"code_postal":"80200","population":614,"superficie_km2":"1081.34","latitude_centre":"49.8552","longitude_centre":"2.9778","distance_km":5.94},{"id":33159,"code_insee":"80555","nom_standard":"Monchy-Lagache","nom_a":null,"nom_de":null,"slug_ville":"monchy-lagache","departement_id":0,"code_postal":"80200","population":593,"superficie_km2":"1545.95","latitude_centre":"49.8531","longitude_centre":"3.0424","distance_km":6.88},{"id":0,"code_insee":"80442","nom_standard":"Hombleux","nom_a":null,"nom_de":null,"slug_ville":"hombleux","departement_id":0,"code_postal":"80400","population":1111,"superficie_km2":"1572.91","latitude_centre":"49.7318","longitude_centre":"2.992","distance_km":7.83}]}