{"ville":{"id":21441,"code_insee":"40332","nom_standard":"Ychoux","nom_a":null,"nom_de":null,"slug_ville":"ychoux","departement_id":0,"code_postal":"40160","population":2338,"superficie_km2":"11129.73","latitude_centre":"44.3545","longitude_centre":"-0.9643","dep_code":"40","dep_nom":"Landes","dep_slug":"landes","reg_code":"75","reg_nom":"Nouvelle-Aquitaine","reg_slug":"nouvelle-aquitaine"},"departement":{"code":"40","nom":"Landes","slug":"landes"},"region":{"code":"75","nom":"Nouvelle-Aquitaine","slug":"nouvelle-aquitaine"},"villes_proches":[{"id":21329,"code_insee":"40156","nom_standard":"Liposthey","nom_a":null,"nom_de":null,"slug_ville":"liposthey","departement_id":0,"code_postal":"40410","population":603,"superficie_km2":"2420.41","latitude_centre":"44.304","longitude_centre":"-0.8829","distance_km":8.57},{"id":0,"code_insee":"40217","nom_standard":"Parentis-en-Born","nom_a":null,"nom_de":null,"slug_ville":"parentis-en-born","departement_id":0,"code_postal":"40160","population":7586,"superficie_km2":"12457.58","latitude_centre":"44.3527","longitude_centre":"-1.0879","distance_km":9.83},{"id":0,"code_insee":"40295","nom_standard":"Saugnac-et-Muret","nom_a":null,"nom_de":null,"slug_ville":"saugnac-et-muret","departement_id":0,"code_postal":"40410","population":1382,"superficie_km2":"11002.05","latitude_centre":"44.3893","longitude_centre":"-0.8494","distance_km":9.92},{"id":21335,"code_insee":"40163","nom_standard":"Lüe","nom_a":null,"nom_de":null,"slug_ville":"lue","departement_id":0,"code_postal":"40210","population":621,"superficie_km2":"9667.51","latitude_centre":"44.2337","longitude_centre":"-0.9858","distance_km":13.54},{"id":0,"code_insee":"33260","nom_standard":"Lugos","nom_a":null,"nom_de":null,"slug_ville":"lugos","departement_id":0,"code_postal":"33830","population":1208,"superficie_km2":"6234.27","latitude_centre":"44.4782","longitude_centre":"-0.9241","distance_km":14.12},{"id":0,"code_insee":"40229","nom_standard":"Pontenx-les-Forges","nom_a":null,"nom_de":null,"slug_ville":"pontenx-les-forges","departement_id":0,"code_postal":"40200","population":1775,"superficie_km2":"8085.72","latitude_centre":"44.2554","longitude_centre":"-1.0914","distance_km":14.96},{"id":0,"code_insee":"40227","nom_standard":"Pissos","nom_a":null,"nom_de":null,"slug_ville":"pissos","departement_id":0,"code_postal":"40410","population":1505,"superficie_km2":"14122.14","latitude_centre":"44.3012","longitude_centre":"-0.7906","distance_km":15.03},{"id":0,"code_insee":"40134","nom_standard":"Labouheyre","nom_a":null,"nom_de":null,"slug_ville":"labouheyre","departement_id":0,"code_postal":"40210","population":2906,"superficie_km2":"3632.45","latitude_centre":"44.2243","longitude_centre":"-0.9107","distance_km":15.09},{"id":21364,"code_insee":"40200","nom_standard":"Moustey","nom_a":null,"nom_de":null,"slug_ville":"moustey","departement_id":0,"code_postal":"40410","population":798,"superficie_km2":"6763.94","latitude_centre":"44.387","longitude_centre":"-0.7703","distance_km":15.84},{"id":0,"code_insee":"40046","nom_standard":"Biscarrosse","nom_a":null,"nom_de":null,"slug_ville":"biscarrosse","departement_id":0,"code_postal":"40600","population":15836,"superficie_km2":"19350.55","latitude_centre":"44.4077","longitude_centre":"-1.1525","distance_km":16.08},{"id":0,"code_insee":"40287","nom_standard":"Sanguinet","nom_a":null,"nom_de":null,"slug_ville":"sanguinet","departement_id":0,"code_postal":"40460","population":4741,"superficie_km2":"10059.30","latitude_centre":"44.4776","longitude_centre":"-1.0903","distance_km":16.96},{"id":21294,"code_insee":"40108","nom_standard":"Gastes","nom_a":null,"nom_de":null,"slug_ville":"gastes","departement_id":0,"code_postal":"40160","population":925,"superficie_km2":"4356.83","latitude_centre":"44.3117","longitude_centre":"-1.1996","distance_km":19.31},{"id":21275,"code_insee":"40085","nom_standard":"Commensacq","nom_a":null,"nom_de":null,"slug_ville":"commensacq","departement_id":0,"code_postal":"40210","population":440,"superficie_km2":"7145.03","latitude_centre":"44.2082","longitude_centre":"-0.8272","distance_km":19.59},{"id":0,"code_insee":"33042","nom_standard":"Belin-Béliet","nom_a":null,"nom_de":null,"slug_ville":"belin-beliet","departement_id":0,"code_postal":"33830","population":6275,"superficie_km2":"15607.22","latitude_centre":"44.4959","longitude_centre":"-0.7989","distance_km":20.49},{"id":0,"code_insee":"33498","nom_standard":"Salles","nom_a":null,"nom_de":null,"slug_ville":"salles","departement_id":0,"code_postal":"33770","population":8208,"superficie_km2":"13832.06","latitude_centre":"44.536","longitude_centre":"-0.8899","distance_km":21.03},{"id":21283,"code_insee":"40094","nom_standard":"Escource","nom_a":null,"nom_de":null,"slug_ville":"escource","departement_id":0,"code_postal":"40210","population":824,"superficie_km2":"10349.58","latitude_centre":"44.1639","longitude_centre":"-1.0361","distance_km":21.95},{"id":21412,"code_insee":"40278","nom_standard":"Saint-Paul-en-Born","nom_a":null,"nom_de":null,"slug_ville":"saint-paul-en-born","departement_id":0,"code_postal":"40200","population":975,"superficie_km2":"4351.13","latitude_centre":"44.2083","longitude_centre":"-1.155","distance_km":22.24},{"id":0,"code_insee":"33527","nom_standard":"Le Teich","nom_a":null,"nom_de":null,"slug_ville":"le-teich","departement_id":0,"code_postal":"33470","population":9180,"superficie_km2":"8651.10","latitude_centre":"44.5805","longitude_centre":"-1.0234","distance_km":25.56},{"id":0,"code_insee":"33199","nom_standard":"Gujan-Mestras","nom_a":null,"nom_de":null,"slug_ville":"gujan-mestras","departement_id":0,"code_postal":"33470","population":22153,"superficie_km2":"5063.72","latitude_centre":"44.5758","longitude_centre":"-1.0813","distance_km":26.3},{"id":21420,"code_insee":"40303","nom_standard":"Solférino","nom_a":null,"nom_de":null,"slug_ville":"solferino","departement_id":0,"code_postal":"40210","population":374,"superficie_km2":"9846.37","latitude_centre":"44.1155","longitude_centre":"-0.907","distance_km":26.96}]}