{"ville":{"id":29999,"code_insee":"68386","nom_standard":"Zimmersheim","nom_a":null,"nom_de":null,"slug_ville":"zimmersheim","departement_id":0,"code_postal":"68440","population":1083,"superficie_km2":"315.78","latitude_centre":"47.7187","longitude_centre":"7.3817","dep_code":"68","dep_nom":"Haut-Rhin","dep_slug":"haut-rhin","reg_code":"44","reg_nom":"Grand Est","reg_slug":"grand-est"},"departement":{"code":"68","nom":"Haut-Rhin","slug":"haut-rhin"},"region":{"code":"44","nom":"Grand Est","slug":"grand-est"},"villes_proches":[{"id":0,"code_insee":"68084","nom_standard":"Eschentzwiller","nom_a":null,"nom_de":null,"slug_ville":"eschentzwiller","departement_id":0,"code_postal":"68440","population":1527,"superficie_km2":"319.60","latitude_centre":"47.7113","longitude_centre":"7.3932","distance_km":1.19},{"id":0,"code_insee":"68055","nom_standard":"Bruebach","nom_a":null,"nom_de":null,"slug_ville":"bruebach","departement_id":0,"code_postal":"68440","population":1042,"superficie_km2":"702.61","latitude_centre":"47.7027","longitude_centre":"7.3583","distance_km":2.5},{"id":0,"code_insee":"68271","nom_standard":"Riedisheim","nom_a":null,"nom_de":null,"slug_ville":"riedisheim","departement_id":0,"code_postal":"68400","population":12200,"superficie_km2":"691.17","latitude_centre":"47.7393","longitude_centre":"7.3636","distance_km":2.66},{"id":0,"code_insee":"68278","nom_standard":"Rixheim","nom_a":null,"nom_de":null,"slug_ville":"rixheim","departement_id":0,"code_postal":"68170","population":14380,"superficie_km2":"1965.41","latitude_centre":"47.7445","longitude_centre":"7.4063","distance_km":3.41},{"id":0,"code_insee":"68174","nom_standard":"Landser","nom_a":null,"nom_de":null,"slug_ville":"landser","departement_id":0,"code_postal":"68440","population":1633,"superficie_km2":"304.19","latitude_centre":"47.6877","longitude_centre":"7.3852","distance_km":3.46},{"id":0,"code_insee":"68118","nom_standard":"Habsheim","nom_a":null,"nom_de":null,"slug_ville":"habsheim","departement_id":0,"code_postal":"68440","population":5076,"superficie_km2":"1565.49","latitude_centre":"47.7271","longitude_centre":"7.4333","distance_km":3.97},{"id":0,"code_insee":"68072","nom_standard":"Dietwiller","nom_a":null,"nom_de":null,"slug_ville":"dietwiller","departement_id":0,"code_postal":"68440","population":1385,"superficie_km2":"1106.11","latitude_centre":"47.6988","longitude_centre":"7.4284","distance_km":4.14},{"id":29946,"code_insee":"68323","nom_standard":"Steinbrunn-le-Bas","nom_a":null,"nom_de":null,"slug_ville":"steinbrunn-le-bas","departement_id":0,"code_postal":"68440","population":848,"superficie_km2":"857.79","latitude_centre":"47.6762","longitude_centre":"7.3617","distance_km":4.96},{"id":0,"code_insee":"68056","nom_standard":"Brunstatt-Didenheim","nom_a":null,"nom_de":null,"slug_ville":"brunstatt-didenheim","departement_id":0,"code_postal":"68350","population":8259,"superficie_km2":"1406.32","latitude_centre":"47.7165","longitude_centre":"7.3148","distance_km":5.01},{"id":0,"code_insee":"68301","nom_standard":"Schlierbach","nom_a":null,"nom_de":null,"slug_ville":"schlierbach","departement_id":0,"code_postal":"68440","population":1299,"superficie_km2":"1188.82","latitude_centre":"47.6841","longitude_centre":"7.4313","distance_km":5.35},{"id":0,"code_insee":"68093","nom_standard":"Flaxlanden","nom_a":null,"nom_de":null,"slug_ville":"flaxlanden","departement_id":0,"code_postal":"68720","population":1370,"superficie_km2":"432.62","latitude_centre":"47.691","longitude_centre":"7.3232","distance_km":5.35},{"id":0,"code_insee":"68224","nom_standard":"Mulhouse","nom_a":null,"nom_de":null,"slug_ville":"mulhouse","departement_id":0,"code_postal":"68100","population":104978,"superficie_km2":"2240.46","latitude_centre":"47.7526","longitude_centre":"7.3255","distance_km":5.65},{"id":29825,"code_insee":"68103","nom_standard":"Geispitzen","nom_a":null,"nom_de":null,"slug_ville":"geispitzen","departement_id":0,"code_postal":"68510","population":516,"superficie_km2":"604.26","latitude_centre":"47.6759","longitude_centre":"7.4377","distance_km":6.34},{"id":0,"code_insee":"68154","nom_standard":"Illzach","nom_a":null,"nom_de":null,"slug_ville":"illzach","departement_id":0,"code_postal":"68110","population":14923,"superficie_km2":"746.04","latitude_centre":"47.776","longitude_centre":"7.3622","distance_km":6.54},{"id":29947,"code_insee":"68324","nom_standard":"Steinbrunn-le-Haut","nom_a":null,"nom_de":null,"slug_ville":"steinbrunn-le-haut","departement_id":0,"code_postal":"68440","population":693,"superficie_km2":"924.79","latitude_centre":"47.6596","longitude_centre":"7.3436","distance_km":7.16},{"id":0,"code_insee":"68300","nom_standard":"Sausheim","nom_a":null,"nom_de":null,"slug_ville":"sausheim","departement_id":0,"code_postal":"68390","population":5666,"superficie_km2":"1689.24","latitude_centre":"47.7841","longitude_centre":"7.4041","distance_km":7.46},{"id":29971,"code_insee":"68357","nom_standard":"Waltenheim","nom_a":null,"nom_de":null,"slug_ville":"waltenheim","departement_id":0,"code_postal":"68510","population":506,"superficie_km2":"236.19","latitude_centre":"47.6552","longitude_centre":"7.4235","distance_km":7.72},{"id":29919,"code_insee":"68265","nom_standard":"Rantzwiller","nom_a":null,"nom_de":null,"slug_ville":"rantzwiller","departement_id":0,"code_postal":"68510","population":802,"superficie_km2":"523.82","latitude_centre":"47.6483","longitude_centre":"7.3706","distance_km":7.87},{"id":29861,"code_insee":"68170","nom_standard":"KÅ“tzingue","nom_a":null,"nom_de":null,"slug_ville":"koetzingue","departement_id":0,"code_postal":"68510","population":585,"superficie_km2":"515.73","latitude_centre":"47.6474","longitude_centre":"7.3909","distance_km":7.96},{"id":0,"code_insee":"68015","nom_standard":"Baldersheim","nom_a":null,"nom_de":null,"slug_ville":"baldersheim","departement_id":0,"code_postal":"68390","population":2596,"superficie_km2":"1276.93","latitude_centre":"47.7968","longitude_centre":"7.4063","distance_km":8.88}]}